id,address,lat,lon,tel,name,wilaya,check_geocode
0,"10,CONSTANTINE,Boulevard Zighoud Youcef,Constantine",36.3722339,6.6124233,31874294,Ispection Divisionnaires IMPOTS,Constantine,TRUE
1,"4,OUED ENDJA,Rue 20 Aout,Mila",36.5000205,6.0713274,31456866,. IMPOTS Direction,Mila,TRUE
2,"8,ORAN,Rue Adda Gharbi,Oran",35.7027683,-0.6481759,41362601,Direction Wilaya D'oran IMPOTS,Oran,TRUE
3,"AIN DEFLA,Cité 24 Villas,Ain Defla",36.2557647,1.9580324,27505560,Hotel Des Finances DIRECTION DES IMPOTS,Ain Defla,TRUE
4,"DGSN,BOUIRA,Rue du 20 Aout,Bouira",36.3737479,3.8943757,26727700,. IMPOT,Bouira,TRUE
5,"DIRECTION,CONSTANTINE,Boulevard De La Liberté,Constantine",36.3607894,6.6063664,031 91 23 93  - 031 92 40 23  - 031 92 66 83  - 031 92 75 93  - 031 92 76 81  - 031 92 78 09,Ispection Divisionnaires IMPOTS,Constantine,TRUE
6,"DOMILEK,AIN TOUILA,Cite 50 logts,Khenchela",35.4359455,7.3813708,32780852,. IMPOTS,Khenchela,TRUE
7,"MASCARA,Rue Boucif Mokhtar,Mascara",35.6807731,-0.6175364,045 71 54 32  - 045 71 54 61  - 045 71 54 64  - 045 71 54 67,IMPOTS Direction HOTEL DES FINANCES,Mascara,TRUE
8,"OUED ENDJA,Rue Koukou Smail,Mila",36.5000205,6.0713274,31456814,. IMPOTS Direction,Mila,TRUE
9,"BLIDA,Clos Alexandri,Blida",36.4803618,2.8328413,025 20 81 05  - 025 20 81 12  - 025 20 81 16  - 025 20 81 21  - 025 20 81 26  - 025 20 81 71  - 025 20 81 72,Direction IMPOTS,Blida,FALSE
10,"09,BOUIRA,Rue El Intifadha,Bouira",36.3691846,3.9006194,26749642,. IMPOT,Bouira,FALSE
11,"1,AIN FAKROUN,Route De Constantine,Oum El Bouaghi",35.9772098,6.8733714,032 57 56 91  - 032 57 57 06,. IMPOTS,Oum El Bouaghi,FALSE
12,"1,AKBOU,Gare Routiere,Bejaia",36.4640151,4.5298113,034 36 05 84  - 034 36 05 85  - 034 36 05 86  - 034 36 05 89  - 034 36 05 99,. IMPOTS Recette Contributions Divers,Bejaia,FALSE
13,"1,BISKRA,Hai SAADA 2 R11,Biskra",34.8615042,5.7424888,33655245,. DIRECTION DES IMPOTS,Biskra,FALSE
14,"1,GHARDAIA,Route Nationale n°1,Ghardaia",32.4943741,3.64446,29250596,LA DIRECTION DES IMPOTS BOUHRAOUA LA DIRECTION DES IMPOTS BOUHRAOUA,Ghardaia,FALSE
15,"1,OULED YAICH,Cité 1er Mai (1000 Logts),Blida",36.4948974,2.8456414,025 26 29 28  - 025 26 29 30  - 025 26 29 31  - 025 26 29 35,Sous Direction des Moyens Bureau des moyens et de l'informatique DIRECTION DES IMPOTS W.BLIDA,Blida,FALSE
16,"10,AIN FAKROUN,Cite Essalem,Oum El Bouaghi",35.9772098,6.8733714,032 57 56 20  - 032 57 56 21,. IMPOTS,Oum El Bouaghi,FALSE
17,"10,GHARDAIA,Route Nationale n°1,Ghardaia",32.4943741,3.64446,29250576,LA DIRECTION DES IMPOTS BOUHRAOUA LA DIRECTION DES IMPOTS BOUHRAOUA,Ghardaia,FALSE
18,"10,MERAHNA,Cite Betaitia Athmane,Souk Ahras",36.1973791,8.1551838,37804553,. CENTRE DES IMPOTS,Souk Ahras,FALSE
19,"10,TIPAZA,Rue du Stade,Tipaza",36.5869018,2.4382553,24378623,DIRECTION IMPOTS,Tipaza,FALSE
20,"11,MOSTAGANEM,Hai Bousmat,Mostaganem",35.9311454,0.0909414,45201209,. IMPOTS Direction,Mostaganem,FALSE
21,"11,ORAN,Boulevard Abane Ramdane,Oran",35.7038765,-0.639546,041 33 09 79  - 041 33 09 80,. RECETTE DES IMPOTS D'ORAN-KHALDIA,Oran,FALSE
22,"12,ALGER CENTRE,Rue Asselah Hocine,Alger",36.7767055,3.0594319,21738140,. DIRECTION DES IMPOTS DE SIDI MHAMED,Alger,FALSE
23,"12,ALGER CENTRE,Rue Mulhouse,Alger",36.7834349,3.0620357,21782971,Direction d'Alger Centre IMPOTS,Alger,FALSE
24,"12,CASBAH,Rue Bab Azzoun,Alger",36.7813883,3.061114,021 43 77 30  - 021 43 81 30,Sous Direction des Impots Directes DIRECTION DES IMPOTS,Alger,FALSE
25,"14,ALGER CENTRE,Rue Abane Ramdane,Alger",36.7788907,3.0593267,021 71 68 50  - 021 71 71 25  - 021 73 71 55,Direction d'Alger Centre IMPOTS,Alger,FALSE
26,"14,CASBAH,Avenue Du 1er Novembre,Alger",36.7869313,3.063122,021 43 08 59  - 021 43 71 34,. DIRECTION DES IMPOTS D'ALGER OUEST,Alger,FALSE
27,"14,LAGHOUAT,Cité 200 logements Saci BOULAF,Laghouat",33.8078341,2.8628294,29106665,impots direction des imots,Laghouat,FALSE
28,"14,OUED EL ALLEUG,Rue Salhi,Blida",36.5558964,2.7896308,25438182,. IMPOTS Direction,Blida,FALSE
29,"15,AZZABA,Rue De La Gare,Skikda",36.7411032,7.1116629,38969380,. IMPOTS,Skikda,FALSE
30,"15,ORAN,Boulevard Kheddim Mustapha,Oran",35.6987388,-0.6349319,041 15 30 75  - 041 15 30 78,. IMPOTS Direction Ouest,Oran,FALSE
31,"16,EL HARRACH,Rue 5 Juillet,Alger",36.7466241,3.1825569,21831990,. IMPOTS Direction Générale,Alger,FALSE
32,"16,GHARDAIA,Route Nationale n°1,Ghardaia",32.4943741,3.64446,29259333,LA DIRECTION DES IMPOTS BOUHRAOUA LA DIRECTION DES IMPOTS BOUHRAOUA,Ghardaia,FALSE
33,"16,SKIKDA,Avenue Zighoud Youcef Ex Resid,Skikda",36.8841896,6.903949,38761161,. IMPOTS,Skikda,FALSE
34,"17,ALGER CENTRE,Rue Hamani Arezki,Alger",36.7706623,3.056956,023 49 20 04  - 023 49 20 29  - 023 49 20 42  - 023 49 20 74  - 023 49 20 75  - 023 49 20 76  - 023 49 20 77  - 023 49 20 78  - 023 49 20 80  - 023 49 20 81  - 023 49 20 84  - 023 49 20 85  - 023 49 22 20  - 023 49 27 42,. Direction Générale des Impots,Alger,FALSE
35,"179,SEDRATA,Rue 08 Mai 45,Souk Ahras",36.1298015,7.5330607,37777059,. IMPOTS Direction,Souk Ahras,FALSE
36,"18A,OUARGLA,Avenue SI EL HAOUES,Ouargla",31.9527411,5.3335348,29703223,. DIRECTION DES IMPOTS,Ouargla,FALSE
37,"19,ALGER CENTRE,Rue De La Liberté,Alger",36.7789879,3.0600447,21717117,Direction d'Alger Centre IMPOTS,Alger,FALSE
38,"2,BISKRA,Hai SAADA 2 R11,Biskra",34.8615042,5.7424888,033 65 52 47  - 033 65 52 48  - 033 65 52 55  - 033 65 52 56  - 033 65 52 66  - 033 65 52 67  - 033 65 52 72,. DIRECTION DES IMPOTS,Biskra,FALSE
39,"2,BORDJ MENAIEL,Rue Colonel Amirouche,Boumerdes",36.7450878,3.7192567,24886738,. IMPOTS Direction,Boumerdes,FALSE
40,"2,CHECHAR,Rue Zerouali Lamneouar,Khenchela",34.8786128,7.0498442,32753513,. IMPOTS,Khenchela,FALSE
41,"2,DAR EL BEIDA,Rte Du Genie,Alger",36.7156377,3.1987946,023 80 12 61  - 023 80 12 61,. Direction des Impots d'Ager Est,Alger,FALSE
42,"2,EL BIAR,Ave Taleb Messaoud,Alger",36.7702891,3.0269479,21924689,. DIRECTION DES IMPOTS D'ALGER OUEST,Alger,FALSE
43,"2,EL BIAR,Rue Des Freres Khaloum,Alger",36.7694847,3.0309897,021 92 18 90  - 023 37 75 60,. DIRECTION DES IMPOTS D'ALGER OUEST,Alger,FALSE
44,"2,ORAN,Boulevard Abane Ramdane,Oran",35.705307,-0.639774,041 33 02 64  - 041 33 10 51,. IMPOTS Direction Ouest,Oran,FALSE
45,"2,ORAN,Rue Maitre Abed,Oran",35.6902133,-0.6563508,41301951,Direction Wilaya D'oran IMPOTS,Oran,FALSE
46,"20,HELIOPOLIS,Rue 17 Octobre,Guelma",36.5083803,7.4361944,037 13 53 86  - 037 13 53 95  - 037 13 54 29  - 037 13 54 76,GUELMA CENTRE DES IMPOTS,Guelma,FALSE
47,"20,TEBESSA,Ilot 303,Tebessa",35.4010797,8.1172958,37569254,. IMPOTS DIRECTION TEBESSA,Tebessa,FALSE
48,"22,MERAHNA,Rue Lacheguar Amor,Souk Ahras",36.1973791,8.1551838,37804931,. CENTRE DES IMPOTS MERAHNA,Souk Ahras,FALSE
49,"225,AIN FAKROUN,Rue Bouabellah Derradji,Oum El Bouaghi",35.9772098,6.8733714,32574844,. IMPOTS,Oum El Bouaghi,FALSE
50,"23,BLIDA,Cite Bounaama Djillali,Blida",36.4828883,2.8166118,25229792,Direction IMPOTS,Blida,FALSE
51,"236,MOHAMMADIA,Lot Les Mandarines,Alger",36.7295732,3.1571563,023 75 06 77  - 023 75 06 77,AMIRA FOOD IMPOT EXPOT SARL,Alger,FALSE
52,"243,AIN FAKROUN,Cite 300 Logts De La Gare,Oum El Bouaghi",35.9772098,6.8733714,32575004,. IMPOTS,Oum El Bouaghi,FALSE
53,"26,SOUK AHRAS,Bd Mohamed Cherif Messadia,Souk Ahras",36.298694,7.9259208,037 71 52 04  - 037 71 55 60,. IMPOTS Direction,Souk Ahras,FALSE
54,"27,BOUIRA,Rue Colonel Amirouche,Bouira",36.3778762,3.9015704,026 74 82 38  - 026 74 82 39,. IMPOT,Bouira,FALSE
55,"27,MEROUANA,Rue Du Lycee,Batna",35.6328904,5.9051916,33400869,MEROUANA RECETTE DES IMPOTS,Batna,FALSE
56,"3,AZZABA,Cite Police,Skikda",36.7411032,7.1116629,38950240,. IMPOTS,Skikda,FALSE
57,"3,ZERALDA,Cite Bellal,Alger",36.7137456,2.8449957,21395313,. IMPOTS DIRECTION,Alger,FALSE
58,"334,AIN M'LILA,Cité Gouadjelia,Oum El Bouaghi",36.0343972,6.5737863,32524471,. DIRECTION DES IMPOTS,Oum El Bouaghi,FALSE
59,"35,AIN EL KEBIRA,Rue Hadjadji Cherif,Setif",36.3695684,5.5075105,036 59 44 65  - 036 59 45 48  - 036 59 47 18,. IMPOTS DIRECTION Org,Setif,FALSE
60,"37,RAIS HAMIDOU,Ave Hamid Kebladj,Alger",36.8174562,3.0114423,021 70 80 81  - 021 70 88 83,. DIRECTION DES IMPÔTS D'ALGER OUEST,Alger,FALSE
61,"39,BLIDA,Clos Alexandri,Blida",36.4735715,2.8323153,25208523,Direction IMPOTS,Blida,FALSE
62,"4,AIN TOUTA,Rue 5 Juillet,Batna",35.3808071,5.9020128,33353127,Batna DIRECTION DES IMPOTS,Batna,FALSE
63,"4,DELY IBRAHIM,Cité Ain Allah,Alger",36.755029,2.992138,023 24 10 55  - 023 24 12 43  - 023 24 13 81  - 023 24 16 60  - 023 31 21 99,. Direction Des Impots D'alger Ouest,Alger,FALSE
64,"4,GHARDAIA,Route Nationale n°1,Ghardaia",32.4943741,3.64446,29250566,LA DIRECTION DES IMPOTS BOUHRAOUA LA DIRECTION DES IMPOTS BOUHRAOUA,Ghardaia,FALSE
65,"4,JIJEL,Route 3 Eme KM Rte Constantine,Jijel",36.8210144,5.7634126,34596218,. IMPOTS Direction,Jijel,FALSE
66,"40c,EL KSEUR,Place Du Marche,Bejaia",36.6775376,4.8492903,34135376,. IMPOTS Recette Contributions Divers,Bejaia,FALSE
67,"42,BENI MERED,Rue 1er Novembre,Blida",36.5260576,2.8642185,25276189,Sous Direction des Moyens Bureau des moyens et de l'informatique DIRECTION DES IMPOTS W.BLIDA,Blida,FALSE
68,"42,ZERIBET EL OUED,Rue des fr}res BENNADJI,Biskra",34.6856169,6.4934143,33641533,. DIRECTION DES IMPOTS,Biskra,FALSE
69,"4B,OUARGLA,Avenue SI EL HAOUES,Ouargla",31.9527411,5.3335348,29702628,. DIRECTION DES IMPOTS,Ouargla,FALSE
70,"5,HUSSEIN DEY,Cité Mer et Soleil,Alger",36.7336049,3.1009984,023 77 71 42  - 023 77 71 42,. RECETTE DES IMPOTS DE CAROUBIER,Alger,FALSE
71,"5,ORAN,Rue Benahmed El Houari,Oran",35.6987388,-0.6349319,41296213,Direction Wilaya D'oran IMPOTS,Oran,FALSE
72,"54,BORDJ MENAIEL,Rue Colonel Amirouche,Boumerdes",36.7450878,3.7192567,24885322,. IMPOTS Direction,Boumerdes,FALSE
73,"56,BOUIRA,Place des Martyrs,Bouira",36.3691846,3.9006194,26749019,. IMPOT,Bouira,FALSE
74,"6,EL MADHER,Rue Bahloul Khoudir,Batna",35.6274186,6.3733989,033 26 90 84  - 033 26 94 94,El Madher IMPOTS Recette Des Contributions Diverses,Batna,FALSE
75,"6,MEROUANA,Rue Du Lycee,Batna",35.6348418,5.909114,33400733,Batna DIRECTION DES IMPOTS,Batna,FALSE
76,"6,ORAN,Rue des Soeurs Benslimane,Oran",35.703424,-0.6447494,041 29 20 42  - 041 29 20 43  - 041 29 20 68  - 041 29 20 85  - 041 29 25 49  - 041 29 25 69  - 041 29 25 70  - 041 29 26 75  - 041 29 26 93  - 041 29 32 01  - 041 29 35 58  - 041 29 39 38  - 041 29 42 40  - 041 29 57 79  - 041 29 58 82  - 041 29 62 24,Direction Wilaya D'oran IMPOTS,Oran,FALSE
77,"6,SKIKDA,Rue Mahmoud Bouzabra,Skikda",36.8796509,6.9147479,38756795,. IMPOTS,Skikda,FALSE
78,"63,ALGER CENTRE,Rue Didouche Mourad,Alger",36.767093,3.051068,21716265,Sous Direction des Impots et Perception DIRECTION DES IMPOTS,Alger,FALSE
79,"64,HAMMAM BOUHADJAR,Boulevard Mohamed Khemisti,Ain Temouchent",35.2972405,-1.1406886,043 73 51 18  - 043 73 51 59,. DIRECTION DES IMPOTS,Ain Temouchent,FALSE
80,"68,HUSSEIN DEY,Rue Tripoli,Alger",36.7437278,3.0958078,023 77 50 36  - 023 77 50 38  - 023 77 50 39  - 023 77 50 40  - 023 77 50 36  - 023 77 50 38  - 023 77 50 39  - 023 77 50 40,Inspection IMPOTS,Alger,FALSE
81,"7,EL KHROUB,Cite 1600 Logts ORVE,Constantine",36.2576827,6.701911,31761687,Ispection Divisionnaires IMPOTS,Constantine,FALSE
82,"7,GHARDAIA,Route Nationale n°1,Ghardaia",32.4943741,3.64446,29250508,LA DIRECTION DES IMPOTS BOUHRAOUA LA DIRECTION DES IMPOTS BOUHRAOUA,Ghardaia,FALSE
83,"7,THENIA,Rue Benhamadache Said,Boumerdes",36.7250779,3.5566369,24966090,. IMPOTS Direction,Boumerdes,FALSE
84,"8,EL HARRACH,Rue Sidi Okba,Alger",36.7209669,3.1376625,023 74 97 31  - 023 74 97 31,. IMPOTS Direction Générale,Alger,FALSE
85,"8,FERDJIOUA,Sureté Nationale,Mila",36.4051142,5.94196,31495111,. IMPOTS Direction,Mila,FALSE
86,"8,GHARDAIA,Route Nationale n°1,Ghardaia",32.4943741,3.64446,29250582,LA DIRECTION DES IMPOTS BOUHRAOUA LA DIRECTION DES IMPOTS BOUHRAOUA,Ghardaia,FALSE
87,"8,OULED YAICH,Cité 1er Mai (1000 Logts),Blida",36.4948974,2.8456414,025 26 27 96  - 025 26 29 32  - 025 26 29 33  - 025 26 29 34,Sous Direction des Moyens Bureau des moyens et de l'informatique DIRECTION DES IMPOTS W.BLIDA,Blida,FALSE
88,"81,DJANET,Hai TIN OUDADE,Illizi",24.554151,9.485429,029 48 03 09  - 029 48 04 31  - 029 48 04 68  - 029 48 04 77  - 029 48 09 73,. DIRECTION DES IMPOTS,Illizi,FALSE
89,"9,AIN BESSEM,Rue Colonel Si M'hamed,Bouira",36.3337514,3.687402,26879845,. IMPOT,Bouira,FALSE
90,"9,BOUIRA,Rue Romita Mohamed,Bouira",36.3764664,3.9033995,26748324,. IMPOT,Bouira,FALSE
91,"9,CHERAGA,Rue De La Palestine,Alger",36.7668544,2.9602011,23264869,. Direction Des Impots D'alger Ouest,Alger,FALSE
92,"9,ORAN,Boulevard Tripoli,Oran",35.7084103,-0.6464637,41331368,Direction Wilaya D'oran IMPOTS,Oran,FALSE
93,"91,BIRTOUTA,Rue Ali Bouhadja,Alger",36.6475086,3.0055118,023 58 42 06  - 023 58 42 10,. Inspection et Recettes des impots de Birtouta,Alger,FALSE
94,"91,TADJENANET,Cite Dalia,Mila",36.1218328,5.9852421,31403839,. IMPOTS Direction,Mila,FALSE
95,"94,GHARDAIA,Cité 350 logements,Ghardaia",32.4943741,3.64446,29250584,LA DIRECTION DES IMPOTS BOUHRAOUA LA DIRECTION DES IMPOTS BOUHRAOUA,Ghardaia,FALSE
96,"AFLOU,Cité Administrative,Laghouat",34.1139518,2.0973854,029 16 62 51  - 029 16 62 52,. IMPOTS Direction,Laghouat,FALSE
97,"AIN ARNAT,Rue 8 Mai 45 o,Setif",36.1755107,5.330304,036 54 13 95  - 036 54 15 30,. IMPOTS DIRECTION Org,Setif,FALSE
98,"AIN AZEL,Cite 188 Lots,Setif",35.8201747,5.5105515,36554252,. IMPOTS DIRECTION Org,Setif,FALSE
99,"AIN AZEL,Rue De la Republique,Setif",35.8201747,5.5105515,36680100,. IMPOTS DIRECTION Org,Setif,FALSE
100,"AIN BEIDA (OUARGLA),Chem de wilaya n°206,Ouargla",31.93,5.39,29777342,. DIRECTION DES IMPOTS,Ouargla,FALSE
101,"AIN BEIDA (OUARGLA),Residence 4°region militaire,Ouargla",31.93,5.39,029 77 73 41  - 029 77 73 45  - 029 77 73 46,. DIRECTION DES IMPOTS,Ouargla,FALSE
102,"AIN BENIAN,Cite 42 Logts,Alger",36.800402,2.9181427,23225881,. Direction Des Impots D'alger Ouest,Alger,FALSE
103,"AIN BENIAN,Rue Aissat Idir,Alger",36.8010809,2.9123732,023 10 35 12  - 023 10 35 13,. Direction Des Impots D'alger Ouest,Alger,FALSE
104,"AIN BERDA,Ain El Berda,Annaba",36.6460139,7.5886388,38490416,. RECETTE DES IMPOTS,Annaba,FALSE
105,"AIN BESSEM,Hai Ben Ahmed El Hadj,Bouira",36.3337514,3.687402,26876486,. IMPOT,Bouira,FALSE
106,"AIN BESSEM,Rue Aligui Makhlouf,Bouira",36.3337514,3.687402,26875147,. IMPOT,Bouira,FALSE
107,"AIN BOUCIF,Centre Ville,Medea",35.8896757,3.1549616,25702284,. IMPOTS Direction,Medea,FALSE
108,"AIN BOUCIF,Rue Cherfi Halima,Medea",35.8896757,3.1549616,025 70 20 46  - 025 70 21 07,. IMPOTS Direction,Medea,FALSE
109,"AIN DEFLA,Centre Ville,Ain Defla",36.2509429,1.9393815,027 50 45 08  - 027 50 45 10  - 027 50 45 11,Hotel Des Finances DIRECTION DES IMPOTS,Ain Defla,FALSE
110,"AIN DEFLA,Cité Administrative,Ain Defla",36.2605395,1.9548499,27504345,. SALEM'S IMPOT EXPORT,Ain Defla,FALSE
111,"AIN DEFLA,Hotel Des Finances,Ain Defla",36.2553394,1.9540755,027 50 44 97  - 027 50 44 98  - 027 50 44 99  - 027 50 45 00  - 027 50 45 01  - 027 50 45 02  - 027 50 45 03  - 027 50 45 04  - 027 50 45 05  - 027 50 50 21  - 027 50 94 00,. IMPOTS,Ain Defla,FALSE
112,"AIN EL ARBAA,Rue Emir AEK,Ain Temouchent",35.2992698,-1.1392792,043 73 12 93  - 043 73 17 08,. DIRECTION DES IMPOTS,Ain Temouchent,FALSE
113,"AIN EL ARBAA,Rue des 3 Freres Khoualef,Ain Temouchent",35.4079899,-0.8800843,043 73 12 46  - 043 73 14 47,. DIRECTION DES IMPOTS,Ain Temouchent,FALSE
114,"AIN EL HAMMAM,Cite des Fonctionnaires,Tizi Ouzou",36.5698193,4.3120324,26488641,. DIRECTION DES IMPOTS,Tizi Ouzou,FALSE
115,"AIN EL HAMMAM,Cité 146 Logements,Tizi Ouzou",36.5698193,4.3120324,26261132,. DIRECTION DES IMPOTS,Tizi Ouzou,FALSE
116,"AIN EL HAMMAM,Rue Colonel Amirouche,Tizi Ouzou",36.5723525,4.3085895,26488643,. DIRECTION DES IMPOTS,Tizi Ouzou,FALSE
117,"AIN EL MELH,Ain El Melh,MSila",34.8467202,4.1618039,35478195,Bou saada IMPOTS RECETTE DES CONTRIBUTION DIVERSES,MSila,FALSE
118,"AIN FAKROUN,Route De Constantine,Oum El Bouaghi",35.9772098,6.8733714,032 57 58 63  - 032 57 58 70,. IMPOTS,Oum El Bouaghi,FALSE
119,"AIN KERCHA,Rue Travalleurs,Oum El Bouaghi",35.8693177,7.1099466,32511261,. DIRECTION DES IMPOTS,Oum El Bouaghi,FALSE
120,"AIN M'LILA,Cite HLM,Oum El Bouaghi",36.0343972,6.5737863,032 50 22 65  - 032 50 22 66  - 032 50 66 75,. DIRECTION DES IMPOTS,Oum El Bouaghi,FALSE
121,"AIN M'LILA,Cité Gouadjelia,Oum El Bouaghi",36.0343972,6.5737863,032 52 47 74  - 032 52 47 77  - 032 52 47 78,. DIRECTION DES IMPOTS,Oum El Bouaghi,FALSE
122,"AIN MADHI,Lotissement DOUAYER,Laghouat",33.7986775,2.3074412,29130482,. IMPOTS Direction,Laghouat,FALSE
123,"AIN NOUISSY,Ain Nouicy,Mostaganem",35.8040506,0.0454885,045 37 42 71  - 045 37 42 72  - 045 37 44 96,. IMPOTS Direction,Mostaganem,FALSE
124,"AIN NOUISSY,Ain Nouisy Centre,Mostaganem",35.8040506,0.0454885,45374075,. IMPOTS Direction,Mostaganem,FALSE
125,"AIN OUSSERA,Cité Ali Ammar,Djelfa",35.4571077,2.9045497,27801736,. IMPOTS,Djelfa,FALSE
126,"AIN OUSSERA,Hai Mohamed Saifi,Djelfa",35.4487155,2.9073552,027 80 70 40  - 027 80 70 42  - 027 80 70 43  - 027 80 70 44,. IMPOTS,Djelfa,FALSE
127,"AIN SALAH,Cité EL BACHIR ALIBRAHIMI,Tamanrasset",36.0470328,4.8013693,29385252,. IMPOTS Direction,Tamanrasset,FALSE
128,"AIN TAYA,Rue Colonel Amirouche,Alger",36.7941454,3.2903027,23954691,. IMPOTS,Alger,FALSE
129,"AIN TAYA,Rue Emir Abdelkader,Alger",36.792946,3.2882452,23954201,. IMPOTS,Alger,FALSE
130,"AIN TEDELES,Cité 52 Logements LSP ADEN,Mostaganem",35.9949008,0.2996927,045 43 61 41  - 045 43 61 42  - 045 43 61 43  - 045 43 61 44  - 045 43 61 45  - 045 43 61 46  - 045 43 62 70  - 045 43 62 71  - 045 43 62 73,. IMPOTS Direction,Mostaganem,FALSE
131,"AIN TEMOUCHENT,Ain Temouchent",35.2992698,-1.1392792,043 79 89 00  - 043 79 89 07  - 043 79 89 21  - 043 79 89 48  - 043 79 89 55,. DIRECTION DES IMPOTS,Ain Temouchent,FALSE
132,"AIN TEMOUCHENT,Ilot 50,Ain Temouchent",35.2992698,-1.1392792,043 79 06 52  - 043 79 06 53  - 043 79 06 54  - 043 79 06 55  - 043 79 06 57  - 043 79 06 58  - 043 79 06 59  - 043 79 06 95  - 043 79 07 56,. CENTRE DES IMPOTS,Ain Temouchent,FALSE
133,"AIN TEMOUCHENT,Route De Terga,Ain Temouchent",35.4367218,-1.2365376,043 79 16 11  - 043 79 23 88  - 043 79 25 25  - 043 79 29 55  - 043 79 31 35  - 043 79 52 10,. DIRECTION DES IMPOTS,Ain Temouchent,FALSE
134,"AIN TOUILA,Ain Touila,Khenchela",35.4359455,7.3813708,32780857,. IMPOTS,Khenchela,FALSE
135,"AIN TOUILA,Rue Handaoui Med Tahar,Khenchela",35.4253596,7.1422601,32780855,. IMPOTS,Khenchela,FALSE
136,"AIN TOUILA,VILLAGE,Khenchela",35.4359455,7.3813708,32780856,. IMPOTS,Khenchela,FALSE
137,"AIN TURK (ORAN),Boulevard Pasteur,Oran",35.7454229,-0.7681562,41100497,. IMPOTS Direction Ouest,Oran,FALSE
138,"AKBOU,Village Akbou,Bejaia",36.4556403,4.5365087,34334443,. IMPOTS Recette Contributions Divers,Bejaia,FALSE
139,"ALGER CENTRE,Bd Mohamed V,Alger",36.7674952,3.0503852,021 78 12 53  - 021 78 13 57,. IMPOTS,Alger,FALSE
140,"ALGER CENTRE,Boulevard Colonel Amirouche,Alger",36.7710322,3.0586084,021 73 34 31  - 021 73 34 80  - 021 73 35 27  - 021 73 38 77  - 021 73 40 34  - 021 73 45 03,Direction Générale des Impots MINISTERE DE L'ECONOMIE,Alger,FALSE
141,"ALGER CENTRE,Boulevard Frantz Fanon,Alger",36.7758018,3.0544784,21724087,Direction d'Alger Centre IMPOTS,Alger,FALSE
142,"ALGER CENTRE,Immeuble Mauritania,Alger",36.7697009,3.0570504,21549591,. DIRECTION DES IMPOTS ALGER CENTRE,Alger,FALSE
143,"ALGER CENTRE,Place De Pirou,Alger",36.7712246,3.0612244,021 71 52 58  - 021 71 52 60  - 021 71 69 13  - 021 73 13 09  - 021 73 13 28  - 021 73 13 31  - 021 73 13 34  - 021 73 13 59  - 021 73 13 63  - 021 73 13 66  - 021 73 13 75  - 021 73 13 96  - 021 73 13 97  - 021 73 53 23  - 021 73 53 27  - 021 74 82 26  - 021 74 82 41,. DIRECTION DES IMPOTS D'ALGER OUEST,Alger,FALSE
144,"ALGER CENTRE,Rue Docteur Saadane Cherif,Alger",36.7736041,3.0568673,21719870,. Direction Générale des Impots,Alger,FALSE
145,"ALGER CENTRE,Rue Franklin Roosvelt,Alger",36.760968,3.0461504,021 74 02 71  - 021 74 79 06  - 021 74 79 13  - 021 74 79 42,Sous Direction des Impots Directes DIRECTION DES IMPOTS,Alger,FALSE
146,"ALGER CENTRE,Rue Frères Merouane,Alger",36.7712246,3.0612244,023 49 26 09  - 023 49 26 14,Direction d'Alger Centre IMPOTS,Alger,FALSE
147,"ALGER CENTRE,Rue Hamani Arezki,Alger",36.7706623,3.056956,23492183,Direction d'Alger Centre IMPOTS,Alger,FALSE
148,"ALGER CENTRE,Rue Mustapha Bouhired,Alger",36.7709858,3.0576861,023 49 26 55  - 023 49 26 57  - 023 49 26 60  - 023 49 26 63,Inspection IMPOTS,Alger,FALSE
149,"AMIZOUR,Cite 154 Logts,Bejaia",36.643932,4.9036584,034 24 00 43  - 034 24 01 36  - 034 82 42 77,. IMPOTS Recette Contributions Divers,Bejaia,FALSE
150,"AMIZOUR,Residence Amizour Centre,Bejaia",36.6626637,4.9154069,34824274,. IMPOTS Recette Contributions Divers,Bejaia,FALSE
151,"ANNABA,Bd 1er Novembre 1954,Annaba",36.9082213,7.7608703,038 43 12 73  - 038 44 57 11  - 038 44 76 84  - 038 44 82 65  - 038 44 91 04  - 038 45 11 03  - 038 45 11 07  - 038 45 11 09  - 038 45 11 10  - 038 45 11 13  - 038 45 11 14  - 038 45 11 15  - 038 45 11 17  - 038 45 11 23  - 038 45 11 25  - 038 45 11 27  - 038 45 11 28  - 038 45 11 52  - 038 86 38 94  - 038 86 94 11,. IMPOTS Direction,Annaba,FALSE
152,"ANNABA,Bd Seddik Ben Yahia,Annaba",36.9186215,7.7531248,038 45 63 33  - 038 45 63 34,. IMPOTS Sous Direction,Annaba,FALSE
153,"ANNABA,Cité 24 Logts Wilaya,Annaba",36.9142081,7.7426673,38491392,. IMPOTS Sous Direction,Annaba,FALSE
154,"APC,CONSTANTINE,APC Cite Des Muriers,Constantine",36.3748092,6.6275669,31687749,. IMPOTS Direction,Constantine,FALSE
155,"APC,DJASR KACENTINA,Gué de Constantine,Alger",36.703822,3.0813063,21284454,RECETTE DE GUE DE CONSTANTINE Direction des impots alger centre,Alger,FALSE
156,"ARRIS,Rue Ahmed Abderezzak,Batna",42.3770029,-71.1166601,033 34 31 21  - 033 34 31 23  - 033 34 31 67,. RECETTE DES IMPOTS ARRIS,Batna,FALSE
157,"ARRIS,Rue Ben Boulaid,Batna",35.2585588,6.3490362,33343119,Batna DIRECTION DES IMPOTS,Batna,FALSE
158,"ARZEW,Rue Aissat Idir,Oran",35.7266341,-0.5823025,41771045,Direction Wilaya D'oran IMPOTS,Oran,FALSE
159,"AZAZGA,Azzazga,Tizi Ouzou",36.7453947,4.3714004,26141886,. DIRECTION DES IMPOTS,Tizi Ouzou,FALSE
160,"AZAZGA,Route D'Ighil Bouzel,Tizi Ouzou",36.7526941,4.3563557,26142067,. DIRECTION DES IMPOTS,Tizi Ouzou,FALSE
161,"AZAZGA,Rue du 20 Aout,Tizi Ouzou",36.7452064,4.3706572,26141461,. DIRECTION DES IMPOTS,Tizi Ouzou,FALSE
162,"AZEFFOUN,Azeffoun,Tizi Ouzou",36.8889179,4.4221618,26450525,. DIRECTION DES IMPOTS,Tizi Ouzou,FALSE
163,"AZZABA,Rue De La Gare,Skikda",36.7411032,7.1116629,038 96 91 41  - 038 96 97 94  - 038 96 98 07  - 038 96 98 08  - 038 96 98 15  - 038 96 98 16,. IMPOTS,Skikda,FALSE
164,"B+ 13,MESSAAD,Cité 100 Logts Ben Brahim Moha,Djelfa",34.1540623,3.4922857,27989051,. IMPOTS,Djelfa,FALSE
165,"BAB EL ASSA,Rue 05,Tlemcen",34.9651957,-2.0312446,43511363,. IMPOTS Direction,Tlemcen,FALSE
166,"BAB EL ASSA,Rue APC,Tlemcen",34.9617325,-2.0337149,43511297,. IMPOTS Direction,Tlemcen,FALSE
167,"BAB EL ASSA,Rue De la Daira,Tlemcen",34.9651957,-2.0312446,43511364,. IMPOTS Direction,Tlemcen,FALSE
168,"BAB EL OUED,Ave Colonel Lotfi,Alger",36.790592,3.0510435,21976169,. DIRECTION DES IMPÔTS D'ALGER OUEST,Alger,FALSE
169,"BAB EL OUED,Ave Gharafa Brahim,Alger",36.7914891,3.0541008,23178090,. DIRECTION DES IMPÔTS D'ALGER OUEST,Alger,FALSE
170,"BAB EL OUED,Cite Diar El Kef,Alger",36.7437419,3.0738992,21963269,. IMPOTS INSPECTION,Alger,FALSE
171,"BAB EZZOUAR,Cite 2068 Logts,Alger",36.7189157,3.1825447,023 93 88 91  - 023 94 47 73  - 023 94 47 74  - 023 94 47 75  - 023 94 47 76  - 023 94 47 77  - 023 94 47 78  - 023 94 47 80,. CENTRE DES IMPOTS D'EL HARRACH,Alger,FALSE
172,"BAB EZZOUAR,Cite El Djorf,Alger",36.7176103,3.1751454,21247663,. DIRECTION DES IMPOTS ALGER EST,Alger,FALSE
173,"BABA HASSEN,Rue Des Freres Kaci,Alger",36.6955179,2.9748092,23353739,Inspection IMPOTS,Alger,FALSE
174,"BACHDJARAH,Cité Badjarah 1,Alger",36.7227572,3.1182661,21262890,. IMPOTS Recette,Alger,FALSE
175,"BAGHLIA,Rue Principale,Boumerdes",36.8180081,3.8592419,024 76 03 48  - 024 76 03 53,. IMPOTS Direction,Boumerdes,FALSE
176,"BANQUE,M'SILA,Cite Administrative,MSila",35.7081339,4.534427,35338721,. IMPOTS Direction,MSila,FALSE
177,"BARAKI,Cite Merdja 1,Alger",36.6685704,3.1025581,021 53 16 26  - 021 53 16 33,. IMPOTS RECETTE CHERRARBA,Alger,FALSE
178,"BARAKI,Cite Touileb,Alger",36.6656042,3.1054573,23910783,. IMPOTS Direction Générale,Alger,FALSE
179,"BARIKA,Avenue 8 Mai 45,Batna",35.3877747,5.3703633,033 39 19 71  - 033 39 19 72,. CENTRE DE PROXIMITE DES IMPOTS BARIKA,Batna,FALSE
180,"BATNA,Allée Benboulaid,Batna",35.5556579,6.1777899,033 80 30 09  - 033 80 68 83,Batna DIRECTION DES IMPOTS,Batna,FALSE
181,"BATNA,Cité Bordj El Ghola,Batna",35.5634192,6.1889996,033 80 34 43  - 033 80 66 28  - 033 80 73 85  - 033 81 30 77  - 033 81 44 11,Batna DIRECTION DES IMPOTS,Batna,FALSE
182,"BATNA,Rue De La Verdure,Batna",35.5543632,6.1729601,33316688,Batna DIRECTION DES IMPOTS,Batna,FALSE
183,"BEJAIA,Bejaia (Centre ),Bejaia",36.754365,5.0499622,034 14 32 08  - 034 14 32 14  - 034 32 35 74  - 034 86 02 77  - 034 89 33 23  - 034 89 33 48  - 034 89 44 90,. IMPOTS Recette Contributions Divers,Bejaia,FALSE
184,"BEJAIA,Lotissement Sidi Ali L'Bhar,Bejaia",36.7290799,5.0745249,034 18 35 95  - 034 18 36 23  - 034 18 36 31  - 034 18 36 36  - 034 18 36 53,. IMPOTS Recette Contributions Divers,Bejaia,FALSE
185,"BEJAIA,Residence La montagne Tala Oua,Bejaia",36.8225012,4.9491209,34189309,. IMPOTS Recette Contributions Divers,Bejaia,FALSE
186,"BEJAIA,Route Des Concessions,Bejaia",36.7404457,5.0600127,34166258,. IMPOTS Recette Contributions Divers,Bejaia,FALSE
187,"BEJAIA,Rue Aissat Idir,Bejaia",36.751971,5.0839193,034 16 61 92  - 034 16 62 53  - 034 16 62 54  - 034 16 62 57  - 034 16 62 60  - 034 16 62 64  - 034 17 47 49  - 034 18 33 11,. IMPOTS Recette Contributions Divers,Bejaia,FALSE
188,"BEN AKNOUN,Rte National N°36,Alger",36.7597697,3.0138343,023 25 59 37  - 023 37 52 10,. Direction des impots AlgerOouest,Alger,FALSE
189,"BEN M'HIDI,Rte Nationnale 44,El Tarf",36.7666372,7.9055824,038 34 71 66  - 038 34 71 82  - 038 34 79 23,. IMPOTS DIRECTION,El Tarf,FALSE
190,"BEN SROUR,Village Ben Srour,MSila",35.0406949,4.5642364,35436593,Bou saada IMPOTS RECETTE DES CONTRIBUTION DIVERSES,MSila,FALSE
191,"BENI AZIZ,Rue Riache Mahmoud,Setif",36.4659114,5.6478967,36768027,. IMPOTS DIRECTION Org,Setif,FALSE
192,"BENI DOUALA,Place de la Mairie,Tizi Ouzou",36.6208712,4.0817582,26406306,. DIRECTION DES IMPOTS,Tizi Ouzou,FALSE
193,"BENI MESSOUS,Avenue Brahim Hadjres,Alger",36.7812352,2.986396,23136112,D'ALGER OUEST DIRECTION DES IMPOTS,Alger,FALSE
194,"BENI OURTILANE,Beni Ourtilane,Setif",36.441325,4.8505566,036 49 35 30  - 036 49 35 37,. IMPOTS DIRECTION Org,Setif,FALSE
195,"BENI SAF,Ain Temouchent",35.2897861,-1.3768856,43741027,. DIRECTION DES IMPOTS,Ain Temouchent,FALSE
196,"BENI SLIMANE,Beni Slimane,Medea",36.2272319,3.3071806,025 71 42 31  - 025 71 52 02,. IMPOTS Direction,Medea,FALSE
197,"BERRAHAL,Bd 1er Novembre 54,Annaba",36.8346382,7.4559518,038 45 70 44  - 038 87 83 92,. IMPOTS Recette,Annaba,FALSE
198,"BERROUAGHIA,Cite Chorfa,Medea",36.1469804,2.9029292,25777058,. IMPOTS Direction,Medea,FALSE
199,"BERROUAGHIA,Rue de la Gare,Medea",36.1397978,2.9189942,25778021,. IMPOTS Direction,Medea,FALSE
200,"BESBES (EL TARF),Besbas,El Tarf",36.7020841,7.8464395,38398357,. IMPOTS DIRECTION,El Tarf,FALSE
201,"BESBES (EL TARF),Cite Oued Besbas,El Tarf",36.7020841,7.8464395,38394312,. IMPOTS DIRECTION,El Tarf,FALSE
202,"BESBES (EL TARF),Rte Nationale,El Tarf",36.7020841,7.8464395,038 39 46 23  - 038 39 80 49,. IMPOTS DIRECTION,El Tarf,FALSE
203,"BETHIOUA,Boulevard de l'Aln,Oran",35.704492,-0.6169124,41769009,Direction Wilaya D'oran IMPOTS,Oran,FALSE
204,"BIR EL ATER,Cité Houari Boumedienne,Tebessa",35.4221893,8.0723927,37645975,. IMPOTS DIRECTION TEBESSA,Tebessa,FALSE
205,"BIR EL ATER,Ilot 680,Tebessa",34.749839,8.0577526,037 64 86 83  - 037 64 86 84  - 037 64 86 85  - 037 64 86 87  - 037 64 86 91,. IMPOTS DIRECTION TEBESSA,Tebessa,FALSE
206,"BIR EL DJIR,Coopérative Wilaya,Oran",35.7101901,-0.5958314,41626478,Direction Wilaya D'oran IMPOTS,Oran,FALSE
207,"BIR EL DJIR,Hai Khemiste,Oran",35.7311507,-0.5707055,41715636,Direction Wilaya D'oran IMPOTS,Oran,FALSE
208,"BIR MOURAD RAIS,Cite Sidi Yahia,Alger",36.7387329,3.0337886,021 54 93 82  - 021 54 93 83,. DIRECTION DES IMPOTS ALGER CENTRE,Alger,FALSE
209,"BIRKHADEM,Rue Arab Si Ahmed,Alger",36.7149133,3.0530847,021 40 44 31  - 021 55 58 64,. RECETTE DES IMPOTS,Alger,FALSE
210,"BISKRA,BISKRA,Biskra",34.8449437,5.7248567,033 53 08 39  - 033 53 08 45  - 033 61 96 67  - 033 61 96 68,. DIRECTION DES IMPOTS,Biskra,FALSE
211,"BISKRA,Biskra",34.8449437,5.7248567,33530829,. DIRECTION DES IMPOTS,Biskra,FALSE
212,"BISKRA,Boulevard Hammouda Ahmed,Biskra",34.8562557,5.7307637,033 51 52 03  - 033 51 52 05  - 033 51 52 12  - 033 51 52 23  - 033 51 52 26  - 033 51 52 27  - 033 51 52 43  - 033 51 52 46  - 033 51 52 50  - 033 51 52 54  - 033 53 08 30  - 033 53 08 44  - 033 53 63 36  - 033 53 63 37  - 033 61 96 66,. DIRECTION DES IMPOTS,Biskra,FALSE
213,"BISKRA,CENTRE VILLE,Biskra",34.8449437,5.7248567,033 53 08 02  - 033 53 08 35  - 033 53 08 47  - 033 53 08 50  - 033 53 40 17  - 033 53 53 53  - 033 53 66 10  - 033 61 96 65,. DIRECTION DES IMPOTS,Biskra,FALSE
214,"BISKRA,Cité 252 Logts,Biskra",34.8449437,5.7248567,33530838,. DIRECTION DES IMPOTS,Biskra,FALSE
215,"BISKRA,Cité Bilal,Biskra",34.8455368,5.7481969,033 53 08 57  - 033 53 66 04,. DIRECTION DES IMPOTS,Biskra,FALSE
216,"BISKRA,Rue De La Gare,Biskra",34.8449437,5.7248567,33530836,. DIRECTION DES IMPOTS,Biskra,FALSE
217,"BLIDA,Boulevard Mahdjoub Boualem,Blida",36.4696895,2.8272756,025 21 32 43  - 025 21 32 46  - 025 21 38 08,Direction IMPOTS,Blida,FALSE
218,"BLIDA,Cite Bounaama Djillali,Blida",36.4837822,2.8159605,025 22 04 77  - 025 22 04 79  - 025 22 04 80  - 025 22 04 81  - 025 22 04 82  - 025 22 04 83  - 025 22 04 84  - 025 22 04 85,Direction IMPOTS,Blida,FALSE
219,"BLIDA,Rue 11 Decembre,Blida",36.4887391,2.8213773,025 23 37 24  - 025 23 37 39  - 025 23 37 44  - 025 23 37 47  - 025 23 37 50  - 025 23 37 53  - 025 23 37 56  - 025 23 37 58  - 025 23 37 60  - 025 23 37 62  - 025 23 37 66  - 025 23 37 67  - 025 23 37 68  - 025 23 37 71  - 025 23 37 73  - 025 23 37 76  - 025 23 38 94  - 025 23 39 78  - 025 23 55 53,Direction IMPOTS,Blida,FALSE
220,"BLOC 201,EL IDRISSIA,Cité Belhout,Djelfa",34.4531021,2.5307193,027 88 90 61  - 027 88 94 06  - 027 88 94 41,. IMPOTS,Djelfa,FALSE
221,"BLOC B47,EL OUED,Cité 462 Logements,El Oued",33.367811,6.8516511,032 12 69 02  - 032 12 69 03  - 032 12 69 04  - 032 12 69 05  - 032 12 69 06  - 032 12 69 07  - 032 12 69 08  - 032 12 69 09  - 032 12 69 10  - 032 12 69 11  - 032 12 69 13  - 032 12 69 14,. DIRECTION DES IMPOTS,El Oued,FALSE
222,"BOGHNI,Boghni,Tizi Ouzou",36.5329303,3.9611136,26283277,. DIRECTION DES IMPOTS,Tizi Ouzou,FALSE
223,"BOGHNI,Rue Amer Kardouci,Tizi Ouzou",36.5446378,3.959426,26283025,. DIRECTION DES IMPOTS,Tizi Ouzou,FALSE
224,"BORDJ BOU ARRERIDJ,Bordj Bou Arreridj,Bordj Bou Arreridj",36.0739925,4.7630271,035 74 83 27  - 035 74 83 28,. DIRECTION DES IMPOTS,Bordj Bou Arreridj,FALSE
225,"BORDJ BOU ARRERIDJ,Cite 111 Logts,Bordj Bou Arreridj",36.0739925,4.7630271,35733031,. DIRECTION DES IMPOTS,Bordj Bou Arreridj,FALSE
226,"BORDJ BOU ARRERIDJ,P-Immob Hedna,Bordj Bou Arreridj",36.0470328,4.8013693,035 70 31 35  - 035 71 01 72  - 035 71 01 74  - 035 72 96 52  - 035 72 96 53  - 035 72 96 54  - 035 72 96 58  - 035 72 96 60  - 035 72 96 68  - 035 72 97 51  - 035 73 30 28  - 035 73 30 29  - 035 73 30 32  - 035 73 30 33  - 035 73 94 81  - 035 85 03 89  - 035 85 03 94  - 035 87 91 71  - 035 87 92 89,. DIRECTION DES IMPOTS,Bordj Bou Arreridj,FALSE
227,"BORDJ BOU ARRERIDJ,Rue 24 Avril,Bordj Bou Arreridj",36.0706583,4.7682996,035 72 96 70  - 035 72 96 71,. DIRECTION DES IMPOTS,Bordj Bou Arreridj,FALSE
228,"BORDJ BOU ARRERIDJ,Rue Tabet Salah,Bordj Bou Arreridj",36.0688926,4.7681799,035 72 96 56  - 035 72 96 72,. DIRECTION DES IMPOTS,Bordj Bou Arreridj,FALSE
229,"BORDJ BOU ARRERIDJ,Rue Zioui Abdelhamid,Bordj Bou Arreridj",36.0708908,4.7607224,35735154,. DIRECTION DES IMPOTS,Bordj Bou Arreridj,FALSE
230,"BORDJ EL KIFFAN,Alger",36.7611607,3.2322593,23877826,. Direction des Impots D'Alger Est,Alger,FALSE
231,"BORDJ EL KIFFAN,Ave 1er Novembre,Alger",36.7869313,3.063122,023 80 12 66  - 023 80 12 66,. Direction Des Impots D'Alger Est,Alger,FALSE
232,"BORDJ GHEDIR,Cite Abdelhamid Ben Badis,Bordj Bou Arreridj",36.0676371,4.7623038,035 86 16 75  - 035 86 16 89,. DIRECTION DES IMPOTS,Bordj Bou Arreridj,FALSE
233,"BORDJ MENAIEL,Cité 250 Lgts Bousbaa,Boumerdes",36.7454791,3.7340693,24788108,. IMPOTS Direction,Boumerdes,FALSE
234,"BORDJ OMAR DRISS,Cité 14 logements,Illizi",28.1449927,6.8236371,29460758,. DIRECTION DES IMPOTS,Illizi,FALSE
235,"BORDJ OMAR DRISS,Cité des 20 logements,Illizi",28.1449927,6.8236371,029 46 06 28  - 029 46 06 81,. DIRECTION DES IMPOTS,Illizi,FALSE
236,"BOU ISMAIL,Katiba Amaria,Tipaza",36.6427152,2.6962524,24316699,TIPAZA RECETTE DES IMPOTS,Tipaza,FALSE
237,"BOUANDAS,Centre Ville (Bouandas),Setif",36.5109283,5.1119407,036 49 00 23  - 036 49 00 24  - 036 49 00 45,. IMPOTS DIRECTION Org,Setif,FALSE
238,"BOUCHEGOUF,Rue 24 Fev (seghane Zidane),Guelma",36.4717047,7.7276038,037 12 52 50  - 037 12 52 51  - 037 12 52 53  - 037 12 52 54  - 037 12 53 32  - 037 12 53 81  - 037 12 53 82  - 037 12 53 98,. IMPOTS Direction,Guelma,FALSE
239,"BOUDOUAOU,Avenue Des Ecoles,Boumerdes",36.7204759,3.396615,24742554,. IMPOTS Direction,Boumerdes,FALSE
240,"BOUDOUAOU,Cité Bouyahiaoui,Boumerdes",36.7270758,3.3966197,24741140,. IMPOTS Direction,Boumerdes,FALSE
241,"BOUDOUAOU,Rue Freres Mahfouf,Boumerdes",36.7278126,3.4090696,024 74 21 32  - 024 74 21 64,. IMPOTS Direction,Boumerdes,FALSE
242,"BOUGAA,Rue Des Martyrs,Setif",36.3319114,5.0881783,036 40 05 27  - 036 40 36 41,. IMPOTS DIRECTION Org,Setif,FALSE
243,"BOUGUIRAT,Avenue Mohamed Khemisti,Mostaganem",35.9257653,0.085659,045 48 42 47  - 045 48 42 48  - 045 48 44 15,. IMPOTS Direction,Mostaganem,FALSE
244,"BOUGUIRAT,Bouguirat,Mostaganem",35.7473216,0.2690322,45484416,. IMPOTS Direction,Mostaganem,FALSE
245,"BOUHADJAR,Cite 8 Mai 45,El Tarf",36.5075732,8.1058446,038 32 74 19  - 038 32 74 30  - 038 32 74 88,. IMPOTS DIRECTION,El Tarf,FALSE
246,"BOUHADJAR,Rue 1er Novembre 54,El Tarf",36.5075732,8.1058446,38326419,. IMPOTS DIRECTION,El Tarf,FALSE
247,"BOUHAROUNE,Tipaza",36.6237048,2.6554544,024 30 37 37  - 024 30 49 55,Tresorerie Intercommunale IMPOTS,Tipaza,FALSE
248,"BOUIRA,Cité Administrative,Bouira",36.3697131,3.8967178,026 73 21 95  - 026 73 24 87,. IMPOT,Bouira,FALSE
249,"BOUIRA,Hotel des Finances,Bouira",36.3734276,3.8998286,026 73 24 45  - 026 73 24 78  - 026 73 24 94,. IMPOT,Bouira,FALSE
250,"BOUIRA,Lotissement Draa El Bordj,Bouira",36.3697163,3.8862138,026 73 23 77  - 026 73 23 82  - 026 73 24 95,. IMPOT,Bouira,FALSE
251,"BOUIRA,Place des Martyrs,Bouira",36.3691846,3.9006194,026 73 24 46  - 026 73 24 93  - 026 74 84 98  - 026 74 88 83  - 026 74 88 84,. IMPOT,Bouira,FALSE
252,"BOUKADIR,Boukadir,Chlef",36.060248,1.1305809,27749238,Direction IMPOTS,Chlef,FALSE
253,"BOUKADIR,Chlef",36.060248,1.1305809,027 74 93 20  - 027 74 93 23,Direction IMPOTS,Chlef,FALSE
254,"BOUKADIR,Cité 30 Logements,Chlef",36.060248,1.1305809,27749506,Direction IMPOTS,Chlef,FALSE
255,"BOULHAF DYR,Cite Boulhef Dyr,Tebessa",35.5569444,8.1294444,37520366,. IMPOTS DIRECTION TEBESSA,Tebessa,FALSE
256,"BOUMEDFAA,centre,Ain Defla",36.3695877,2.4727937,027 54 40 55  - 027 54 48 49,. IMPOTS,Ain Defla,FALSE
257,"BOUMERDES,Boulevard Med Bouguera,Boumerdes",36.7510697,3.4788905,24791698,. IMPOTS Direction,Boumerdes,FALSE
258,"BOUMERDES,Cité 1200 Logements,Boumerdes",36.7561594,3.4648266,024 74 25 61  - 024 76 03 50  - 024 76 03 51  - 024 79 11 71  - 024 79 12 11  - 024 79 12 12  - 024 79 12 13  - 024 79 12 14  - 024 79 12 17  - 024 79 12 18  - 024 79 12 19  - 024 79 12 24  - 024 79 12 28  - 024 79 12 42  - 024 79 12 80  - 024 79 12 84  - 024 79 12 85  - 024 79 13 34  - 024 79 14 53  - 024 96 60 98,. IMPOTS Direction,Boumerdes,FALSE
259,"BOUNOURA,Cité 400 logements,Ghardaia",32.4830285,3.6994765,29256054,Bureau RECETTE INTERCOMMUNALE DES IMPOTS,Ghardaia,FALSE
260,"BOUROUBA,Cité Oumakhlouf Mahmoud,Alger",36.717114,3.113103,023 76 50 70  - 023 76 51 11  - 023 76 50 70  - 023 76 51 11,. IMPOTS Direction Générale,Alger,FALSE
261,"BOUZAREAH,Ave Ali Remli,Alger",36.7807995,3.0108434,023 27 02 98  - 023 27 02 99  - 023 27 03 00,. DIRECTION DES IMPOTS D'ALGER OUEST,Alger,FALSE
262,"BOUZAREAH,Rte De Beni Messous,Alger",36.7794364,2.9773961,23377558,. DIRECTION DES IMPOTS D'ALGER OUEST,Alger,FALSE
263,"BOUZGHAIA,Bouzeghaia,Chlef",36.3411119,1.2394432,27720016,Direction IMPOTS,Chlef,FALSE
264,"BT 1,BERROUAGHIA,Cité LSP 116 Logements,Medea",36.1397978,2.9189942,025 72 11 08  - 025 72 11 09  - 025 72 11 10  - 025 72 11 12  - 025 72 11 13,. IMPOTS Direction,Medea,FALSE
265,"BT 1,SOUR EL GHOZLANE,Technicum,Bouira",36.1508804,3.7074189,26756940,. IMPOT,Bouira,FALSE
266,"BT 13,AIN ABID,46 Logts,Constantine",36.2337159,6.9431806,31812664,Direction IMPOTS,Constantine,FALSE
267,"BT A1,BIR GHBALOU,Hai Faci Mahdi,Bouira",36.2635857,3.5870031,26888764,. IMPOTS Recette Intercommunale,Bouira,FALSE
268,"BT A1,TEBESSA,Cité 300 Logts Ezzouhour,Tebessa",35.4010797,8.1172958,37569085,. IMPOTS DIRECTION TEBESSA,Tebessa,FALSE
269,"CASBAH,Avenue Du 1er Novembre,Alger",36.7869313,3.063122,021 43 04 31  - 021 43 04 58  - 021 43 06 36  - 021 43 08 37  - 021 43 08 43  - 021 43 70 06  - 021 43 70 11  - 021 43 70 15  - 021 43 71 11  - 021 43 71 27  - 021 43 71 44,Direction d'Alger Centre IMPOTS,Alger,FALSE
270,"CASBAH,Boulevard Ernesto Che-Guevara,Alger",36.7830153,3.0624954,021 43 71 00  - 021 43 71 06  - 021 43 71 37,. DIRECTION DES IMPOTS D'ALGER OUEST,Alger,FALSE
271,"CENTRE,TAMALOUS,Cite Djemella,Skikda",36.8384561,6.6427365,038 94 95 00  - 038 94 95 01  - 038 94 95 02  - 038 94 95 03  - 038 94 95 04,. DIRECTION DES IMPOTS,Skikda,FALSE
272,"CFPA,TIPAZA,Rue du Stade,Tipaza",36.582687,2.459634,24377245,TIPAZA RECETTE DES IMPOTS,Tipaza,FALSE
273,"CHAIBA (TIPAZA),Cite 50 Logts,Tipaza",36.6030352,2.7364209,24389631,TIPAZA INSPECTION DES IMPOTS,Tipaza,FALSE
274,"CHEBLI,Centre Chebli,Blida",36.5184672,3.0492822,25486952,Recette Chebli IMPOTS Direction de Blida,Blida,FALSE
275,"CHECHAR,Rue Bouguerra Elammri,Khenchela",34.8786128,7.0498442,032 75 35 73  - 032 75 35 78  - 032 75 35 89,. IMPOTS,Khenchela,FALSE
276,"CHEKFA,Cite Centre Ville,Jijel",36.7705677,5.9621633,34563188,. IMPOTS Direction,Jijel,FALSE
277,"CHEKFA,Rue Dekhli Mokhtar,Jijel",36.7786069,5.899073,34563223,. IMPOTS Direction,Jijel,FALSE
278,"CHELGHOUM LAID,Cite Ouskourt Abdelkrim,Mila",36.1654992,6.1632725,031 41 06 40  - 031 41 06 41  - 031 41 06 42,. IMPOTS Direction,Mila,FALSE
279,"CHELGHOUM LAID,Route National N5 Face Comeca,Mila",36.1635318,6.183766,31458150,. IMPOTS Direction,Mila,FALSE
280,"CHELLALET EL ADHAOURA,Centre Commercial,Medea",35.939255,3.416082,25752121,. IMPOTS Direction,Medea,FALSE
281,"CHERAGA,Rte Nale,Alger",36.7579123,2.9532202,23363509,. Direction Des Impots D'alger Ouest,Alger,FALSE
282,"CHERAGA,Rue Ait Boudjemaa,Alger",36.7688702,2.9586613,21361023,. Direction Des Impots D'alger Ouest,Alger,FALSE
283,"CHERAGA,Rue Arbadji Salah,Alger",36.7669485,2.9557608,21367737,. Direction Des Impots D'alger Ouest,Alger,FALSE
284,"CHERAGA,Rue Mohamed Boudiaf,Alger",36.7620342,2.9612284,23363492,. DIRECTION DES IMPOTS D'ALGER OUEST,Alger,FALSE
285,"CHERCHELL,Dom Habbouchi,Tipaza",36.6083238,2.1911657,024 33 05 27  - 024 33 05 28,TIPAZA RECETTE DES IMPOTS,Tipaza,FALSE
286,"CHERIA,Cite Thlidjane,Tebessa",35.2709501,7.7512926,037 62 20 53  - 037 62 20 74  - 037 62 26 93,. IMPOTS DIRECTION TEBESSA,Tebessa,FALSE
287,"CHETOUANE,Hai Ancien Ain Defla,Tlemcen",34.9092277,-1.2916124,43405844,. IMPOTS Direction,Tlemcen,FALSE
288,"CHETOUANE,Route De Chetouane,Tlemcen",34.9239124,-1.299604,43404389,. IMPOTS Direction,Tlemcen,FALSE
289,"CHETTIA,Chettia,Chlef",36.1944323,1.2568799,27739427,Direction IMPOTS,Chlef,FALSE
290,"CHLEF,Boulevard Des Martyrs,Chlef",36.1664524,1.3326435,027 77 00 03  - 027 77 19 19  - 027 77 19 56  - 027 77 20 20  - 027 77 20 58  - 027 77 33 81  - 027 77 61 76  - 027 77 62 36  - 027 77 62 97  - 027 77 62 98  - 027 77 71 06  - 027 77 82 86  - 027 77 87 47  - 027 79 84 98,Direction IMPOTS,Chlef,FALSE
291,"CHLEF,Cité 57 Logements OPGI,Chlef",36.1656697,1.334188,027 77 24 85  - 027 77 81 52  - 027 77 82 09  - 027 77 83 73,Direction IMPOTS,Chlef,FALSE
292,"CHLEF,Cité Benourane,Chlef",36.1464129,1.3131548,27771149,Direction IMPOTS,Chlef,FALSE
293,"CHLEF,Cité Olympique,Chlef",36.1609205,1.3155951,27776302,Direction IMPOTS,Chlef,FALSE
294,"CHLEF,Hai Bensouna,Chlef",36.1609205,1.3155951,27776175,Direction IMPOTS,Chlef,FALSE
295,"CHLEF,Hai Ennasr,Chlef",36.1579664,1.3372823,27773727,Direction IMPOTS,Chlef,FALSE
296,"CHLEF,Place de Solidarité,Chlef",36.1579664,1.3372823,27775541,Direction IMPOTS,Chlef,FALSE
297,"CHLEF,Rue Aspirant Dahmane,Chlef",36.1698926,1.3359044,27772935,Direction IMPOTS,Chlef,FALSE
298,"COLLO,Cite Boussebhane,Skikda",36.9981614,6.5557168,038 90 57 11  - 038 90 57 13  - 038 90 57 14  - 038 90 57 16,. DIRECTION DES IMPOTS,Skikda,FALSE
299,"COLLO,Rue Rouibah Tahar,Skikda",36.9981614,6.5557168,38905752,. DIRECTION DES IMPOTS,Skikda,FALSE
300,"CONSTANTINE,Bd de la Liberte,Constantine",36.3621355,6.6074745,31912276,Ispection Divisionnaires IMPOTS,Constantine,FALSE
301,"CONSTANTINE,Boulevard De L'indpendance,Constantine",36.362245,6.6055661,31911559,Ispection Divisionnaires IMPOTS,Constantine,FALSE
302,"CONSTANTINE,Boulevard Zighoud Youcef,Constantine",36.3722339,6.6124233,031 87 28 33  - 031 87 32 35,Ispection Divisionnaires IMPOTS,Constantine,FALSE
303,"CONSTANTINE,Cite 600 Logements,Constantine",36.3133974,6.6291852,31703269,Ispection Divisionnaires IMPOTS,Constantine,FALSE
304,"CONSTANTINE,Cite Emir Abdelkader,Constantine",36.3800655,6.6237322,31846675,Ispection Divisionnaires IMPOTS,Constantine,FALSE
305,"CONSTANTINE,Cite Mentouri Ex Bosquet,Constantine",36.3593882,6.6389031,31611871,. IMPOTS Direction,Constantine,FALSE
306,"CONSTANTINE,Cite Sidi Mabrouk,Constantine",36.3553434,6.6367298,31613822,. IMPOTS Direction,Constantine,FALSE
307,"CONSTANTINE,Constantine,Constantine",41.713199,-72.6047188,031 84 56 92  - 031 88 79 96  - 031 91 10 30  - 031 91 14 97  - 031 91 18 97  - 031 91 21 25  - 031 91 21 55  - 031 91 22 74  - 031 91 23 38  - 031 91 28 02  - 031 91 29 96  - 031 92 19 12  - 031 92 36 89  - 031 92 75 76  - 031 92 76 95  - 031 93 83 88,Ispection Divisionnaires IMPOTS,Constantine,FALSE
308,"CONSTANTINE,Zone Indus Rhumel,Constantine",36.3416729,6.6105222,031 60 68 72  - 031 60 68 73  - 031 60 68 74  - 031 60 68 76  - 031 60 68 77  - 031 60 68 78  - 031 60 68 79  - 031 60 68 80  - 031 60 68 81  - 031 60 68 82,. CENTRE DES IMPOTS,Constantine,FALSE
309,"D.IMPOTS,MOUZAIA,Rue Mabsout Rabah,Blida",36.4669121,2.6898596,025 24 34 70  - 025 24 36 54  - 025 24 36 55  - 025 24 36 56  - 025 24 36 57  - 025 24 36 58  - 025 24 36 59  - 025 24 36 60  - 025 24 82 62,ORG DIRECTION DES IMPOTS W.BLIDA,Blida,FALSE
310,"DAIRA,AIN OULMENE,Rue De La Republique (El Djemh,Setif",36.1897593,5.4107984,036 56 41 98  - 036 56 44 54  - 036 56 44 64,. IMPOTS DIRECTION Org,Setif,FALSE
311,"DAIRA,OULED MIMOUN,Route De Tlemcen,Tlemcen",34.9044116,-1.0342358,043 36 15 29  - 043 36 19 44,. IMPOTS Direction,Tlemcen,FALSE
312,"DAR EL BEIDA,Cite Freres Benrabah,Alger",36.7085589,3.2087271,023 81 04 96  - 023 81 04 96,. RECETTE DES IMPOTS DE DAR EL BEIDA,Alger,FALSE
313,"DAR EL BEIDA,Rte Du Genie,Alger",36.7212376,3.2091787,021 50 78 71  - 021 50 89 25  - 023 80 12 65  - 023 80 12 65,. IMPOTS,Alger,FALSE
314,"DELLYS,Place Des Martyres,Boumerdes",36.9126574,3.9124569,024 76 31 76  - 024 76 36 65,. IMPOTS Direction,Boumerdes,FALSE
315,"DELLYS,Rue Ouslama,Boumerdes",36.9126574,3.9124569,24763468,. IMPOTS Direction,Boumerdes,FALSE
316,"DELY IBRAHIM,Cité Ain Allah,Alger",36.7526005,2.990057,023 24 12 47  - 023 24 12 48  - 023 24 12 49  - 023 24 12 50  - 023 24 14 11  - 023 24 14 28  - 023 24 14 29  - 023 24 14 30,. DIRECTION DES IMPOTS D'ALGER OUEST,Alger,FALSE
317,"DGSN,AIN SALAH,Cité FGUIGUIRA 02,Tamanrasset",27.2026311,2.4878487,29365490,. IMPOTS Direction,Tamanrasset,FALSE
318,"DGSN,CONSTANTINE,Cite Des Muriers 8 eme Arrondi,Constantine",36.3496292,6.6320592,31687731,Ispection Divisionnaires IMPOTS,Constantine,FALSE
319,"DGSN,SOUK AHRAS,Rue Colonel Amirouche,Souk Ahras",36.2799829,7.9382979,037 72 24 19  - 037 72 26 78,. IMPOTS Direction,Souk Ahras,FALSE
320,"DIDOUCHE MOURAD,Cite Oued Lahdjar,Constantine",36.4451611,6.6447705,031 90 10 40  - 031 90 82 12,Ispection Divisionnaires IMPOTS,Constantine,FALSE
321,"DIDOUCHE MOURAD,Rue Didouche Mourad,Constantine",36.7659162,3.0512509,031 90 23 95  - 031 90 23 96  - 031 90 23 97,Ispection Divisionnaires IMPOTS,Constantine,FALSE
322,"DIDOUCHE MOURAD,Rue Larbi Ben M'hidi,Constantine",36.3668765,6.6146453,31902394,Ispection Divisionnaires IMPOTS,Constantine,FALSE
323,"DJAMAA,BARRAGE FIXE N°2(SURETE DAIRA),El Oued",33.5376374,5.9899763,032 16 22 94  - 032 16 22 95,. DIRECTION DES IMPOTS,El Oued,FALSE
324,"DJANET,Centre ville,Illizi",24.554151,9.485429,29480597,. DIRECTION DES IMPOTS,Illizi,FALSE
325,"DJASR KACENTINA,Ain Naadja,Alger",36.7044726,3.0826673,23566695,. IMPOTS INSPECTION Org,Alger,FALSE
326,"DJASR KACENTINA,Cite 1074 Logts,Alger",36.6972546,3.0747191,21221818,. IMPOTS INSPECTION Org,Alger,FALSE
327,"DJELFA,Cité 05 Juillet,Djelfa",34.659875,3.2721941,027 93 66 35  - 027 93 66 38,. IMPOTS,Djelfa,FALSE
328,"DJELFA,Cité Administrative,Djelfa",34.6698008,3.2419109,27936626,. IMPOTS,Djelfa,FALSE
329,"DJELFA,Cité Chaabane Mohammed,Djelfa",34.661434,3.2650158,27936627,. IMPOTS,Djelfa,FALSE
330,"DJELFA,Djelfa,Djelfa",34.6703956,3.2503761,27923168,. IMPOTS,Djelfa,FALSE
331,"DJELFA,Place Mohamed Boudiaf,Djelfa",34.6703956,3.2503761,27923169,. IMPOTS,Djelfa,FALSE
332,"DJELFA,Route Moudjebara,Djelfa",34.2788953,3.5812692,027 93 62 57  - 027 93 62 58  - 027 93 63 84,. IMPOTS,Djelfa,FALSE
333,"DJELFA,Rue Emir Abdelkader,Djelfa",34.6703956,3.2503761,27937732,. IMPOTS,Djelfa,FALSE
334,"DJELIDA,Centre,Ain Defla",36.2038415,2.0800579,27522168,. IMPOTS,Ain Defla,FALSE
335,"DJENDEL,Centre,Ain Defla",36.2205342,2.4149379,27541822,. IMPOTS,Ain Defla,FALSE
336,"DJENDEL,Rue Benzina,Ain Defla",36.2205342,2.4149379,27541823,. IMPOTS,Ain Defla,FALSE
337,"DOUAOUDA,Cite 50 Logts,Tipaza",36.6770431,2.7955922,24308061,TIPAZA INSPECTION DES IMPOTS,Tipaza,FALSE
338,"DOUAOUDA,Dom Yacoubi,Tipaza",36.6770431,2.7955922,24308062,TIPAZA RECETTE DES IMPOTS,Tipaza,FALSE
339,"DOUERA,Rue Abziou,Alger",36.6703738,2.9414334,23328521,Inspection IMPOTS,Alger,FALSE
340,"DOUERA,Rue Medas,Alger",36.6816061,2.9616215,21417252,Inspection IMPOTS,Alger,FALSE
341,"DRAA BEN KHEDDA,Draa Ben Khadda,Tizi Ouzou",36.7292574,3.9669368,026 43 42 56  - 026 43 42 63,. DIRECTION DES IMPOTS,Tizi Ouzou,FALSE
342,"DRAA EL MIZAN,Cité Emir Abdelkader,Tizi Ouzou",36.53572,3.8364355,026 13 41 88  - 026 13 41 89,. DIRECTION DES IMPOTS,Tizi Ouzou,FALSE
343,"DRAA EL MIZAN,Rue Abane Ramdane,Tizi Ouzou",36.7293241,3.6624823,26135613,. DIRECTION DES IMPOTS,Tizi Ouzou,FALSE
344,"DRARIA,Rue Kheniche,Alger",36.7125756,2.9978235,23349086,. IMPOTS,Alger,FALSE
345,"DREAN,Cite Administrative,El Tarf",36.7558581,8.2212979,038 38 05 72  - 038 38 84 22  - 038 38 89 33,. IMPOTS DIRECTION,El Tarf,FALSE
346,"DREAN,Rue Fedaoui Messaoud,El Tarf",36.6865627,7.7208062,38380573,. IMPOTS DIRECTION,El Tarf,FALSE
347,"EL ABADIA,Rue Principale,Ain Defla",36.2720385,1.6853912,27629500,. IMPOTS,Ain Defla,FALSE
348,"EL ACHOUR,Alger",36.7381334,2.9868256,23300277,Inspection IMPOTS,Alger,FALSE
349,"EL AFFROUN,Ave 1er Novembre,Blida",36.4701592,2.625741,25268460,. DIRECTION DES IMPOTS W.BLIDA,Blida,FALSE
350,"EL AMRA,Rue 19 Juin,Ain Defla",36.3081443,1.8481843,27520462,. IMPOTS,Ain Defla,FALSE
351,"EL AMRIA,Boulevard Emir Abdelkader,Ain Temouchent",35.523942,-1.0179587,43765433,. DIRECTION DES IMPOTS,Ain Temouchent,FALSE
352,"EL AMRIA,Boulevard Emir abdelkader,Ain Temouchent",35.523942,-1.0179587,43762296,. DIRECTION DES IMPOTS,Ain Temouchent,FALSE
353,"EL AMRIA,El Amria,Ain Temouchent",35.5239104,-1.0166296,043 76 54 32  - 043 76 54 43  - 043 76 54 46  - 043 76 54 47,. DIRECTION DES IMPOTS,Ain Temouchent,FALSE
354,"EL ANCER,El Ancer,Jijel",36.8000519,6.1567041,34532121,. IMPOTS Direction,Jijel,FALSE
355,"EL ANCER,Place Des Martyrs,Jijel",36.7531205,6.2676726,34532216,. IMPOTS Direction,Jijel,FALSE
356,"EL AOUINET,Cite 300 Logts,Tebessa",35.8680504,7.8861697,37654198,. IMPOTS DIRECTION TEBESSA,Tebessa,FALSE
357,"EL AOUINET,El Aouinet,Tebessa",35.8680504,7.8861697,37652184,. IMPOTS DIRECTION TEBESSA,Tebessa,FALSE
358,"EL ATTAF,Cité Administrative,Ain Defla",36.2234936,1.6749178,027 62 19 27  - 027 62 19 28,. IMPOTS,Ain Defla,FALSE
359,"EL AZIZIA,Centre Ville,Medea",36.2851874,3.4958167,25710132,. IMPOTS RECETTE DES CONTRIBUTIONS DIVERSES,Medea,FALSE
360,"EL AZIZIA,El Azizia,Medea",36.2851874,3.4958167,25710253,. IMPOTS Direction,Medea,FALSE
361,"EL BIAR,Rue Des Ecoles,Alger",36.7715119,3.031841,21923341,. DIRECTION DES IMPOTS D'ALGER OUEST,Alger,FALSE
362,"EL BOUNI,Boulevard 1 er Novembre,Annaba",36.9082213,7.7608703,38569506,. RECETTE DES IMPOTS,Annaba,FALSE
363,"EL BOUNI,Cite 850 Logts,Annaba",36.8548216,7.741302,38569505,. RECETTE DES IMPOTS,Annaba,FALSE
364,"EL BOUNI,El Bouni,Annaba",36.8548216,7.741302,038 56 94 84  - 038 56 95 71,. IMPOTS Sous Direction,Annaba,FALSE
365,"EL BOUNI,Universite El Bouni,Annaba",36.8535764,7.7431524,038 56 33 33  - 038 56 33 44  - 038 56 34 04  - 038 56 34 05  - 038 56 34 06  - 038 56 34 07  - 038 56 34 08  - 038 56 34 10,. IMPOTS EL BOUNI,Annaba,FALSE
366,"EL EULMA,Rue Said Bourefref,Setif",36.145471,5.6773396,036 47 61 61  - 036 47 64 39  - 036 47 64 40  - 036 47 64 41  - 036 47 64 42  - 036 47 64 43,Inspection IMPOTS Org,Setif,FALSE
367,"EL HADJAR,El Hadjar,Annaba",36.8074707,7.7389134,038 59 19 50  - 038 89 21 03  - 038 89 35 34,. RECETTE DES IMPOTS,Annaba,FALSE
368,"EL HADJAR,Rue Didouche Mourad,Annaba",36.9012291,7.7431358,38892076,. RECETTE DES IMPOTS,Annaba,FALSE
369,"EL HADJIRA,Hai EL DJADID,Ouargla",32.617022,5.5131826,29613525,. IMPOTS,Ouargla,FALSE
370,"EL HARRACH,Alger",36.7209669,3.1376625,21833777,. IMPOTS Direction Générale,Alger,FALSE
371,"EL HARRACH,Rue Freres Zeghnoun,Alger",36.7281297,3.1387624,21530948,. IMPOTS Direction Générale,Alger,FALSE
372,"EL HARRACH,Rue Sidi Okba,Alger",36.7273223,3.1358672,023 74 97 29  - 023 74 97 29,. IMPOTS Direction Générale,Alger,FALSE
373,"EL HARROUCH,Cite 130 Logts A Cote De La Mo,Skikda",36.6545563,6.8329628,38790084,. IMPOTS,Skikda,FALSE
374,"EL HARROUCH,Skikda",36.6545563,6.8329628,38957538,. IMPOTS,Skikda,FALSE
375,"EL KALA,Lot Gelas Sud,El Tarf",36.8856754,8.4408187,038 36 06 48  - 038 36 18 70  - 038 36 33 12,. IMPOTS DIRECTION,El Tarf,FALSE
376,"EL KANTARA,Hai 05 juillet,Biskra",35.2180269,5.7102465,033 63 20 63  - 033 63 21 44  - 033 63 21 46  - 033 69 66 17,. DIRECTION DES IMPOTS,Biskra,FALSE
377,"EL KARIMIA,El Karimia,Chlef",36.111108,1.5535633,027 70 91 47  - 027 70 91 53,Direction IMPOTS,Chlef,FALSE
378,"EL KARIMIA,Rue Principale,Chlef",36.111108,1.5535633,27709510,Direction IMPOTS,Chlef,FALSE
379,"EL KHROUB,Cite 1600 Logts,Constantine",36.2576827,6.701911,031 76 83 10  - 031 76 83 16,Direction IMPOTS,Constantine,FALSE
380,"EL KHROUB,Cite Chihani Bachir,Constantine",36.2554305,6.6957298,31768317,Direction IMPOTS,Constantine,FALSE
381,"EL KSEUR,Cite Casorec,Bejaia",36.6775376,4.8492903,34823698,. IMPOTS Recette Contributions Divers,Bejaia,FALSE
382,"EL KSEUR,El Kseur (Centre ),Bejaia",36.6775376,4.8492903,034 13 54 21  - 034 13 54 22  - 034 13 54 23  - 034 13 54 24  - 034 13 54 25  - 034 13 54 26  - 034 13 54 27  - 034 13 54 28,. IMPOTS Recette Contributions Divers,Bejaia,FALSE
383,"EL MADHER,Batna",35.6274186,6.3733989,033 26 91 04  - 033 26 91 89,El Madher IMPOTS Recette Des Contributions Diverses,Batna,FALSE
384,"EL MAGHARIA,Cite El Moustakbal,Alger",36.7356787,3.1108465,21779260,. IMPOTS,Alger,FALSE
385,"EL MAHMEL,Route De Zoui,Khenchela",35.4229897,7.1576117,32700588,. IMPOTS,Khenchela,FALSE
386,"EL MEGHAIER,Boulevard Zighoud Youcef,El Oued",33.950285,5.9244238,032 18 60 30  - 032 18 60 31,. DIRECTION DES IMPOTS,El Oued,FALSE
387,"EL MENEAA,Rue Larbi BEN MEHIDI,Ghardaia",30.5833161,2.8836701,029 21 80 35  - 029 21 82 72,. IMPOTS Recette Intercommunale,Ghardaia,FALSE
388,"EL MILIA,Boulevard de L'ALN,Jijel",36.7507274,6.2853999,034 52 66 23  - 034 52 66 25,. IMPOTS Direction,Jijel,FALSE
389,"EL MILIA,Cité Casorec,Jijel",36.7504856,6.2764752,034 52 11 14  - 034 52 67 64,. IMPOTS Direction,Jijel,FALSE
390,"EL MILIA,Rue De La PALESTINE,Jijel",36.7531205,6.2676726,34526624,. IMPOTS Direction,Jijel,FALSE
391,"EL MOURADIA,Rue Aissa Laalem,Alger",36.7423081,3.0537512,021 69 05 37  - 021 69 75 33,. IMPOTS RECETTE,Alger,FALSE
392,"EL OUED,Avenue Mohamed Khemisti,El Oued",33.3619536,6.8626338,032 13 40 23  - 032 13 40 28  - 032 13 40 32,. DIRECTION DES IMPOTS,El Oued,FALSE
393,"EL OUED,Hai EL MOUDJAHIDINE,El Oued",34.8848449,-1.3387177,032 13 40 10  - 032 13 40 24  - 032 13 40 63  - 032 13 40 65,. DIRECTION DES IMPOTS,El Oued,FALSE
394,"EL OUED,Rue Hôtel Des Finances,El Oued",33.367811,6.8516511,032 13 40 22  - 032 13 40 25  - 032 13 40 26  - 032 13 40 27  - 032 13 40 29  - 032 13 40 31  - 032 13 40 62,. DIRECTION DES IMPOTS,El Oued,FALSE
395,"EL OUED,Zone d'activite,El Oued",33.367811,6.8516511,32126883,. DIRECTION DES IMPOTS,El Oued,FALSE
396,"EL TARF,Cite 168 Logts,El Tarf",36.7576678,8.3076343,38301790,. IMPOTS DIRECTION,El Tarf,FALSE
397,"EL TARF,Cite SNLB,El Tarf",36.7619589,8.3211257,38303241,Direction IMPOTS,El Tarf,FALSE
398,"EL TARF,Route Nationale N°44,El Tarf",36.7576678,8.3076343,038 30 19 79  - 038 30 20 65,. IMPOTS DIRECTION,El Tarf,FALSE
399,"EL TARF,Route Trésorerie,El Tarf",36.768521,8.3162282,38301978,. IMPOTS DIRECTION,El Tarf,FALSE
400,"EL TARF,Rue Labidi Ramdane,El Tarf",36.7178584,8.2839576,038 30 02 65  - 038 30 19 69  - 038 30 20 33  - 038 30 20 39  - 038 30 20 53,. IMPOTS DIRECTION,El Tarf,FALSE
401,"EL TARF,Rue Messaoud Keddache,El Tarf",36.7633518,8.3102708,038 30 01 41  - 038 30 02 46  - 038 30 08 79  - 038 30 09 35  - 038 30 14 72  - 038 30 16 23  - 038 30 20 70  - 038 30 21 56  - 038 30 25 00  - 038 30 35 85  - 038 34 25 14  - 038 36 19 09  - 038 39 32 81,. IMPOTS DIRECTION,El Tarf,FALSE
402,"EL-HAMMA,El Hamma,Khenchela",35.4658603,7.0582644,032 73 82 09  - 032 73 83 95,. IMPOTS,Khenchela,FALSE
403,"EPIC,SIDI KHOUILED,SIDI KHOUILED,Ouargla",32.0397215,5.4272101,029 77 15 55  - 029 77 15 56,. DIRECTION DES IMPOTS,Ouargla,FALSE
404,"FERDJIOUA,Cite Boughouas,Mila",36.4051142,5.94196,031 49 64 47  - 031 49 64 51,. IMPOTS Direction,Mila,FALSE
405,"FERDJIOUA,Rue 1 Er Nouvembre,Mila",36.4051142,5.94196,31495897,. IMPOTS Direction,Mila,FALSE
406,"FINANCES,BOUIRA,Cité Administrative,Bouira",36.369395,3.8963175,26732513,. IMPOT,Bouira,FALSE
407,"FOUKA,Rue Bouloufa Med,Tipaza",36.6615192,2.7423497,24311443,Tresorerie Intercommunale IMPOTS,Tipaza,FALSE
408,"GDYEL,Rue Mohamed Khemisti,Oran",35.7790992,-0.4305806,041 68 12 27  - 041 78 46 67,Direction Wilaya D'oran IMPOTS,Oran,FALSE
409,"GHARDAIA,Route Nationale n°1,Ghardaia",32.4943741,3.64446,29259024,LA DIRECTION DES IMPOTS BOUHRAOUA LA DIRECTION DES IMPOTS BOUHRAOUA,Ghardaia,FALSE
410,"GRAREM GOUGA,Cite Bachir Mimouni,Mila",36.5131541,6.3300041,031 44 56 31  - 031 45 40 73,. IMPOTS Direction,Mila,FALSE
411,"GUELMA,Cite 672 Logts(Ch. Manoeuvre),Guelma",36.4627444,7.4330833,037 26 71 44  - 037 26 72 08  - 037 26 72 19  - 037 26 72 40  - 037 26 72 44  - 037 26 72 53  - 037 26 72 57  - 037 26 72 59  - 037 26 72 60  - 037 26 72 93,GUELMA CENTRE DES IMPOTS,Guelma,FALSE
412,"GUELMA,Cite 80 Bureaux,Guelma",36.4549533,7.4409199,037 11 16 16  - 037 11 16 72  - 037 11 16 74  - 037 11 16 76  - 037 11 16 79  - 037 11 16 80  - 037 11 16 85  - 037 26 00 28  - 037 26 74 75  - 037 26 74 78  - 037 26 74 80,GUELMA CENTRE DES IMPOTS,Guelma,FALSE
413,"GUELMA,Cite Amel,Guelma",36.4619755,7.423051,037 26 00 27  - 037 26 06 43  - 037 26 06 44  - 037 26 06 65,. IMPOTS Direction,Guelma,FALSE
414,"GUELMA,Cite Bara Lakhdar,Guelma",36.4557211,7.4392706,037 11 17 33  - 037 16 11 84  - 037 16 14 67,. IMPOTS Direction,Guelma,FALSE
415,"GUELMA,Cite Guehdour Tahar,Guelma",36.4515674,7.4188961,37260500,GUELMA CENTRE DES IMPOTS,Guelma,FALSE
416,"GUELMA,Hotel des Finances,Guelma",36.4624479,7.432249,37111732,. IMPOTS Direction,Guelma,FALSE
417,"GUELMA,Route de Sedrata,Guelma",36.4554843,7.4414875,37161471,GUELMA CENTRE DES IMPOTS,Guelma,FALSE
418,"GUELMA,Rue Seridi Med Taher,Guelma",36.4590732,7.4344916,037 26 72 97  - 037 26 73 98  - 037 26 74 71  - 037 26 74 73  - 037 26 74 81  - 037 26 76 02  - 037 26 76 59,. IMPOTS Direction,Guelma,FALSE
419,"HADJOUT,Bd Fettaka Ali,Tipaza",36.5116114,2.4169907,024 39 10 69  - 024 39 10 74,TIPAZA INSPECTION DES IMPOTS,Tipaza,FALSE
420,"HADJOUT,Rte de Merad,Tipaza",36.5121841,2.4142994,24391070,TIPAZA INSPECTION DES IMPOTS,Tipaza,FALSE
421,"HADJOUT,Rue Attafia Aek,Tipaza",36.5115617,2.4143855,24391071,TIPAZA RECETTE DES IMPOTS,Tipaza,FALSE
422,"HAMADI KROUMA,Village H Krouma Ex Dam Remon,Skikda",36.8463287,6.9289642,38935691,. IMPOTS,Skikda,FALSE
423,"HAMMAM BOUHADJAR,Boulevard Larbi Ben M'hidi,Ain Temouchent",35.3716042,-0.968314,43739270,. DIRECTION DES IMPOTS,Ain Temouchent,FALSE
424,"HAMMAM BOUHADJAR,Boulevard Mohamed Khemisti,Ain Temouchent",35.2972405,-1.1406886,43711251,. DIRECTION DES IMPOTS,Ain Temouchent,FALSE
425,"HAMMAM DEBAGH,Hammam Debbagh,Guelma",36.460787,7.2659236,37148185,HAMMAM DEBAGH RECETTE INTERCOMMUNALE DES IMPOTS,Guelma,FALSE
426,"HAMMAMET,Bd Hamid Kebladj,Alger",36.8137559,2.9733997,23062450,. IMPOTS Direction Géneral Hammamet,Alger,FALSE
427,"HASNAOUA (CHERCHAR),Village Hasnaoua (Cherchar) --,Bordj Bou Arreridj",36.1520377,4.79508,35703101,. DIRECTION DES IMPOTS,Bordj Bou Arreridj,FALSE
428,"HASSI BAHBAH,Djelfa",35.0762544,3.0267229,027 96 40 50  - 027 96 40 58,. IMPOTS,Djelfa,FALSE
429,"HASSI MAMECHE,Boulevard Commandant Zaghloul,Mostaganem",35.9148345,0.0884027,045 38 02 36  - 045 38 05 07  - 045 38 95 15,. IMPOTS Direction,Mostaganem,FALSE
430,"HASSI MESSAOUD,Base SHDP,Ouargla",31.6619359,6.1456704,29745893,. IMPOTS Direction,Ouargla,FALSE
431,"HASSI MESSAOUD,Cité 300 logements,Ouargla",30.9859091,5.7493813,29745891,. IMPOTS Direction,Ouargla,FALSE
432,"HASSI MESSAOUD,Cité EMIR ABDELKADER,Ouargla",31.6888647,6.0670388,029 74 58 90  - 029 74 58 92,. IMPOTS Direction,Ouargla,FALSE
433,"HASSI R'MEL,Cité 200 logements,Laghouat",32.9276121,3.2712646,029 18 25 76  - 029 18 25 77  - 029 18 25 78,. IMPOTS Direction,Laghouat,FALSE
434,"HASSI R'MEL,Cité DAIRA,Laghouat",32.9276121,3.2712646,029 18 85 68  - 029 18 85 70,. IMPOTS Direction,Laghouat,FALSE
435,"HELIOPOLIS,Rue 17 Octobre,Guelma",36.5083803,7.4361944,037 13 44 90  - 037 13 45 41  - 037 13 49 52  - 037 13 51 91,GUELMA CENTRE DES IMPOTS,Guelma,FALSE
436,"HELIOPOLIS,Rue Ben Brouk Hocine,Guelma",36.5083803,7.4361944,37134974,. IMPOTS Direction,Guelma,FALSE
437,"HENNAYA,Rue Bellifa Abderrahmane,Tlemcen",34.9523096,-1.3723652,043 40 04 36  - 043 40 05 04,. IMPOTS Direction,Tlemcen,FALSE
438,"HOTEL TRESOR,DJELFA,Cité Guenani,Djelfa",34.665569,3.255687,27937731,. IMPOTS,Djelfa,FALSE
439,"HUSSEIN DEY,Rue Boudjemaa Moghni,Alger",36.7388579,3.1005586,023 77 84 91  - 023 77 84 91,. RECETTE DES IMPOTS D'EL-MAGHARIA,Alger,FALSE
440,"HUSSEIN DEY,Rue Tripoli,Alger",36.7406754,3.1041798,21777016,Direction d'El Harrach IMPOTS,Alger,FALSE
441,"HYDRA,Rue Timgad (Ali Ouazane),Alger",36.7442702,3.0439102,21607342,Recette HYDRA DIRECTION DES IMPOTS ALGER CENTRE,Alger,FALSE
442,"ILLIZI,Rue EMIR ABDELKADER,Illizi",26.5000301,8.471065,029 41 13 25  - 029 41 13 27  - 029 41 14 36,. DIRECTION DES IMPOTS,Illizi,FALSE
443,"ILLIZI,Rue Mostéfa BENBOULAID,Illizi",26.4775863,8.4776326,29411309,. DIRECTION DES IMPOTS,Illizi,FALSE
444,"ILO 73,LAKHDARIA,Rue Larbi Ben M'hidi,Bouira",36.5660649,3.5960213,26712170,. IMPOT,Bouira,FALSE
445,"ILOT 1,AGHRIBS,Village Agouni Oucharki,Tizi Ouzou",36.8094545,4.3180155,26452161,. DIRECTION DES IMPOTS,Tizi Ouzou,FALSE
446,"ILOT 104,TICHY,Route De Plage,Bejaia",36.6550461,5.1638936,34815398,. IMPOTS Recette Contributions Divers,Bejaia,FALSE
447,"ILOT 1099,TAMANRASSET,Cité 175 logements DNC,Tamanrasset",22.7902972,5.5193268,29301884,. IMPOTS Direction,Tamanrasset,FALSE
448,"ILOT 1215,TAMANRASSET,K'SAR EST,Tamanrasset",22.7902972,5.5193268,29312450,. IMPOTS Direction,Tamanrasset,FALSE
449,"ILOT 127,BOU ISMAIL,Katiba Amaria,Tipaza",36.6392852,2.6962722,24318520,TIPAZA RECETTE DES IMPOTS,Tipaza,FALSE
450,"ILOT 128,AFLOU,Hai EL MOUSTAKBAL,Laghouat",34.1139518,2.0973854,029 17 60 76  - 029 17 60 77  - 029 17 60 78  - 029 17 60 80  - 029 17 60 85,. IMPOTS Direction,Laghouat,FALSE
451,"ILOT 1462,EL OUED,Rue des moudjahidine,El Oued",33.367811,6.8516511,32134122,. DIRECTION DES IMPOTS,El Oued,FALSE
452,"ILOT 15,IN AMENAS,Hai ESSOUK,Illizi",28.0383517,9.5646259,029 45 70 95  - 029 45 70 96,IN AMENAS DIRECTION DES IMPOTS,Illizi,FALSE
453,"ILOT 16,DELLYS,Rue Amirouche,Boumerdes",36.9126574,3.9124569,24763180,. IMPOTS Direction,Boumerdes,FALSE
454,"ILOT 184,DEBILA,Cité 18 fevrier,El Oued",33.5058203,6.9378981,032 26 96 93  - 032 26 96 94  - 032 26 96 95  - 032 26 96 97  - 032 26 96 98  - 032 26 96 99,. DIRECTION DES IMPOTS,El Oued,FALSE
455,"ILOT 19,SOUR EL GHOZLANE,Rue Emir Abdelkader,Bouira",36.1508804,3.7074189,26756973,. IMPOT,Bouira,FALSE
456,"ILOT 1978,AIN BOUCIF,Centre Ville,Medea",35.8896757,3.1549616,25702281,. IMPOTS Direction,Medea,FALSE
457,"ILOT 2,BOUHAROUNE,Rue Kadem Djelloul,Tipaza",36.6237048,2.6554544,24303483,Tresorerie Intercommunale IMPOTS,Tipaza,FALSE
458,"ILOT 2128,TAMANRASSET,Route IN GUEZZAM,Tamanrasset",19.5632255,5.7717952,29326885,. IMPOTS Direction,Tamanrasset,FALSE
459,"ILOT 22,MANSOURAH (GHARDAIA),Cité 30 logements,Ghardaia",48.5108101,-3.3263676,29276230,. RECETTE INTERCOMMUNALE DES IMPOTS,Ghardaia,FALSE
460,"ILOT 286,DEBILA,Cité 18 fevrier,El Oued",33.5058203,6.9378981,32269303,DEBILA DIRECTION DES IMPOTS,El Oued,FALSE
461,"ILOT 2941,TAMANRASSET,Hai TAFSIT,Tamanrasset",22.7902972,5.5193268,29303965,. IMPOTS Direction,Tamanrasset,FALSE
462,"ILOT 3,ROUINA,Rue De L'independance,Ain Defla",36.2436971,1.8076477,027 60 56 81  - 027 60 56 85,. IMPOTS,Ain Defla,FALSE
463,"ILOT 316,AIN DEFLA,Cité 300 Logements,Ain Defla",36.2509429,1.9393815,027 50 54 01  - 027 50 54 02  - 027 50 54 03  - 027 50 54 04  - 027 50 54 05  - 027 50 54 06  - 027 50 54 07  - 027 50 54 08  - 027 50 54 09  - 027 50 54 10  - 027 50 54 11  - 027 50 54 12  - 027 50 54 13  - 027 50 54 14,. IMPOTS,Ain Defla,FALSE
464,"ILOT 337,AIN SALAH,Centre ville 06,Tamanrasset",27.2026311,2.4878487,029 36 53 00  - 029 36 54 89  - 029 36 59 00,. IMPOTS Direction,Tamanrasset,FALSE
465,"ILOT 349,DJAMAA,Hai ESSALEM,El Oued",33.5376374,5.9899763,032 16 27 58  - 032 16 27 59,. DIRECTION DES IMPOTS,El Oued,FALSE
466,"ILOT 358,LAGHOUAT,Maamourah,Laghouat",33.7972499,2.8657376,29132643,direction des impots direction des impots,Laghouat,FALSE
467,"ILOT 38 D 14,EL OMARIA,Rue Bouregaa Rabah,Medea",36.2685724,3.0262719,25763470,. IMPOTS Direction,Medea,FALSE
468,"ILOT 396,DEBILA,Cité 70 logements,El Oued",33.5017684,6.930934,32268820,POLICE DIRECTION DES IMPOTS,El Oued,FALSE
469,"ILOT 54,SEDDOUK,Place De La Mairie,Bejaia",36.5467873,4.6867022,34893304,. IMPOTS Recette Contributions Divers,Bejaia,FALSE
470,"ILOT 784,GUEMAR,Cité NOUAR,El Oued",33.4882993,6.7966739,032 23 42 23  - 032 23 42 45  - 032 23 42 46  - 032 23 42 47  - 032 23 42 48  - 032 23 42 51  - 032 23 42 52,. DIRECTION DES IMPOTS,El Oued,FALSE
471,"ILOT 85,AIN SALAH,Cité EL BACHIR ALIBRAHIMI,Tamanrasset",27.2026311,2.4878487,029 38 50 66  - 029 38 50 67  - 029 38 50 68,. IMPOTS Direction,Tamanrasset,FALSE
472,"ILOT 865,BEJAIA,Lotissement Sidi Ali L'Bhar,Bejaia",36.7266653,5.0715808,34183525,. IMPOTS Recette Contributions Divers,Bejaia,FALSE
473,"ILOT 87,BOUZEGUENE,Cité 56 Logements,Tizi Ouzou",36.617695,4.4767763,026 14 64 55  - 026 14 64 56,. DIRECTION DES IMPOTS,Tizi Ouzou,FALSE
474,"ILOT 940,BEJAIA,Boulevard De L'ALN,Bejaia",36.7513597,5.0594982,34125123,. IMPOTS Recette Contributions Divers,Bejaia,FALSE
475,"ILOT 942,BEJAIA,Lotissement Daouadji,Bejaia",36.7515258,5.0556837,034 12 50 19  - 034 12 50 44,. IMPOTS Recette Contributions Divers,Bejaia,FALSE
476,"IMPOT ADE,CONSTANTINE,Cite Des Muriers,Constantine",36.3496292,6.6320592,31687746,. IMPOTS Direction,Constantine,FALSE
477,"IMPOT,BORDJ BOU ARRERIDJ,Cite 08 Mai 45,Bordj Bou Arreridj",36.0739925,4.7630271,035 69 22 11  - 035 69 22 65  - 035 69 25 15  - 035 69 25 16  - 035 69 25 17  - 035 69 25 18  - 035 69 25 19  - 035 69 25 20  - 035 69 25 22,. DIRECTION DES IMPOTS,Bordj Bou Arreridj,FALSE
478,"IMPOT,SIDI OKBA,Route Nationale N°83,Biskra",34.825376,5.7722184,033 64 62 72  - 033 64 62 73  - 033 64 62 74  - 033 64 62 75  - 033 64 62 76  - 033 64 62 77  - 033 64 62 78,. DIRECTION DES IMPOTS,Biskra,FALSE
479,"IMPOTS,BIR MOURAD RAIS,Cite Said Hamdine,Alger",36.7621838,3.047713,23536635,. DIRECTION DES IMPOTS D'ALGER CENTRE,Alger,FALSE
480,"IMPOTS,CONSTANTINE,Siege APC DAKSI,Constantine",36.3656254,6.609126,31639685,. IMPOTS Direction,Constantine,FALSE
481,"IMPOTS,KHENCHELA,Hotel Des Finances,Khenchela",35.4072676,7.1365172,032 72 52 15  - 032 72 56 68  - 032 72 56 82,. IMPOTS,Khenchela,FALSE
482,"IN AMENAS,Hai ESSOUK,Illizi",28.0383517,9.5646259,029 45 70 88  - 029 45 73 09  - 029 46 06 31  - 029 46 06 60,. DIRECTION DES IMPOTS,Illizi,FALSE
483,"IN AMENAS,Rue 1er novembre 1954,Illizi",28.0383517,9.5646259,029 45 75 34  - 029 45 75 43,. DIRECTION DES IMPOTS,Illizi,FALSE
484,"INGHAR,K'SAR DJEDID,Tamanrasset",27.1030589,1.9041215,029 36 91 91  - 029 36 94 12,. IMPOTS Direction,Tamanrasset,FALSE
485,"INSPECTION,AIN BESSEM,Hai Ben Ahmed El Hadj,Bouira",36.3337514,3.687402,026 87 63 09  - 026 87 98 21,. IMPOT,Bouira,FALSE
486,"INSPECTION,AIN DEFLA,Rue 1er Novembre,Ain Defla",36.2638291,1.9628141,27504506,. IMPOTS,Ain Defla,FALSE
487,"ISSER,Rue Chateau D'eau,Boumerdes",36.721957,3.6688439,24716169,. IMPOTS Direction,Boumerdes,FALSE
488,"ISSER,Rue Colonel Amirouche,Boumerdes",36.7243966,3.6682202,024 71 35 36  - 024 71 36 97  - 024 71 36 99,. IMPOTS Direction,Boumerdes,FALSE
489,"JIJEL,Avenue des Maquisards,Jijel",36.8173619,5.7553312,34471489,. IMPOTS Direction,Jijel,FALSE
490,"JIJEL,Cite 450 Logts HLM,Jijel",36.8210144,5.7634126,34497760,. IMPOTS Direction,Jijel,FALSE
491,"JIJEL,Cite Arid Ahcene,Jijel",36.8105432,5.7752319,34590506,. IMPOTS Direction,Jijel,FALSE
492,"JIJEL,Cite Engebat 200 Logts Laouir,Jijel",36.8210144,5.7634126,034 50 12 80  - 034 50 16 63,. IMPOTS Direction,Jijel,FALSE
493,"JIJEL,Cite Moussaoui Messaouda,Jijel",36.8208696,5.7609245,34492602,. IMPOTS Direction,Jijel,FALSE
494,"JIJEL,Cooperative EL AMEL,Jijel",36.8103555,5.7739494,034 59 65 04  - 034 59 65 05  - 034 59 65 06  - 034 59 65 07  - 034 59 65 08  - 034 59 65 09  - 034 59 65 10  - 034 59 65 11  - 034 59 65 12  - 034 59 65 13  - 034 59 65 14  - 034 59 65 15  - 034 59 65 16,. IMPOTS Direction,Jijel,FALSE
495,"JIJEL,Hai El Akaabi,Jijel",42.4534492,-76.4735027,034 47 34 38  - 034 47 38 11  - 034 47 47 80  - 034 47 47 86  - 034 47 47 87  - 034 47 74 19  - 034 47 77 54  - 034 49 82 92  - 034 49 89 33  - 034 52 31 65  - 034 56 36 17  - 034 59 64 51,. IMPOTS Direction,Jijel,FALSE
496,"JIJEL,Rue Boubzari Mohamed,Jijel",36.8234129,5.7649037,34497017,. IMPOTS Direction,Jijel,FALSE
497,"JIJEL,Rue Mohamed Boubzari,Jijel",36.8234129,5.7649037,034 47 12 87  - 034 47 79 40,. IMPOTS Direction,Jijel,FALSE
498,"KAIS,Cité 17 Juin,Khenchela",35.497753,6.9122241,32774553,. IMPOTS,Khenchela,FALSE
499,"KAIS,Cité Des Jardin,Khenchela",45.4866815,-75.6870615,32773577,. IMPOTS,Khenchela,FALSE
500,"KAIS,Rue Amar Achi,Khenchela",35.4328741,7.1435396,032 77 36 36  - 032 77 36 39,. IMPOTS,Khenchela,FALSE
501,"KAOUS,Village kaous,Jijel",36.771323,5.8113221,34554393,. IMPOTS Direction,Jijel,FALSE
502,"KHEIR EDDINE,Route Ain Tedles,Mostaganem",35.9813982,0.1681744,45428222,. IMPOTS Direction,Mostaganem,FALSE
503,"KHEMIS EL KHECHNA,Centre Ville,Boumerdes",36.6505125,3.3316893,24973529,. IMPOTS Direction,Boumerdes,FALSE
504,"KHEMIS EL KHECHNA,Rue Freres Boumia,Boumerdes",36.6505125,3.3316893,24970191,. IMPOTS Direction,Boumerdes,FALSE
505,"KHEMIS EL KHECHNA,Rue Sayad Salah,Boumerdes",36.7353009,3.2828765,024 97 02 00  - 024 97 02 01,. IMPOTS Direction,Boumerdes,FALSE
506,"KHEMIS MILIANA,Rue Belsaadi Abdelkader,Ain Defla",36.2609095,2.2241107,027 55 25 35  - 027 55 29 60  - 027 55 29 61  - 027 55 29 62  - 027 55 29 63,. IMPOTS,Ain Defla,FALSE
507,"KHENCHELA,Hotel Des Finances,Khenchela",35.427666,7.1439305,032 70 05 70  - 032 70 05 78  - 032 71 85 22  - 032 72 14 98  - 032 72 19 43  - 032 72 56 10  - 032 72 56 13  - 032 72 56 14  - 032 72 56 15  - 032 72 56 17  - 032 72 56 18  - 032 72 56 19  - 032 72 56 20  - 032 72 56 21  - 032 72 56 22  - 032 72 56 26  - 032 72 73 38  - 032 73 03 61  - 032 73 82 02  - 032 73 82 10  - 032 77 35 93,. IMPOTS,Khenchela,FALSE
508,"KHERRATA,Cite Douasla,Bejaia",36.4936399,5.2770714,034 18 52 86  - 034 18 54 33,. IMPOTS Recette Contributions Divers,Bejaia,FALSE
509,"KHERRATA,Kherrata (Centre ),Bejaia",36.4936399,5.2770714,34392423,. IMPOTS Recette Contributions Divers,Bejaia,FALSE
510,"KHERRATA,Route National N°9,Bejaia",36.4936399,5.2770714,034 18 52 80  - 034 18 52 81  - 034 18 52 83,. IMPOTS Recette Contributions Divers,Bejaia,FALSE
511,"KHRAISSIA,Khraissia,Alger",36.6679107,2.9982768,23313255,. INSPECTION DES IMPOTS KHRAICIA,Alger,FALSE
512,"KOLEA,Lotissement Zouaoui Benaouda,Tipaza",36.6431489,2.7782025,24360173,. IMPOTS Ecole Nationale,Tipaza,FALSE
513,"KOLEA,Route De Bou Ismail RN n°69,Tipaza",36.6404942,2.7046882,024 38 44 37  - 024 38 44 39  - 024 38 49 07  - 024 38 49 08  - 024 38 49 09,TIPAZA INSPECTION DES IMPOTS,Tipaza,FALSE
514,"KOLEA,Route de Bou Ismail,Tipaza",36.6404942,2.7046882,024 38 45 40  - 024 38 45 41  - 024 38 45 51  - 024 38 45 79  - 024 38 45 80  - 024 38 46 07  - 024 38 46 28  - 024 38 46 30  - 024 38 46 35  - 024 38 46 37  - 024 38 46 41  - 024 38 46 43  - 024 38 49 11,. IMPOTS Ecole Nationale,Tipaza,FALSE
515,"KOLEA,Rue 20 Aout 1955,Tipaza",36.6381616,2.7669757,24363719,. IMPOTS Ecole Nationale,Tipaza,FALSE
516,"KOLEA,Rue Souidani Boudjemaa,Tipaza",36.6361689,2.7680156,24380781,. IMPOTS Ecole Nationale,Tipaza,FALSE
517,"KOUBA,Place Aichaoui Mohamed,Alger",36.728118,3.082133,023 77 79 37  - 023 77 79 37,Recette Kouba Ben Omar IMPOTS,Alger,FALSE
518,"KOUBA,Place De La Mairie,Alger",36.7337403,3.0862838,023 78 62 06  - 023 78 62 06,Recette Kouba Garidi IMPOTS,Alger,FALSE
519,"KSAR EL BOUKHARI,Cité 140 Logts LSP nouveau pôl,Medea",35.8763773,2.7488447,025 70 46 70  - 025 70 47 15  - 025 70 47 67  - 025 70 49 77,. IMPOTS Direction,Medea,FALSE
520,"KSAR EL BOUKHARI,Rue CPT Benayad,Medea",35.8763773,2.7488447,25750338,. IMPOTS Direction,Medea,FALSE
521,"KSAR EL HIRANE,KSAR EL HIRANE,Laghouat",33.7847662,3.1328011,029 12 25 59  - 029 12 25 60  - 029 12 25 61  - 029 12 27 29  - 029 12 27 30  - 029 12 27 31  - 029 12 27 32  - 029 12 27 63,. IMPOTS Direction,Laghouat,FALSE
522,"LAGHOUAT,Boulevard BEN SALEM Hadj Ahmed,Laghouat",33.8078341,2.8628294,29132541,. IMPOTS Direction,Laghouat,FALSE
523,"LAGHOUAT,Boulevard de l'indépendance,Laghouat",33.8008903,2.8713477,029 13 25 49  - 029 13 25 50  - 029 13 25 52  - 029 13 25 53  - 029 13 25 54  - 029 13 25 55  - 029 13 25 56,. IMPOTS Direction,Laghouat,FALSE
524,"LAGHOUAT,Cité 200 logements Saci BOULAF,Laghouat",33.8078341,2.8628294,029 10 58 60  - 029 10 59 61,. IMPOTS Direction,Laghouat,FALSE
525,"LAGHOUAT,Cité universitaire,Laghouat",33.8025084,2.8556728,029 14 53 36  - 029 14 53 38  - 029 14 53 39  - 029 14 53 41,. IMPOTS Direction,Laghouat,FALSE
526,"LAGHOUAT,Maamourah,Laghouat",33.8078341,2.8628294,029 13 23 36  - 029 13 23 38  - 029 13 23 39  - 029 13 23 40  - 029 13 25 48  - 029 13 25 51  - 029 13 25 59  - 029 14 65 26,. IMPOTS Direction,Laghouat,FALSE
527,"LAGHOUAT,Route El Kheneg,Laghouat",33.800128,2.8563323,029 10 23 30  - 029 10 23 31,. IMPOTS Direction,Laghouat,FALSE
528,"LAKHDARIA,Lakhdaria,Bouira",36.5660649,3.5960213,26704673,. IMPOT,Bouira,FALSE
529,"LAKHDARIA,Rue Larbi Ben M'hidi,Bouira",36.3950708,3.8858955,026 71 20 50  - 026 71 20 51  - 026 71 25 75,. IMPOT,Bouira,FALSE
530,"LARBAA (BLIDA),Blida",36.5651532,3.1539961,025 33 00 70  - 025 33 00 71  - 025 33 00 73  - 025 33 00 74  - 025 33 00 76  - 025 33 00 78  - 025 33 00 79  - 025 33 00 80,. IMPOTS,Blida,FALSE
531,"LARBAA NATH IRATHEN,Route Ledjnane,Tizi Ouzou",36.6393158,4.2043029,26493121,. DIRECTION DES IMPOTS,Tizi Ouzou,FALSE
532,"LES EUCALYPTUS,Cite Cherarba,Alger",36.6562422,3.1754557,23890287,. IMPOTS Direction Générale,Alger,FALSE
533,"LES EUCALYPTUS,Cite Ouled El Hadj,Alger",36.6598831,3.1602025,021 50 15 46  - 023 89 31 97,INSPECTION IMPOTS,Alger,FALSE
534,"LOCAUX,CHETTIA,Village Socialiste Agricole,Chlef",36.1944323,1.2568799,27734509,Direction IMPOTS,Chlef,FALSE
535,"LYCEE,BEJAIA,Boulevard De L'ALN,Bejaia",36.7608658,5.0680718,034 12 50 42  - 034 12 58 79  - 034 12 58 85,. IMPOTS Recette Contributions Divers,Bejaia,FALSE
536,"M'CHEDALLAH,Chem de Wilaya 98 Selim,Bouira",36.364496,4.2696806,026 79 34 92  - 026 79 34 93  - 026 79 38 89,. IMPOT,Bouira,FALSE
537,"M'CHEDALLAH,M'chedallah,Bouira",36.364496,4.2696806,26794263,. IMPOT,Bouira,FALSE
538,"M'DAOUROUCH,Cite Abdelbaki,Souk Ahras",36.0747842,7.8056958,037 83 55 15  - 037 83 55 16,. IMPOTS Direction,Souk Ahras,FALSE
539,"M'SILA,Avenue Abdelkader Sahnouni,MSila",35.7056818,4.5415539,35336246,. IMPOTS Direction,MSila,FALSE
540,"M'SILA,Cite Administrative,MSila",35.6998197,4.5376177,035 33 05 82  - 035 33 85 09  - 035 33 85 15  - 035 33 85 21  - 035 33 85 81  - 035 33 86 06  - 035 33 86 12  - 035 33 86 51  - 035 33 88 25  - 035 33 88 29  - 035 33 89 14  - 035 33 89 58  - 035 37 02 22  - 035 37 02 23  - 035 39 20 57  - 035 39 21 40  - 035 42 71 16  - 035 42 71 17,. IMPOTS Direction,MSila,FALSE
541,"M'SILA,M'Sila,MSila",35.7186646,4.5233423,035 46 81 07  - 035 46 81 12  - 035 47 81 94,Bou saada IMPOTS RECETTE DES CONTRIBUTION DIVERSES,MSila,FALSE
542,"M'SILA,Place Des Martyres,MSila",35.7186646,4.5233423,035 33 05 05  - 035 33 05 87  - 035 33 06 17,. IMPOTS Direction,MSila,FALSE
543,"MAATKAS,Centre Ville,Tizi Ouzou",36.6047939,3.9843693,26138446,. DIRECTION DES IMPOTS,Tizi Ouzou,FALSE
544,"MANSOURAH,Cité Administrative,Tlemcen",34.876702,-1.3567991,043 38 22 99  - 043 38 23 93  - 043 38 23 97  - 043 38 23 99  - 043 38 24 11  - 043 38 24 12  - 043 38 24 14  - 043 38 24 24  - 043 38 25 19,. IMPOTS Direction,Tlemcen,FALSE
545,"MASCARA,Avenue Colonel Amirouche,Mascara",35.3954522,0.1308542,045 71 50 90  - 045 71 54 62  - 045 71 54 63  - 045 71 58 03,IMPOTS Direction HOTEL DES FINANCES,Mascara,FALSE
546,"MASCARA,Cite Bekhlouf Adda,Mascara",35.4144226,0.1290252,45715483,IMPOTS Direction HOTEL DES FINANCE,Mascara,FALSE
547,"MASCARA,Cité Hammou Boutlelis,Mascara",35.4020988,0.1400257,45715099,IMPOTS Direction HOTEL DES FINANCES,Mascara,FALSE
548,"MASCARA,Rue Hadria Abdelkader,Mascara",35.3927548,0.1431006,45718085,. CENTRE DES IMPOTS DELA WILAYA DE MASCARA,Mascara,FALSE
549,"MEDEA,Bd du 05 Juillet,Medea",36.2637078,2.7587857,025 78 10 75  - 025 78 17 08  - 025 78 21 25  - 025 78 26 12  - 025 78 26 48  - 025 78 26 49  - 025 78 26 51  - 025 78 27 61  - 025 78 36 52  - 025 78 37 61  - 025 78 39 61  - 025 78 39 95,. IMPOTS Direction,Medea,FALSE
550,"MEKLA,Mekla,Tizi Ouzou",36.6871278,4.2669219,26372129,. DIRECTION DES IMPOTS,Tizi Ouzou,FALSE
551,"MERAHNA,Merahna,Souk Ahras",36.1973791,8.1551838,037 80 47 86  - 037 80 47 91  - 037 80 47 92  - 037 80 47 94,. IMPOTS Direction,Souk Ahras,FALSE
552,"MEROUANA,Batna",35.6299464,5.9118713,33400718,MEROUANA RECETTE DES IMPOTS,Batna,FALSE
553,"MEROUANA,Cité 75 Logts,Batna",35.6260345,5.9130714,33402541,MEROUANA RECETTE DES IMPOTS,Batna,FALSE
554,"MESRA,Avenue Boudraf Mohamed,Mostaganem",35.8379912,0.1674749,45483531,. IMPOTS Direction,Mostaganem,FALSE
555,"MESRA,Mesra Centre,Mostaganem",35.8379912,0.1674749,045 48 20 31  - 045 48 23 14  - 045 48 36 71,. IMPOTS Direction,Mostaganem,FALSE
556,"MESSAAD,Cité 100 Logts Ben Brahim Moha,Djelfa",34.1540623,3.4922857,27989023,. IMPOTS,Djelfa,FALSE
557,"MESSAAD,Route Boussaada,Djelfa",35.2163516,4.181463,27989388,. IMPOTS,Djelfa,FALSE
558,"MILA,Hotel Des Finances,Mila",45.5660963,5.9207186,031 47 84 24  - 031 47 84 27,. IMPOTS Direction,Mila,FALSE
559,"MILA,Rue 1er Novembre,Mila",36.4519049,6.2584338,031 47 35 02  - 031 47 84 26  - 031 47 84 33  - 031 47 84 34  - 031 47 84 35  - 031 47 84 37  - 031 47 84 39  - 031 47 84 44  - 031 47 84 46  - 031 47 86 07  - 031 49 64 49,. IMPOTS Direction,Mila,FALSE
560,"MILIANA,Centre,Ain Defla",36.3080267,2.228407,27649035,. IMPOTS,Ain Defla,FALSE
561,"MILIANA,Hotel des Finances,Ain Defla",36.3063656,2.2253962,27640014,. IMPOTS,Ain Defla,FALSE
562,"MOHAMED BELOUIZDAD,Rue Mohamed Belouizdad,Alger",36.7487881,3.0686633,021 67 01 00  - 021 67 01 15,. IMPOTS,Alger,FALSE
563,"MOHAMMADIA,Cite 632 Logts,Alger",36.7303904,3.1472242,023 82 51 53  - 023 82 51 53,. IMPOTS RECETTE,Alger,FALSE
564,"MOHAMMADIA,Pins Maritimes,Alger",36.7373,3.15437,21219661,. IMPOTS RECETTE,Alger,FALSE
565,"MOSTAGANEM,Avenue Khettab Abdelkader,Mostaganem",35.9313254,0.0993866,45202570,. IMPOTS Direction,Mostaganem,FALSE
566,"MOSTAGANEM,Cite 300 Logements,Mostaganem",35.9492093,0.0968743,045 41 93 12  - 045 41 93 13  - 045 41 93 14  - 045 41 93 15  - 045 41 93 16  - 045 41 93 17  - 045 41 93 18  - 045 41 93 19  - 045 41 93 21,. IMPOTS Direction,Mostaganem,FALSE
567,"MOSTAGANEM,Cité Zaghloul,Mostaganem",35.9148345,0.0884027,045 20 11 53  - 045 20 12 01  - 045 20 12 87  - 045 20 16 31  - 045 20 24 55,. IMPOTS Direction,Mostaganem,FALSE
568,"MOSTAGANEM,Route d'Oran,Mostaganem",35.9177459,0.0751591,045 30 76 39  - 045 30 77 54  - 045 30 77 56  - 045 30 77 57  - 045 30 77 61  - 045 30 77 64  - 045 30 77 65  - 045 30 77 66  - 045 30 77 67,. IMPOTS Direction,Mostaganem,FALSE
569,"MOSTAGANEM,Rue Freres Mahieddine,Mostaganem",35.9311454,0.0909414,45201090,. IMPOTS Direction,Mostaganem,FALSE
570,"MOUZAIA,Rue Issaad mohamed,Blida",36.4669121,2.6898596,25373675,. RECETTE DE MOUZAIA RECETTE DES IMPOTS INTERCOMMUNALE,Blida,FALSE
571,"N'GAOUS,Rue Principale,Batna",35.5472882,5.6296201,33377337,Batna DIRECTION DES IMPOTS,Batna,FALSE
572,"NEDROMA,Boulevard De l'Independance,Tlemcen",34.8824938,-1.3044441,043 45 63 27  - 043 45 63 49,. IMPOTS Direction,Tlemcen,FALSE
573,"NEZLA,Cité BOUMERDES NOUVEAU,Ouargla",33.1055688,6.0670753,29695105,. IMPOTS,Ouargla,FALSE
574,"ORAN,Boulevard Tripoli,Oran",35.7033043,-0.6358403,41292395,Direction Wilaya D'oran IMPOTS,Oran,FALSE
575,"ORAN,Boulevard de l'ALN,Oran",35.7058109,-0.6380355,41415296,Direction Wilaya D'oran IMPOTS,Oran,FALSE
576,"ORAN,Rue des Soeurs Benslimane,Oran",35.7043181,-0.6455611,041 10 93 72  - 041 15 33 85  - 041 15 35 07  - 041 18 48 64  - 041 18 48 69  - 041 19 64 13  - 041 19 65 71  - 041 29 12 31  - 041 29 18 84  - 041 29 37 79  - 041 29 41 65  - 041 29 42 17  - 041 29 45 49  - 041 29 47 07  - 041 33 24 30  - 041 33 24 84  - 041 56 34 87  - 041 56 36 09,. IMPOTS Direction Ouest,Oran,FALSE
577,"ORG,EL OUED,Rue des MOUDJAHIDINE,El Oued",36.7885379,3.0544463,32134019,. DIRECTION DES IMPOTS,El Oued,FALSE
578,"ORG,ILLIZI,Avenue 19 mars 1962,Illizi",26.4775863,8.4776326,029 41 11 64  - 029 41 13 26  - 029 41 13 28  - 029 41 13 29  - 029 41 14 60,. DIRECTION DES IMPOTS,Illizi,FALSE
579,"ORG,ILLIZI,DIRECTION DES IMPOS,Illizi",26.4775863,8.4776326,029 40 30 25  - 029 40 30 26  - 029 40 30 27  - 029 40 30 28  - 029 40 30 29,. DIRECTION DES IMPOTS,Illizi,FALSE
580,"ORG,INGHAR,K'SAR DJEDID,Tamanrasset",27.1030589,1.9041215,29369073,. IMPOTS Direction,Tamanrasset,FALSE
581,"ORG,TAMANRASSET,Logements OPGI,Tamanrasset",22.7976383,5.5181324,29326834,. IMPOTS Direction,Tamanrasset,FALSE
582,"OUACIFS,Rue D'en Haut,Tizi Ouzou",36.5202249,4.2039684,026 33 11 40  - 026 33 16 11  - 026 33 18 62  - 026 33 19 96,. DIRECTION DES IMPOTS,Tizi Ouzou,FALSE
583,"OUADHIAS,Ouadhia,Tizi Ouzou",36.5559997,4.0882933,026 32 46 19  - 026 32 53 30,. DIRECTION DES IMPOTS,Tizi Ouzou,FALSE
584,"OUADHIAS,Route Nationale N°30,Tizi Ouzou",36.5559997,4.0882933,26324118,. DIRECTION DES IMPOTS,Tizi Ouzou,FALSE
585,"OUADHIAS,Rue Bettouche,Tizi Ouzou",36.5559997,4.0882933,26324245,. DIRECTION DES IMPOTS,Tizi Ouzou,FALSE
586,"OUAGUENOUN,Centre Tikobaine,Tizi Ouzou",36.7701747,4.1750149,26440611,. DIRECTION DES IMPOTS,Tizi Ouzou,FALSE
587,"OUAGUENOUN,Route Nationale,Tizi Ouzou",36.7701747,4.1750149,26440127,. DIRECTION DES IMPOTS,Tizi Ouzou,FALSE
588,"OUARGLA,Avenue SI EL HAOUES,Ouargla",31.9416083,5.3068146,029 70 30 21  - 029 70 32 22  - 029 70 38 88  - 029 70 52 09  - 029 70 52 66  - 029 70 52 68  - 029 70 53 15  - 029 70 94 40  - 029 71 33 68,. DIRECTION DES IMPOTS,Ouargla,FALSE
589,"OUARGLA,Place SOUK ESSEBT,Ouargla",31.9482852,5.3299417,29700961,. DIRECTION DES IMPOTS,Ouargla,FALSE
590,"OUARGLA,Rue ROUABAH Abderrahmane,Ouargla",31.957442,5.3319257,029 70 13 42  - 029 70 47 27,. DIRECTION DES IMPOTS,Ouargla,FALSE
591,"OUED ATHMENIA,Cite Belghimouze Salima,Mila",36.2470012,6.2864318,31421376,. IMPOTS Direction,Mila,FALSE
592,"OUED ATHMENIA,Oued Athmenia,Mila",36.2470012,6.2864318,31400152,. IMPOTS Direction,Mila,FALSE
593,"OUED ATHMENIA,Route De Constantine,Mila",36.2468394,6.2857278,31400177,. IMPOTS Direction,Mila,FALSE
594,"OUED ATHMENIA,Rue ALN (Route N 5),Mila",36.2560672,6.3014747,31400151,. IMPOTS Direction,Mila,FALSE
595,"OUED CHAABA,Cité HAMLA 3,Batna",35.5316642,6.0931652,033 31 66 86  - 033 31 66 87,Batna DIRECTION DES IMPOTS,Batna,FALSE
596,"OUED EL ALLEUG,Oued El Alleug,Blida",36.5558964,2.7896308,25261283,. IMPOTS Direction,Blida,FALSE
597,"OUED EL ALLEUG,Place Du 20 Aout,Blida",36.5558964,2.7896308,25261810,. IMPOTS Direction,Blida,FALSE
598,"OUED FODDA,Chlef",36.1884187,1.5328078,027 44 70 18  - 027 44 74 31  - 027 44 74 32,Direction IMPOTS,Chlef,FALSE
599,"OUED FODDA,Oued Fodda,Chlef",36.1884187,1.5328078,27448428,Direction IMPOTS,Chlef,FALSE
600,"OUED KORICHE,Avenue Askri Ahcene,Alger",36.787327,3.0491561,23172249,. DIRECTION DES IMPÔTS D'ALGER OUEST,Alger,FALSE
601,"OUED SMAR,Alger",36.7071277,3.1650558,021 52 41 64  - 021 52 46 27  - 023 91 93 35,. IMPOTS Direction Générale,Alger,FALSE
602,"OUED SMAR,Rue Habat Mohamed,Alger",36.7100479,3.1614046,23926713,. IMPOTS Direction Générale,Alger,FALSE
603,"OUED ZENATI,Rue 20 Aout 1955,Guelma",36.3100347,7.1657362,037 18 62 28  - 037 18 81 52  - 037 18 81 53  - 037 18 81 54  - 037 18 81 55,OUED ZENATI IMPOTS Recette,Guelma,FALSE
604,"OUENZA,Cite Central,Tebessa",35.9596802,8.113017,037 67 13 35  - 037 67 14 45  - 037 67 15 09,Recette Contribution Divers ouenza IMPOTS,Tebessa,FALSE
605,"OUENZA,Ilot 118,Tebessa",35.9518347,8.1325283,37675515,. IMPOTS DIRECTION TEBESSA,Tebessa,FALSE
606,"OUENZA,Ouenza,Tebessa",35.9518347,8.1325283,37678677,. IMPOTS DIRECTION TEBESSA,Tebessa,FALSE
607,"OULED DERRADJ,Rue Selmane1,MSila",35.6892688,4.7764157,035 57 72 52  - 035 57 73 00,. IMPOTS Direction,MSila,FALSE
608,"OULED DJELLAL,Ouled Djellal,Biskra",34.4294289,5.0681159,033 66 01 95  - 033 66 32 63  - 033 66 32 64  - 033 66 32 66  - 033 66 32 67  - 033 66 32 68  - 033 66 32 69  - 033 66 32 70,. DIRECTION DES IMPOTS,Biskra,FALSE
609,"OULED DJELLAL,Rue Laarbi Ben M'hidi,Biskra",34.8541642,5.715833,33663262,. DIRECTION DES IMPOTS,Biskra,FALSE
610,"OULED FARES,Ouled Fares,Chlef",36.2309293,1.2341846,027 72 00 81  - 027 72 94 13  - 027 78 90 87,Direction IMPOTS,Chlef,FALSE
611,"OULED FAYET,Rue Kouchi Ahmed,Alger",36.7364441,2.9505409,023 28 03 02  - 023 28 03 04,. DIRECTION ET INSPECTION DES IMPOTS,Alger,FALSE
612,"OULED MOUSSA,Rue Moussaoui Dahmane,Boumerdes",36.6835061,3.3672988,24937749,. IMPOTS Direction,Boumerdes,FALSE
613,"OULED YAICH,Cite 1er Mai,Blida",36.4948974,2.8456414,25204301,DES IMPOTS CENTRE,Blida,FALSE
614,"OULED YAICH,Cité 1er Mai (1000 Logts),Blida",36.495724,2.846564,025 26 27 94  - 025 26 27 95,. IMPOTS Direction,Blida,FALSE
615,"OULED YAICH,Cité 400 Logements,Blida",36.4905826,2.8539519,25436025,. IMPOTS Direction,Blida,FALSE
616,"OUM DROU,Centre Ville,Chlef",36.1977011,1.3903197,27429442,Direction IMPOTS,Chlef,FALSE
617,"OUM EL BOUAGHI,Ave H.Boumediene,Oum El Bouaghi",35.8669695,7.1152607,032 54 16 83  - 032 54 16 88  - 032 54 16 90  - 032 54 16 91  - 032 54 17 00  - 032 54 17 01  - 032 54 97 79  - 032 54 98 99  - 032 55 11 05  - 032 55 12 25  - 032 55 12 33  - 032 55 12 34  - 032 55 12 57  - 032 55 12 70  - 032 55 12 74  - 032 55 12 92  - 032 55 12 95,. IMPOTS,Oum El Bouaghi,FALSE
618,"OUM EL BOUAGHI,Cite Essaada 1,Oum El Bouaghi",35.8688789,7.1108266,032 55 06 72  - 032 55 08 08,. IMPOTS,Oum El Bouaghi,FALSE
619,"OUM EL BOUAGHI,Direction Protection Civil,Oum El Bouaghi",35.8793349,7.0967446,32563731,. IMPOTS,Oum El Bouaghi,FALSE
620,"OUM EL BOUAGHI,Oum El Bouaghi,Oum El Bouaghi",35.8688789,7.1108266,032 55 12 76  - 032 55 12 78,. IMPOTS,Oum El Bouaghi,FALSE
621,"OUM EL BOUAGHI,Rte Constantine,Oum El Bouaghi",35.8688789,7.1108266,32563454,. IMPOTS,Oum El Bouaghi,FALSE
622,"OUM EL BOUAGHI,Rte Khenchela,Oum El Bouaghi",35.8688789,7.1108266,032 55 05 62  - 032 55 06 36  - 032 55 90 05  - 032 55 90 06  - 032 55 90 11,. IMPOTS,Oum El Bouaghi,FALSE
623,"OUM EL BOUAGHI,Rue Houari Boumediene,Oum El Bouaghi",35.8678614,7.1040438,32549324,. IMPOTS,Oum El Bouaghi,FALSE
624,"OUM EL BOUAGHI,Siege D'impots Nouvelle Ville,Oum El Bouaghi",35.8716117,7.0966741,32541692,. IMPOTS,Oum El Bouaghi,FALSE
625,"OURLAL,OURLAL,Biskra",34.655656,5.5128952,33570304,. DIRECTION DES IMPOTS,Biskra,FALSE
626,"OUZERA,Centre Ville,Medea",36.2535149,2.8450098,025 79 71 75  - 025 79 72 59  - 025 79 77 34  - 025 79 77 45,. IMPOTS Direction,Medea,FALSE
627,"POLYCLINIQUE,CONSTANTINE,Polyclinique,Constantine",36.3572319,6.5982821,031 62 31 22  - 031 62 77 78,Ispection Divisionnaires IMPOTS,Constantine,FALSE
628,"PTT,SIDI OKBA,Route Nationale N°83,Biskra",34.7505874,5.9084077,33646279,. DIRECTION DES IMPOTS,Biskra,FALSE
629,"RAMDANE DJAMEL,Rue Bachir Boukadoum,Skikda",36.8717207,6.908597,038 94 11 29  - 038 94 12 02,. IMPOTS,Skikda,FALSE
630,"RAS EL AIOUN,Centre Ville,Batna",35.681438,5.6545312,33372757,Batna DIRECTION DES IMPOTS,Batna,FALSE
631,"RAS EL OUED,Cite Des Jardins,Bordj Bou Arreridj",35.9402582,5.0283213,035 63 42 03  - 035 63 42 21  - 035 63 43 03  - 035 63 43 14  - 035 63 43 41,. DIRECTION DES IMPOTS,Bordj Bou Arreridj,FALSE
632,"REMCHI,Cité 335 Logements,Tlemcen",35.064069,-1.42638,043 43 01 84  - 043 43 02 13  - 043 43 02 24  - 043 43 02 29  - 043 43 02 84  - 043 43 03 04  - 043 43 03 07,. IMPOTS Direction,Tlemcen,FALSE
633,"ROBBAH,Robbah,El Oued",33.2912663,6.9084817,032 10 51 73  - 032 10 54 05,. DIRECTION DES IMPOTS,El Oued,FALSE
634,"ROUIBA,Ave 1er Novembre,Alger",36.7869313,3.063122,023 86 27 99  - 023 86 28 00,. La Direction des Impots d'Alger Est..,Alger,FALSE
635,"ROUIBA,Lot Communal,Alger",36.7358928,3.2779879,23862805,. La Direction des Impots d'Alger Est.,Alger,FALSE
636,"ROUIBA,Lot Du Lycee,Alger",36.7348388,3.2659727,023 86 28 01  - 023 86 28 02  - 023 86 28 03  - 023 86 28 04  - 023 86 28 06  - 023 86 29 30  - 023 86 30 75,. La Direction des Impots d 'Alger Est,Alger,FALSE
637,"ROUIBA,Rte de Ain Taya,Alger",36.7634342,3.2875382,023 71 61 07  - 023 71 61 08  - 023 71 61 09  - 023 71 61 10  - 023 71 61 12  - 023 71 61 13  - 023 71 61 14  - 023 71 61 24  - 023 71 61 53  - 023 71 61 53,.... La Direction des Impots d'Alger Est,Alger,FALSE
638,"SAOULA,Rue du Stade,Alger",36.7047315,3.0214202,21356575,Inspection IMPOTS,Alger,FALSE
639,"SEDRATA,Cite 80 Logts,Souk Ahras",36.1345249,7.5297476,37872136,. IMPOTS Direction,Souk Ahras,FALSE
640,"SEDRATA,Route Ain El Baida,Souk Ahras",36.1345249,7.5297476,037 87 67 54  - 037 87 67 56  - 037 87 67 57  - 037 87 67 60,. IMPOTS Direction,Souk Ahras,FALSE
641,"SEDRATA,Rue 1er Novembre,Souk Ahras",36.1345249,7.5297476,37776744,. IMPOTS Direction,Souk Ahras,FALSE
642,"SETIF,Cite 140 Logts,Setif",36.1897593,5.4107984,36825363,. IMPOTS DIRECTION Org,Setif,FALSE
643,"SETIF,Cite El Hidhab,Setif",36.2092047,5.4319238,036 45 30 07  - 036 63 52 39  - 036 63 52 42  - 036 63 52 43  - 036 63 52 60  - 036 63 52 61  - 036 63 52 62  - 036 63 52 63  - 036 63 52 64  - 036 63 52 65,. IMPOTS DIRECTION Org,Setif,FALSE
644,"SETIF,Lotissement Ain El Mousse,Setif",36.1893743,5.4049596,036 54 71 16  - 036 54 78 36  - 036 54 78 37  - 036 54 78 38  - 036 54 78 39  - 036 54 78 77,. IMPOTS DIRECTION Org,Setif,FALSE
645,"SETIF,Rue Ben Touhami,Setif",36.1931401,5.4313948,036 82 68 88  - 036 82 68 97  - 036 82 73 64,. IMPOTS DIRECTION Org,Setif,FALSE
646,"SETIF,Rue Cherraga Laid,Setif",36.1879831,5.4127364,36827470,. IMPOTS DIRECTION Org,Setif,FALSE
647,"SETIF,Rue Mokrani El Hadj,Setif",36.1922119,5.4267626,036 63 52 40  - 036 82 60 20  - 036 82 68 87  - 036 82 68 94  - 036 82 69 01  - 036 82 69 02,. IMPOTS DIRECTION Org,Setif,FALSE
648,"SETIF,Rue Tergou Foudil,Setif",36.1927482,5.4110374,036 82 68 95  - 036 82 68 96,. IMPOTS DIRECTION Org,Setif,FALSE
649,"SIDI AICH,Rue Hadjout Said,Bejaia",36.6097178,4.6901722,34860388,. IMPOTS Recette Contributions Divers,Bejaia,FALSE
650,"SIDI AISSA,Boulevard De L'Independance,MSila",35.885157,3.774373,35406801,. IMPOTS RECETTE DES CONTRIBUTION DIVERSES,MSila,FALSE
651,"SIDI AISSA,Route Nal N° 8,MSila",35.885157,3.774373,35406800,. IMPOTS RECETTE DES CONTRIBUTION DIVERSES,MSila,FALSE
652,"SIDI AKKACHA,Chlef",36.4625212,1.3020848,027 76 03 42  - 027 76 06 18,Direction IMPOTS,Chlef,FALSE
653,"SIDI AKKACHA,Sidi Akacha,Chlef",36.4625212,1.3020848,27760116,Direction IMPOTS,Chlef,FALSE
654,"SIDI ALI,Cité Cheikh Djillali,Mostaganem",36.1008532,0.4220044,045 45 10 62  - 045 45 10 63  - 045 45 10 65  - 045 45 10 70  - 045 45 10 71  - 045 45 10 72  - 045 45 10 73  - 045 45 10 74  - 045 45 10 75,. IMPOTS Direction,Mostaganem,FALSE
655,"SIDI CHAMI,Sidi Chahmi,Oran",35.6570607,-0.5214197,41279130,. IMPOTS Direction Ouest,Oran,FALSE
656,"SIDI KHALED,Rue Hani Mohamed,Biskra",34.397074,4.9970929,33679805,. DIRECTION DES IMPOTS,Biskra,FALSE
657,"SIDI KHALED,Sidi Khaled,Biskra",34.397074,4.9970929,033 67 98 03  - 033 67 98 04  - 033 67 98 23  - 033 67 98 26  - 033 67 98 30,. DIRECTION DES IMPOTS,Biskra,FALSE
658,"SIDI M'HAMED,Place Du Perou,Alger",36.7697009,3.0570504,021 71 01 51  - 021 71 38 46  - 021 71 38 66  - 021 71 38 72  - 021 71 38 73  - 021 71 91 60  - 021 71 98 11  - 021 74 53 71,. DIRECTION DES IMPOTS D'ALGER OUEST,Alger,FALSE
659,"SIDI M'HAMED,Rue Colonel Mohamed Chabani,Alger",36.7644669,3.051774,021 64 72 26  - 021 73 40 82,Sous Direction des Impots Directes DIRECTION DES IMPOTS,Alger,FALSE
660,"SIDI M'HAMED,Rue Rabah Maidat,Alger",36.753768,3.0587561,21647227,Sous Direction des Impots Directes DIRECTION DES IMPOTS,Alger,FALSE
661,"SIDI MOUSSA,Place Centre Ville,Alger",36.6165787,3.1032114,23909534,. IMPOTS Direction Générale,Alger,FALSE
662,"SIDI OKBA,Cité 134 logts,Biskra",34.7505874,5.9084077,33510453,. DIRECTION DES IMPOTS,Biskra,FALSE
663,"SIDI OKBA,Cité 80 Logts,Biskra",34.7505874,5.9084077,33640049,. DIRECTION DES IMPOTS,Biskra,FALSE
664,"SIG,Cité Administratif(Pole 1),Mascara",35.5313614,-0.1894458,045 64 77 48  - 045 64 77 65  - 045 64 77 70  - 045 64 79 36,C.P.I .SIG CENTRE DE PROXIMITE DES IMPOTTS,Mascara,FALSE
665,"SKIKDA,Allee Du 20 Aout,Skikda",36.8713246,6.9124453,038 76 36 60  - 038 76 36 76  - 038 76 36 77  - 038 76 36 82,. IMPOTS,Skikda,FALSE
666,"SKIKDA,Avenue Houari Boumediene,Skikda",36.8611789,6.9188158,038 74 70 17  - 038 74 70 18  - 038 74 70 19  - 038 74 70 21  - 038 74 70 22  - 038 74 70 23,. CENTRE DE PROXIMITE DES IMPOTS,Skikda,FALSE
667,"SKIKDA,Cite Aissa Boukarma Ex Sicel,Skikda",36.8591495,6.9039013,38747339,. CENTRE DE PROXIMITE DES IMPOTS,Skikda,FALSE
668,"SKIKDA,Cite Freres Saadi EX 1000 Logt,Skikda",36.8707344,6.9159129,038 75 20 43  - 038 75 49 77  - 038 75 61 47  - 038 75 65 35  - 038 76 36 81  - 038 76 39 78  - 038 76 56 53  - 038 76 59 80  - 038 95 15 71  - 038 95 15 72  - 038 95 15 73  - 038 95 15 74  - 038 95 15 75,. IMPOTS,Skikda,FALSE
669,"SKIKDA,Cite Merdj Eddib(Freres Bouhad,Skikda",36.8633237,6.9271912,038 72 45 49  - 038 72 45 51  - 038 72 45 52  - 038 72 45 53  - 038 72 45 54  - 038 72 45 56  - 038 72 45 58,. CENTRE DES IMPOTS,Skikda,FALSE
670,"SKIKDA,Place 24 Fevrier Ex Zouaves,Skikda",36.8662658,6.9062556,38755540,. IMPOTS,Skikda,FALSE
671,"SKIKDA,Place Des Zouaves,Skikda",36.8662658,6.9062556,38753611,. IMPOTS,Skikda,FALSE
672,"SKIKDA,Rue Mahmoud Bouzabra,Skikda",36.8796509,6.9147479,38752964,. IMPOTS,Skikda,FALSE
673,"SONALGAZ,SEDRATA,Cite Salah Soufi,Souk Ahras",36.1345249,7.5297476,37872592,. IMPOTS Direction,Souk Ahras,FALSE
674,"SOUAGUI,Centre Ville,Medea",36.1257527,3.2661273,25750104,. IMPOTS Recette des Contributions Diverses,Medea,FALSE
675,"SOUK AHRAS,Boulevard 1 ER Novembre,Souk Ahras",36.2801062,7.9384033,037 71 84 57  - 037 73 10 20  - 037 73 10 21  - 037 73 10 22  - 037 73 10 23  - 037 73 10 25  - 037 73 10 27  - 037 73 12 29  - 037 73 16 93  - 037 78 13 82  - 037 83 52 93  - 037 83 52 94,. IMPOTS Direction,Souk Ahras,FALSE
676,"SOUK AHRAS,Cite Zac,Souk Ahras",36.2720917,7.942443,037 71 54 83  - 037 71 55 59,. IMPOTS Direction,Souk Ahras,FALSE
677,"SOUK AHRAS,Route National N°16,Souk Ahras",36.2801062,7.9384033,037 76 82 24  - 037 76 82 25  - 037 76 82 26  - 037 76 84 01,. IMPOTS Direction,Souk Ahras,FALSE
678,"SOUK EL TENINE,Souk El Tenine ( Centre ),Bejaia",36.6279732,5.3351901,034 84 71 56  - 034 84 71 71,. IMPOTS Recette Contributions Divers,Bejaia,FALSE
679,"SOUR EL GHOZLANE,Sour El Ghozlane,Bouira",36.1508804,3.7074189,26756324,. IMPOT,Bouira,FALSE
680,"SOUR EL GHOZLANE,Technicum,Bouira",36.374484,3.8837888,026 75 62 20  - 026 75 62 22  - 026 75 63 91,. IMPOT,Bouira,FALSE
681,"STAOUALI,Rue Hadjri Ahmed,Alger",36.7711625,3.0297249,21393347,. DIRECTION DES IMPOTS,Alger,FALSE
682,"STIDIA,Rue Si Merouane,Mostaganem",35.8292399,-0.0043672,45432160,. IMPOTS Direction,Mostaganem,FALSE
683,"SURETE DAIRA,BORDJ MENAIEL,Rue Ziane Lounes,Boumerdes",36.7478935,3.7193006,24785015,. IMPOTS Direction,Boumerdes,FALSE
684,"SURETE,TAOURA,Nouveau Pole Administratif,Souk Ahras",36.16667,8.0357365,37781379,. IMPOTS Direction,Souk Ahras,FALSE
685,"TABLAT,Centre Ville,Medea",36.4131818,3.3110706,025 72 55 48  - 025 72 55 71,. IMPOTS Direction,Medea,FALSE
686,"TABLAT,Rue Mohamed Boukhalfa,Medea",36.4125063,3.3106774,25711237,. IMPOTS Direction,Medea,FALSE
687,"TABLAT,Rue de la Palestine,Medea",36.4131818,3.3110706,025 71 11 45  - 025 71 12 10  - 025 71 12 50,. IMPOTS Direction,Medea,FALSE
688,"TADJENANET,Route National N° 5,Mila",36.1218328,5.9852421,31403737,. IMPOTS Direction,Mila,FALSE
689,"TADJMOUT,Cité TADJMOUT,Laghouat",33.8806065,2.5261564,029 13 60 73  - 029 13 65 69  - 029 13 65 74,. IMPOTS Direction,Laghouat,FALSE
690,"TAHER,Cite 160 Logts,Jijel",36.7700786,5.8978148,034 54 02 44  - 034 54 03 99,. IMPOTS Direction,Jijel,FALSE
691,"TAHER,Cité Boucherka,Jijel",36.7843567,5.9009836,34546206,. IMPOTS Direction,Jijel,FALSE
692,"TAHER,Rue Gare Routiere,Jijel",36.7770842,5.8964863,34553978,. IMPOTS Direction,Jijel,FALSE
693,"TAIBET,Cité 50 logements,Ouargla",33.100756,6.4134658,29611785,. IMPOTS,Ouargla,FALSE
694,"TAMANRASSET,Hai TAFSIT,Tamanrasset",23.0676952,6.2354407,29326549,. IMPOTS Direction,Tamanrasset,FALSE
695,"TAMANRASSET,Route IN GUEZZAM,Tamanrasset",19.5632255,5.7717952,029 31 27 12  - 029 32 61 65  - 029 32 61 66  - 029 32 61 67  - 029 32 61 69  - 029 32 61 70  - 029 32 61 71  - 029 32 61 72  - 029 32 61 73  - 029 32 61 75  - 029 32 61 76  - 029 32 61 77  - 029 32 61 78  - 029 32 61 80  - 029 32 65 50  - 029 32 65 52  - 029 32 65 53,. IMPOTS Direction,Tamanrasset,FALSE
696,"TAMANRASSET,Route de IN GUEZZAM,Tamanrasset",19.5632255,5.7717952,29326179,TAMANRASSET RECETTE DES IMPOTS,Tamanrasset,FALSE
697,"TAOURA,Souk Ahras",36.16667,8.0357365,37781039,. IMPOTS Direction,Souk Ahras,FALSE
698,"TAOURA,Taoura,Souk Ahras",36.16667,8.0357365,37781405,. IMPOTS Direction,Souk Ahras,FALSE
699,"TAZMALT,Bejaia",36.3903818,4.3954971,34311353,. IMPOTS Recette Contributions Divers,Bejaia,FALSE
700,"TAZMALT,Boulevard Mira Abderahmane,Bejaia",36.3903818,4.3954971,034 31 71 50  - 034 31 71 51,. IMPOTS Recette Contributions Divers,Bejaia,FALSE
701,"TAZMALT,Centre Ville Tazmalt,Bejaia",36.3903818,4.3954971,34317154,. IMPOTS Recette Contributions Divers,Bejaia,FALSE
702,"TAZMALT,Tazmalt,Bejaia",36.3903818,4.3954971,34314324,. IMPOTS Recette Contributions Divers,Bejaia,FALSE
703,"TAZOULT,Cité 200 Logts,Batna",35.6320745,5.9131539,33321408,Batna DIRECTION DES IMPOTS,Batna,FALSE
704,"TEBESSA,Boulevard Emir Abdelkader,Tebessa",35.4073705,8.1133914,037 48 04 64  - 037 51 66 97  - 037 56 25 05  - 037 56 52 11  - 037 56 52 42  - 037 56 54 37  - 037 58 12 32,. IMPOTS DIRECTION TEBESSA,Tebessa,FALSE
705,"TEBESSA,Cité 580 Logts Houari Boumedie,Tebessa",35.4010797,8.1172958,037 51 50 04  - 037 51 50 06  - 037 51 60 68  - 037 51 66 85  - 037 51 66 90  - 037 51 66 91  - 037 51 66 94  - 037 51 66 95  - 037 51 66 99  - 037 59 21 80,. IMPOTS DIRECTION TEBESSA,Tebessa,FALSE
706,"TEBESSA,Hotel des Finances,Tebessa",35.425515,8.068632,037 51 60 76  - 037 51 66 88  - 037 56 54 32  - 037 56 54 41,. IMPOTS DIRECTION TEBESSA,Tebessa,FALSE
707,"TEBESSA,Route El Kouif,Tebessa",35.4010797,8.1172958,37565256,. IMPOTS DIRECTION TEBESSA,Tebessa,FALSE
708,"TELERGHMA,Cite 111 Logts,Mila",36.1166268,6.355588,031 40 50 52  - 031 40 50 53,. IMPOTS Direction,Mila,FALSE
709,"TENES,Rue Cousin Koubili,Chlef",36.5081163,1.3078225,27767419,Direction IMPOTS,Chlef,FALSE
710,"TENES,Tenes,Chlef",36.5081163,1.3078225,027 76 61 72  - 027 76 71 66  - 027 76 71 94,Direction IMPOTS,Chlef,FALSE
711,"TENIET EL ABED,Cite 76 Logts,Batna",35.2835021,6.2507268,33341153,Batna DIRECTION DES IMPOTS,Batna,FALSE
712,"TENIET EL ABED,Cite Draa Taga,Batna",35.2835021,6.2507268,033 34 10 22  - 033 34 10 29  - 033 34 11 40,. RECETTE DES IMPOTS TENIET ELABED,Batna,FALSE
713,"TEXENNA,Rue de l'ALN,Jijel",36.659857,5.7887042,34551149,. IMPOTS Direction,Jijel,FALSE
714,"TEXENNA,Village Texenna,Jijel",36.659857,5.7887042,034 55 11 70  - 034 55 11 92,. IMPOTS Direction,Jijel,FALSE
715,"THENIA,Rue Benhamadache Said,Boumerdes",36.7250779,3.5566369,024 96 60 99  - 024 96 61 01,. IMPOTS Direction,Boumerdes,FALSE
716,"TICHY,Boulevard Principal de Tichy,Bejaia",36.6550461,5.1638936,34815276,. IMPOTS Recette Contributions Divers,Bejaia,FALSE
717,"TIGZIRT,Centre Ville,Tizi Ouzou",36.8919195,4.129222,026 15 82 65  - 026 15 82 68,. DIRECTION DES IMPOTS,Tizi Ouzou,FALSE
718,"TIPAZA,Cité Administrative,Tipaza",36.5899026,2.4563657,024 37 64 72  - 024 37 64 74  - 024 37 64 98  - 024 37 66 63  - 024 37 66 70  - 024 37 66 71  - 024 37 67 02,. IMPOTS DIRECTION DE TIPAZA,Tipaza,FALSE
719,"TIPAZA,Route De La Wilaya,Tipaza",36.546265,2.1843285,024 37 67 03  - 024 37 67 04  - 024 37 67 06,DIRECTION IMPOTS,Tipaza,FALSE
720,"TIZI OUZOU,Avenue Abane Ramdane,Tizi Ouzou",36.7114351,4.0526247,026 12 31 47  - 026 12 31 64,. DIRECTION DES IMPOTS,Tizi Ouzou,FALSE
721,"TIZI OUZOU,Boulevard Krim Belkacem,Tizi Ouzou",36.702535,4.0598459,026 11 71 54  - 026 12 31 22  - 026 12 31 56,. DIRECTION DES IMPOTS,Tizi Ouzou,FALSE
722,"TIZI OUZOU,Cite 60 Logts Tours Villa,Tizi Ouzou",36.715907,4.0442389,026 12 31 24  - 026 12 31 38  - 026 12 31 39  - 026 12 31 41  - 026 12 31 42  - 026 12 31 46  - 026 12 31 54  - 026 12 31 55  - 026 12 31 60  - 026 12 31 70  - 026 19 61 99,. DIRECTION DES IMPOTS,Tizi Ouzou,FALSE
723,"TIZI OUZOU,Cite Mouloud Feraoun,Tizi Ouzou",36.717083,4.0525043,026 11 00 04  - 026 11 02 50  - 026 11 58 67  - 026 12 31 51,. DIRECTION DES IMPOTS,Tizi Ouzou,FALSE
724,"TIZI OUZOU,Cité 60 Logements Tours Villas,Tizi Ouzou",36.7156028,4.0408071,26123153,. DIRECTION DES IMPOTS,Tizi Ouzou,FALSE
725,"TIZI OUZOU,Cité Mohamed Boudiaf Tizi-ouzo,Tizi Ouzou",36.713548,4.0473075,026 18 23 29  - 026 20 21 55,. DIRECTION DES IMPOTS,Tizi Ouzou,FALSE
