{
"type": "FeatureCollection",
"name": "caat_reasau",
"crs": { "type": "name", "properties": { "name": "urn:ogc:def:crs:OGC:1.3:CRS84" } },
"features": [
{ "type": "Feature", "properties": { "Name": "101 - Agence AMIROUCHE", "description": "BENKANOUN Redouane\n", "TEL": "023 - 50.34.53" }, "geometry": { "type": "Point", "coordinates": [ 3.0586084, 36.7710322, 0.0 ] } },
{ "type": "Feature", "properties": { "Name": "106 - Agence DOCTEUR SAADANE", "description": "HAIF SI HAIF Abdelwahab\n", "TEL": "" }, "geometry": { "type": "Point", "coordinates": [ 3.0568673, 36.7736041, 0.0 ] } },
{ "type": "Feature", "properties": { "Name": "102 - Agence HASSIBA BEN BOUALI\n", "description": "OURARI Karim\n", "TEL": "" }, "geometry": { "type": "Point", "coordinates": [ 3.0615061, 36.7591483, 0.0 ] } },
{ "type": "Feature", "properties": { "Name": "103 - Agence IBN HAZIM\n", "description": "BOUZIANI Hamid\n", "TEL": "" }, "geometry": { "type": "Point", "coordinates": [ 3.0474481, 36.7641023, 0.0 ] } },
{ "type": "Feature", "properties": { "Name": "104 - Agence LARBI BEN M'HIDI\n", "description": "BOUKHALFA Toufik\n", "TEL": "" }, "geometry": { "type": "Point", "coordinates": [ 3.0580424, 36.7773368, 0.0 ] } },
{ "type": "Feature", "properties": { "Name": "105 - Agence DIDOUCHE MOURAD\n", "description": "MESSI Badia\n", "TEL": "" }, "geometry": { "type": "Point", "coordinates": [ 3.0532847, 36.7671338, 0.0 ] } },
{ "type": "Feature", "properties": { "Name": "108 - Agence EL BIAR\n", "description": "GOUMIRI Nesrine\n", "TEL": "" }, "geometry": { "type": "Point", "coordinates": [ 3.0363399, 36.760853, 0.0 ] } },
{ "type": "Feature", "properties": { "Name": "109 - Agence BAB EL OUED\n", "description": "SAID Djamel\n", "TEL": "" }, "geometry": { "type": "Point", "coordinates": [ 3.0511671, 36.7906062, 0.0 ] } },
{ "type": "Feature", "properties": { "Name": "501 - Agence ALGER ( Sous-Agence)\n", "description": "RIANE Abdelkader\n", "TEL": "" }, "geometry": { "type": "Point", "coordinates": [ 3.0488434, 36.727149, 0.0 ] } },
{ "type": "Feature", "properties": { "Name": "141 - Agence PINS MARITIMES I\n", "description": "BOUAOUNE Hamoud\n", "TEL": "" }, "geometry": { "type": "Point", "coordinates": [ 3.1566328, 36.7335073, 0.0 ] } },
{ "type": "Feature", "properties": { "Name": "142 - Agence Tizi-Ouzou I\n", "description": "AKBAL EPSE SEKHI BAYA\n", "TEL": "" }, "geometry": { "type": "Point", "coordinates": [ 4.0517169, 36.7118213, 0.0 ] } },
{ "type": "Feature", "properties": { "Name": "143 - Agence BOUIRA\n", "description": "AKLIOUCHE Said\n", "TEL": "" }, "geometry": { "type": "Point", "coordinates": [ 3.9015704, 36.3778762, 0.0 ] } },
{ "type": "Feature", "properties": { "Name": "144 - Agence BORDJ MENAIEL\n", "description": "NAIT Ali Med\n", "TEL": "" }, "geometry": { "type": "Point", "coordinates": [ 3.7199884, 36.7420526, 0.0 ] } },
{ "type": "Feature", "properties": { "Name": "145 - Agence ROUIBA\n", "description": "EL OUAHAB Madjid\n", "TEL": "" }, "geometry": { "type": "Point", "coordinates": [ 3.2828807, 36.7274569, 0.0 ] } },
{ "type": "Feature", "properties": { "Name": "146 - Agence GARIDI\n", "description": "BOUCHETOUT Nabil\n", "TEL": "" }, "geometry": { "type": "Point", "coordinates": [ 3.0695159, 36.7252238, 0.0 ] } },
{ "type": "Feature", "properties": { "Name": "147 - Agence DAR EL BEIDA\n", "description": "LAHOUCIN Leyes\n", "TEL": "" }, "geometry": { "type": "Point", "coordinates": [ 3.1989651, 36.7165124, 0.0 ] } },
{ "type": "Feature", "properties": { "Name": "148 - Agence AZAZGA\n", "description": "OUANDJELI Ali\n", "TEL": "" }, "geometry": { "type": "Point", "coordinates": [ 4.3667907, 36.7343859, 0.0 ] } },
{ "type": "Feature", "properties": { "Name": "149 - Agence BOUMERDES\n", "description": "ALAM Ahmed\n", "TEL": "" }, "geometry": { "type": "Point", "coordinates": [ 3.457099, 36.754934, 0.0 ] } },
{ "type": "Feature", "properties": { "Name": "150 - Agence Tizi-Ouzou II\n", "description": "LALAMI Fadila\n", "TEL": "" }, "geometry": { "type": "Point", "coordinates": [ 4.0498205, 36.7118125, 0.0 ] } },
{ "type": "Feature", "properties": { "Name": "152 - Agence LARBAA NATH IRATHEN", "description": "MELLAL Hanafi\n", "TEL": "" }, "geometry": { "type": "Point", "coordinates": [ 4.2040933, 36.6372932, 0.0 ] } },
{ "type": "Feature", "properties": { "Name": "153 - Agence AIN NAADJA\n", "description": "RABIA Ismahane\n", "TEL": "" }, "geometry": { "type": "Point", "coordinates": [ 3.0851573, 36.7132822, 0.0 ] } },
{ "type": "Feature", "properties": { "Name": "502 - Agence TIZIOUZOU (Sous-Agence)\n", "description": "ALEM Rabah\n", "TEL": "" }, "geometry": { "type": "Point", "coordinates": [ 3.7760446, 36.5888512, 0.0 ] } },
{ "type": "Feature", "properties": { "Name": "407 - Agent général d'assurance TIZIOUZOU\n", "description": "MITICHE Aissa\n", "TEL": "" }, "geometry": { "type": "Point", "coordinates": [ 3.9558753, 36.5410545, 0.0 ] } },
{ "type": "Feature", "properties": { "Name": "409 - Agence BOUIRA\n", "description": "AKLI Amrane\n", "TEL": "" }, "geometry": { "type": "Point", "coordinates": [ 3.2823657, 36.7177913, 0.0 ] } },
{ "type": "Feature", "properties": { "Name": "504 - Agence BOUIRA (Sous-Agence)\n", "description": "AKLI Amrane\n", "TEL": "" }, "geometry": { "type": "Point", "coordinates": [ 3.8832559, 36.3706932, 0.0 ] } },
{ "type": "Feature", "properties": { "Name": "463 - Agence AIN BESSAM", "description": "BENTOUNES Abdelkrim\n", "TEL": "" }, "geometry": { "type": "Point", "coordinates": [ 3.7232005, 36.4002383, 0.0 ] } },
{ "type": "Feature", "properties": { "Name": "181 - Agence HYDRA\n", "description": "REZAK Rachid\n", "TEL": "" }, "geometry": { "type": "Point", "coordinates": [ 3.029045, 36.755041, 0.0 ] } },
{ "type": "Feature", "properties": { "Name": "182 - Agence BELOUIZDAD\n", "description": "AIT ABBI Ramdane\n", "TEL": "" }, "geometry": { "type": "Point", "coordinates": [ 3.0644184, 36.7549301, 0.0 ] } },
{ "type": "Feature", "properties": { "Name": "184 - Agence HUSSEIN DEY\n", "description": "SELLAMI Taoues\n", "TEL": "" }, "geometry": { "type": "Point", "coordinates": [ 3.0941733, 36.7415599, 0.0 ] } },
{ "type": "Feature", "properties": { "Name": "185 - Agence KHEMIS MILIANA\n", "description": "BOUMEDIENE Ahmed\n", "TEL": "" }, "geometry": { "type": "Point", "coordinates": [ 2.2138289, 36.2535274, 0.0 ] } },
{ "type": "Feature", "properties": { "Name": "193 - Agence AIN DEFLA\n", "description": "KHELLAS Houari\n", "TEL": "" }, "geometry": { "type": "Point", "coordinates": [ 2.2343122, 36.2610206, 0.0 ] } },
{ "type": "Feature", "properties": { "Name": "186 - Agence MEDEA\n", "description": "AOUADI Belkacem\n", "TEL": "" }, "geometry": { "type": "Point", "coordinates": [ 2.7680247, 36.2853847, 0.0 ] } },
{ "type": "Feature", "properties": { "Name": "187 - Agence BLIDA II\n", "description": "ABDERRAHIM Nadir\n", "TEL": "" }, "geometry": { "type": "Point", "coordinates": [ 2.8513294, 36.4957304, 0.0 ] } },
{ "type": "Feature", "properties": { "Name": "188 - Agence BLIDA I\n", "description": "KAOUANE Badia\n", "TEL": "" }, "geometry": { "type": "Point", "coordinates": [ 2.8332963, 36.4812038, 0.0 ] } },
{ "type": "Feature", "properties": { "Name": "189 - Agence RIADH EL FETH\n", "description": "BOUKAKIOU Rachid\n", "TEL": "" }, "geometry": { "type": "Point", "coordinates": [ 3.0701347, 36.7429079, 0.0 ] } },
{ "type": "Feature", "properties": { "Name": "190 - Agence STAOUELI\n", "description": "TARI Sid Ali\n", "TEL": "" }, "geometry": { "type": "Point", "coordinates": [ 2.8881795, 36.7516507, 0.0 ] } },
{ "type": "Feature", "properties": { "Name": "192 - Agence BIR-MOURAD-RAIS\n", "description": "MECID Salim\n", "TEL": "" }, "geometry": { "type": "Point", "coordinates": [ 3.0526199, 36.7396351, 0.0 ] } },
{ "type": "Feature", "properties": { "Name": "194 - Agence BENI MESSOUS\n", "description": "TIBAOUI Ahmed Chawki\n", "TEL": "" }, "geometry": { "type": "Point", "coordinates": [ 2.9951042, 36.7730297, 0.0 ] } },
{ "type": "Feature", "properties": { "Name": "196 - Agence ZERALDA\n", "description": "HAZEM Fatima\n", "TEL": "" }, "geometry": { "type": "Point", "coordinates": [ 2.8277963, 36.6946148, 0.0 ] } },
{ "type": "Feature", "properties": { "Name": "195 - Agence TIPAZA\n", "description": "ATIL Hamid\n", "TEL": "" }, "geometry": { "type": "Point", "coordinates": [ 2.7676178, 36.6365755, 0.0 ] } },
{ "type": "Feature", "properties": { "Name": "415 - Agence MEDEA\n", "description": "ALLEL Fayçal\n", "TEL": "" }, "geometry": { "type": "Point", "coordinates": [ 2.760003, 36.266205, 0.0 ] } },
{ "type": "Feature", "properties": { "Name": "508 - Agence MEDEA ( Sous-Agence)\n", "description": "ALLEL Fayçal\n", "TEL": "" }, "geometry": { "type": "Point", "coordinates": [ 2.9175955, 36.1625653, 0.0 ] } },
{ "type": "Feature", "properties": { "Name": "419 - Agence DRARIA\n", "description": "KOUIDRI Djilani\n", "TEL": "" }, "geometry": { "type": "Point", "coordinates": [ 2.9999866, 36.7128136, 0.0 ] } },
{ "type": "Feature", "properties": { "Name": "421 - Agence HUSSEIN DEY\n", "description": "BOUSSADIA Aomar\n", "TEL": "" }, "geometry": { "type": "Point", "coordinates": [ 3.0970509, 36.7433189, 0.0 ] } },
{ "type": "Feature", "properties": { "Name": "460 - Agence BLIDA\n", "description": "AIT MOHAND NOURDINE\n", "TEL": "" }, "geometry": { "type": "Point", "coordinates": [ 2.8297576, 36.4757929, 0.0 ] } },
{ "type": "Feature", "properties": { "Name": "469 - Agence EL BIAR\n", "description": "LEFILEF Malika epouse AISANI\n", "TEL": "" }, "geometry": { "type": "Point", "coordinates": [ 3.0309946, 36.7690092, 0.0 ] } },
{ "type": "Feature", "properties": { "Name": "477 - Agence BABA HASSEN\n", "description": "GACEM Sara Rym epose BARAKAT\n", "TEL": "" }, "geometry": { "type": "Point", "coordinates": [ 2.9731072, 36.6943775, 0.0 ] } },
{ "type": "Feature", "properties": { "Name": "260 - Agence ANNABA\n", "description": "SEMAALI Abdelaziz\n", "TEL": "" }, "geometry": { "type": "Point", "coordinates": [ 7.7525352, 36.9264582, 0.0 ] } },
{ "type": "Feature", "properties": { "Name": "261 - Agence ANNABA I\n", "description": "BEN DJEDOU Abdelkader\n", "TEL": "" }, "geometry": { "type": "Point", "coordinates": [ 7.7594858, 36.8999186, 0.0 ] } },
{ "type": "Feature", "properties": { "Name": "262 - Agence SKIKDA I\n", "description": "HADIBY TADJEDDINE\n", "TEL": "" }, "geometry": { "type": "Point", "coordinates": [ 6.9124453, 36.8713246, 0.0 ] } },
{ "type": "Feature", "properties": { "Name": "263 - Agence ANNABA II\n", "description": "NASRI Djamel\n", "TEL": "" }, "geometry": { "type": "Point", "coordinates": [ 7.7508184, 36.9138329, 0.0 ] } },
{ "type": "Feature", "properties": { "Name": "264 - Agence TEBESSA\n", "description": "AIT MEHDI Nadjib\n", "TEL": "" }, "geometry": { "type": "Point", "coordinates": [ 8.101092, 35.4142494, 0.0 ] } },
{ "type": "Feature", "properties": { "Name": "265 - Agence SOUK AHRAS\n", "description": "CHAALANE Abelkrim\n", "TEL": "" }, "geometry": { "type": "Point", "coordinates": [ 7.9483898, 36.2695872, 0.0 ] } },
{ "type": "Feature", "properties": { "Name": "266 - Agence GUELMA\n", "description": "HEZAME ALI\n", "TEL": "" }, "geometry": { "type": "Point", "coordinates": [ 7.4327273, 36.458976, 0.0 ] } },
{ "type": "Feature", "properties": { "Name": "268 - Agence ANNABA III\n", "description": "BENDJEDOU Abdelkader\n", "TEL": "" }, "geometry": { "type": "Point", "coordinates": [ 7.7570255, 36.8999791, 0.0 ] } },
{ "type": "Feature", "properties": { "Name": "269 - Agence EL TARF\n", "description": "TOUHAMI SALAH\n", "TEL": "" }, "geometry": { "type": "Point", "coordinates": [ 8.2212979, 36.7558581, 0.0 ] } },
{ "type": "Feature", "properties": { "Name": "270 - Agence SKIKDA II\n", "description": "KHIROUCHE Moussa\n", "TEL": "" }, "geometry": { "type": "Point", "coordinates": [ 6.9233985, 36.8686361, 0.0 ] } },
{ "type": "Feature", "properties": { "Name": "271 - Agence KHENCHELA\n", "description": "HASSED BOUBEKEUR\n", "TEL": "" }, "geometry": { "type": "Point", "coordinates": [ 7.1364426, 35.4282622, 0.0 ] } },
{ "type": "Feature", "properties": { "Name": "301 - Agence CONSTANTINE I\n", "description": "BELGUEDJ Nadjib\n", "TEL": "" }, "geometry": { "type": "Point", "coordinates": [ 6.6238937, 36.3861363, 0.0 ] } },
{ "type": "Feature", "properties": { "Name": "302 - Agence CONSTANTINE II\n", "description": "BOUBEKEUR Farida\n", "TEL": "" }, "geometry": { "type": "Point", "coordinates": [ 6.5840678, 36.3413546, 0.0 ] } },
{ "type": "Feature", "properties": { "Name": "303 - Agence CONSTANTINE III\n", "description": "ZAAROUR Abdelaziz\n", "TEL": "" }, "geometry": { "type": "Point", "coordinates": [ 6.6843198, 36.3225492, 0.0 ] } },
{ "type": "Feature", "properties": { "Name": "307 - Agence JIJEL\n", "description": "BACHIR Abdelwaheb\n", "TEL": "" }, "geometry": { "type": "Point", "coordinates": [ 5.7680771, 36.8210845, 0.0 ] } },
{ "type": "Feature", "properties": { "Name": "308 - Agence OUM EL BOUAGHI\n", "description": "BENKHERAF MOUNIR\n", "TEL": "" }, "geometry": { "type": "Point", "coordinates": [ 6.5569882, 36.0189518, 0.0 ] } },
{ "type": "Feature", "properties": { "Name": "309 - Agence BATNA I\n", "description": "M'HAMDI Farid\n", "TEL": "" }, "geometry": { "type": "Point", "coordinates": [ 6.1754506, 35.5520756, 0.0 ] } },
{ "type": "Feature", "properties": { "Name": "310 - Agence BARIKA\n", "description": "HOUICHI ABDELHAMID\n", "TEL": "" }, "geometry": { "type": "Point", "coordinates": [ 6.3472881, 35.4925734, 0.0 ] } },
{ "type": "Feature", "properties": { "Name": "311 - Agence BATNA II\n", "description": "AOUFI Djemai\n", "TEL": "" }, "geometry": { "type": "Point", "coordinates": [ 6.1946346, 35.5635366, 0.0 ] } },
{ "type": "Feature", "properties": { "Name": "313 - Agence CHELGHOUM EL AID\n", "description": "BOURENANE Ali\n", "TEL": "" }, "geometry": { "type": "Point", "coordinates": [ 6.195132, 36.1464769, 0.0 ] } },
{ "type": "Feature", "properties": { "Name": "314 - Agence MILA\n", "description": "BENSAYAH Lotfi  \n", "TEL": "" }, "geometry": { "type": "Point", "coordinates": [ 6.2535257, 36.4512301, 0.0 ] } },
{ "type": "Feature", "properties": { "Name": "315 - Agence CONSTANTINE IV\n", "description": "DIF Rabah\n", "TEL": "" }, "geometry": { "type": "Point", "coordinates": [ 6.4989248, 36.4060321, 0.0 ] } },
{ "type": "Feature", "properties": { "Name": "183 - Agence BEJAIA I\n", "description": "LAMRIOU Zahir\n", "TEL": "" }, "geometry": { "type": "Point", "coordinates": [ 5.0588523, 36.7634459, 0.0 ] } },
{ "type": "Feature", "properties": { "Name": "191 - Agence BEJAIA II\n", "description": "KHIARI Mohand Amokrane\n", "TEL": "" }, "geometry": { "type": "Point", "coordinates": [ 5.0699651, 36.752188, 0.0 ] } },
{ "type": "Feature", "properties": { "Name": "304 - Agence SETIF I\n", "description": "BEN ABID Chaouki\n", "TEL": "" }, "geometry": { "type": "Point", "coordinates": [ 5.4150871, 36.1969027, 0.0 ] } },
{ "type": "Feature", "properties": { "Name": "305 - Agence BORDJ BOU ARRERIDJ\n", "description": "ZITOUNI Hocine\n", "TEL": "" }, "geometry": { "type": "Point", "coordinates": [ 4.7615203, 36.0709473, 0.0 ] } },
{ "type": "Feature", "properties": { "Name": "306 - Agence M'SILA\n", "description": "BACHIRI Belkacem\n", "TEL": "" }, "geometry": { "type": "Point", "coordinates": [ 4.2333355, 35.316633, 0.0 ] } },
{ "type": "Feature", "properties": { "Name": "312 - Agence SETIF II\n", "description": "BEN GALIL Razika\n", "TEL": "" }, "geometry": { "type": "Point", "coordinates": [ 5.3594689, 36.1905306, 0.0 ] } },
{ "type": "Feature", "properties": { "Name": "414 - Agence BEJAIA\n", "description": "AZZAR Rachid\n", "TEL": "" }, "geometry": { "type": "Point", "coordinates": [ 4.5276909, 36.4619709, 0.0 ] } },
{ "type": "Feature", "properties": { "Name": "433 - Agence SETIF\n", "description": "NIOUANE Hakouki\n", "TEL": "" }, "geometry": { "type": "Point", "coordinates": [ 5.6830702, 36.1586048, 0.0 ] } },
{ "type": "Feature", "properties": { "Name": "473 - Agence Bordj-Bou-Arreridj\n", "description": "SAKHRAOUI Madani\n", "TEL": "" }, "geometry": { "type": "Point", "coordinates": [ 4.9305155, 35.9824562, 0.0 ] } },
{ "type": "Feature", "properties": { "Name": "221 - Agence ORAN IV\n", "description": "MAZOUZ Fatima Zohra\n", "TEL": "" }, "geometry": { "type": "Point", "coordinates": [ -0.6392962, 35.7011975, 0.0 ] } },
{ "type": "Feature", "properties": { "Name": "239 - Agence ORAN (ES-SENIA ) BSD\n", "description": "MEZIANE Tani Benyounès\n", "TEL": "" }, "geometry": { "type": "Point", "coordinates": [ -0.606133, 35.6202476, 0.0 ] } },
{ "type": "Feature", "properties": { "Name": "222 - Agence ORAN I LOTFI\n", "description": "CHAFI Omar\n", "TEL": "" }, "geometry": { "type": "Point", "coordinates": [ -0.6307988, 35.6970697, 0.0 ] } },
{ "type": "Feature", "properties": { "Name": "224 - Agence MOSTAGANEM\n", "description": "BRIK Karima\n", "TEL": "" }, "geometry": { "type": "Point", "coordinates": [ 0.0867748, 35.9321333, 0.0 ] } },
{ "type": "Feature", "properties": { "Name": "226 - Agence TIARET\n", "description": "MAHDAOUI Belkacem\n", "TEL": "" }, "geometry": { "type": "Point", "coordinates": [ 1.5208624, 34.8529489, 0.0 ] } },
{ "type": "Feature", "properties": { "Name": "228 - Agence RELIZANE\n", "description": "BENKHELIFA Mustapha\n", "TEL": "" }, "geometry": { "type": "Point", "coordinates": [ 0.5588787, 35.7339361, 0.0 ] } },
{ "type": "Feature", "properties": { "Name": "230 - Agence CHLEF\n", "description": "BERREKIA Med Amine\n", "TEL": "" }, "geometry": { "type": "Point", "coordinates": [ 1.2891036, 36.1693515, 0.0 ] } },
{ "type": "Feature", "properties": { "Name": "231 - Agence MASCARA\n", "description": "ZERGAOUI Abderrahim\n", "TEL": "" }, "geometry": { "type": "Point", "coordinates": [ 0.1388446, 35.3974554, 0.0 ] } },
{ "type": "Feature", "properties": { "Name": "232 - Agence ORAN II (LA REMONTE)\n", "description": "BAGHDADI Hind\n", "TEL": "" }, "geometry": { "type": "Point", "coordinates": [ -0.5565147, 35.7477656, 0.0 ] } },
{ "type": "Feature", "properties": { "Name": "242 - Agence ORAN (POR d'Oran) BSD\n", "description": "ADDI Soufiane\n", "TEL": "" }, "geometry": { "type": "Point", "coordinates": [ -0.6061581, 35.7199086, 0.0 ] } },
{ "type": "Feature", "properties": { "Name": "234 - Agence ORAN III\n", "description": "MAZOUZ Fatima Zohra\n", "TEL": "" }, "geometry": { "type": "Point", "coordinates": [ -0.6768042, 35.6616545, 0.0 ] } },
{ "type": "Feature", "properties": { "Name": "237 - Agence MAZOUNA\n", "description": "BERRAHMA Noureddine\n", "TEL": "" }, "geometry": { "type": "Point", "coordinates": [ 0.8686306, 36.121104, 0.0 ] } },
{ "type": "Feature", "properties": { "Name": "238 - Agence OUED RHIOU\n", "description": "BENKHELIFA Mustapha\n", "TEL": "" }, "geometry": { "type": "Point", "coordinates": [ 0.9199773, 35.9607107, 0.0 ] } },
{ "type": "Feature", "properties": { "Name": "233 - Agence ARZEW\n", "description": "Mr AMRI Mokhtar\n", "TEL": "" }, "geometry": { "type": "Point", "coordinates": [ -0.3465971, 35.8602138, 0.0 ] } },
{ "type": "Feature", "properties": { "Name": "349 - Agence BECHAR\n", "description": "CHIADI Mohamed\n", "TEL": "" }, "geometry": { "type": "Point", "coordinates": [ -2.2194864, 31.6167026, 0.0 ] } },
{ "type": "Feature", "properties": { "Name": "424 - Agence TIARET\n", "description": "KHODJA Kadda\n", "TEL": "" }, "geometry": { "type": "Point", "coordinates": [ 1.3156647, 35.3657417, 0.0 ] } },
{ "type": "Feature", "properties": { "Name": "426 - Agence RELIZANE\n", "description": "BELDJILALI Leila\n", "TEL": "" }, "geometry": { "type": "Point", "coordinates": [ 0.538451, 35.7283623, 0.0 ] } },
{ "type": "Feature", "properties": { "Name": "444 - Agence ORAN\n", "description": "FERGOUG Mohamed\n", "TEL": "" }, "geometry": { "type": "Point", "coordinates": [ -0.5375993, 35.7258421, 0.0 ] } },
{ "type": "Feature", "properties": { "Name": "417 - Agence ORAN\n", "description": "ADDA BRAHIM Saliha\n", "TEL": "" }, "geometry": { "type": "Point", "coordinates": [ -0.6478135, 35.6757141, 0.0 ] } },
{ "type": "Feature", "properties": { "Name": "468 - Agence ORAN\n", "description": "MEKRI Mohamed\n", "TEL": "" }, "geometry": { "type": "Point", "coordinates": [ -0.6426601, 35.7032475, 0.0 ] } },
{ "type": "Feature", "properties": { "Name": "260 - Agence TLEMCEN\n", "description": "BOUYAKOUB MOULAY Hocine\n", "TEL": "" }, "geometry": { "type": "Point", "coordinates": [ -1.3180042, 34.8884062, 0.0 ] } },
{ "type": "Feature", "properties": { "Name": "223 - Agence SIDI BEL ABBES l\n", "description": "BENYOUNES Fouad\n", "TEL": "" }, "geometry": { "type": "Point", "coordinates": [ -0.6298922, 35.2022249, 0.0 ] } },
{ "type": "Feature", "properties": { "Name": "225 - Agence TLEMCEN l\n", "description": "ISSAD Ibrahim\n", "TEL": "" }, "geometry": { "type": "Point", "coordinates": [ -1.3268931, 34.8855138, 0.0 ] } },
{ "type": "Feature", "properties": { "Name": "241 - Agence TLEMCEN I (GHAZAOUA) BSD\n", "description": "SEKKAK Tayeb\n", "TEL": "" }, "geometry": { "type": "Point", "coordinates": [ -1.8562218, 35.0962252, 0.0 ] } },
{ "type": "Feature", "properties": { "Name": "227 - Agence SAIDA\n", "description": "", "TEL": "" }, "geometry": { "type": "Point", "coordinates": [ 0.1484305, 34.8412014, 0.0 ] } },
{ "type": "Feature", "properties": { "Name": "229 - Agence AIN TEMOUCHENT\n", "description": "LARADJANE KOUIDER Hakim\n", "TEL": "" }, "geometry": { "type": "Point", "coordinates": [ -1.1427488, 35.3054666, 0.0 ] } },
{ "type": "Feature", "properties": { "Name": "235 - Agence TLEMCEN II\n", "description": "TOUAHRI Abdeltif\n", "TEL": "" }, "geometry": { "type": "Point", "coordinates": [ 8.0534177, 35.4281461, 0.0 ] } },
{ "type": "Feature", "properties": { "Name": "236 - Agence MAGHNIA\n", "description": "TABTI Abdelhalim\n", "TEL": "" }, "geometry": { "type": "Point", "coordinates": [ -1.7349661, 34.8534497, 0.0 ] } },
{ "type": "Feature", "properties": { "Name": "240 - Agence SIDI BEL ABBES II\n", "description": "BELKHEIRA Abdelaziz\n", "TEL": "" }, "geometry": { "type": "Point", "coordinates": [ -0.6472299, 35.1887584, 0.0 ] } },
{ "type": "Feature", "properties": { "Name": "361 - Agence ANNEX SIDI BEL ABBES II\n", "description": "", "TEL": "" }, "geometry": { "type": "Point", "coordinates": [ -0.611498, 35.1937741, 0.0 ] } },
{ "type": "Feature", "properties": { "Name": "362 - Agence NAAMA\n", "description": "BENDEHOU Mohamed\n", "TEL": "" }, "geometry": { "type": "Point", "coordinates": [ -0.9056623, 33.4350615, 0.0 ] } },
{ "type": "Feature", "properties": { "Name": "- Agence EL BAYADH\n", "description": "", "TEL": "" }, "geometry": { "type": "Point", "coordinates": [ 0.6014717, 32.3546679, 0.0 ] } },
{ "type": "Feature", "properties": { "Name": "423 - Agence SAIDA\n", "description": "MEZZOUG Ferhat\n", "TEL": "" }, "geometry": { "type": "Point", "coordinates": [ 0.1702315, 34.8371156, 0.0 ] } },
{ "type": "Feature", "properties": { "Name": "425 - Agence SIDI BEL ABBES\n", "description": "MERFOU BENMOUSSA Ali\n", "TEL": "" }, "geometry": { "type": "Point", "coordinates": [ -0.6240558, 35.2186341, 0.0 ] } },
{ "type": "Feature", "properties": { "Name": "441 - Agence TLEMCEN\n", "description": "BELBACHIR Sidi Mohammed\n", "TEL": "" }, "geometry": { "type": "Point", "coordinates": [ -1.3037562, 34.8767187, 0.0 ] } },
{ "type": "Feature", "properties": { "Name": "466 - Agence TLEMCEN\n", "description": "DAHEUR Fouad\n", "TEL": "" }, "geometry": { "type": "Point", "coordinates": [ -1.3261303, 34.8807225, 0.0 ] } },
{ "type": "Feature", "properties": { "Name": "341 - Agence GHARDAIA\n", "description": "AMMI Moussa Mohamed\n", "TEL": "" }, "geometry": { "type": "Point", "coordinates": [ 3.6408819, 32.5602671, 0.0 ] } },
{ "type": "Feature", "properties": { "Name": "342 - Agence OUARGLA", "description": "BETTAYEB Mustapha", "TEL": "" }, "geometry": { "type": "Point", "coordinates": [ 5.3335236, 31.9526724, 0.0 ] } },
{ "type": "Feature", "properties": { "Name": "343 - Agence DJELFA\n", "description": "BEN DJEKINA Bendekim\n", "TEL": "" }, "geometry": { "type": "Point", "coordinates": [ 3.2503761, 34.6703956, 0.0 ] } },
{ "type": "Feature", "properties": { "Name": "344 - Agence LAGHOUAT\n", "description": "MEKHANET Mustapha\n", "TEL": "" }, "geometry": { "type": "Point", "coordinates": [ 2.8563468, 33.7941971, 0.0 ] } },
{ "type": "Feature", "properties": { "Name": "345 - Agence BOUSAADA\n", "description": "BEN CHABHA Fatiha\n", "TEL": "" }, "geometry": { "type": "Point", "coordinates": [ 4.1794668, 35.2102695, 0.0 ] } },
{ "type": "Feature", "properties": { "Name": "346 - Agence HASSI MESSAOUD\n", "description": "TACHET Mohamed\n", "TEL": "" }, "geometry": { "type": "Point", "coordinates": [ 5.3939551, 30.416772, 0.0 ] } },
{ "type": "Feature", "properties": { "Name": "347 - Agence BISKRA\n", "description": "ZIDANE Khalil\n", "TEL": "" }, "geometry": { "type": "Point", "coordinates": [ 5.726712, 34.858013, 0.0 ] } },
{ "type": "Feature", "properties": { "Name": "348 - Agence EL OUED\n", "description": "ABID Djamel\n", "TEL": "" }, "geometry": { "type": "Point", "coordinates": [ 6.8479682, 33.3713397, 0.0 ] } },
{ "type": "Feature", "properties": { "Name": "350 - Agence TAMANRASSET\n", "description": "BENGAID Moussa\n", "TEL": "" }, "geometry": { "type": "Point", "coordinates": [ 5.5258107, 22.7888209, 0.0 ] } },
{ "type": "Feature", "properties": { "Name": "352 - Agence ADRAR\n", "description": "BOUHANA Ali\n", "TEL": "" }, "geometry": { "type": "Point", "coordinates": [ 1.0817421, 26.9671598, 0.0 ] } },
{ "type": "Feature", "properties": { "Name": "353 - Agence TOUGGOURT\n", "description": "BASSACI ABDELMOUTALIB\n", "TEL": "" }, "geometry": { "type": "Point", "coordinates": [ 6.0736156, 33.1146932, 0.0 ] } },
{ "type": "Feature", "properties": { "Name": "151 - Agence BOUAMAMA\n", "description": "", "TEL": "" }, "geometry": { "type": "Point", "coordinates": [ -0.5423121, 35.6623041, 0.0 ] } }
]
}
