{
"type": "FeatureCollection",
"name": "pois_to_check",
"crs": { "type": "name", "properties": { "name": "urn:ogc:def:crs:OGC:1.3:CRS84" } },
"features": [
{ "type": "Feature", "properties": { "num": 1865, "num_inscription": 2038, "nom": "SAIDI", "prenom": "ABDERRAFIR", "adresse": "RUE ABDELKADER BENSLIMANE EN FACE PARC DTP - ADRAR", "wilaya": "Adrar", "tel": null, "fax": null, "email": "saidiabderaflr@gmail.com", "lat": 33.6189698, "lon": -7.1305536, "to_check": false, "code_wil": 1 }, "geometry": { "type": "Point", "coordinates": [ -0.286789282595406, 27.869530234245182 ] } },
{ "type": "Feature", "properties": { "num": 239, "num_inscription": 1511, "nom": "BAKHOUIA", "prenom": "ABDERRAHMANE", "adresse": "CITE 137 LOGTS, 1er MAI - ADRAR", "wilaya": "Adrar", "tel": "49966472", "fax": "49966472", "email": "ab647200@yahoo.fr", "lat": 28.0174403, "lon": -0.2642497, "to_check": false, "code_wil": 1 }, "geometry": { "type": "Point", "coordinates": [ -0.288173814619212, 27.887438710128713 ] } },
{ "type": "Feature", "properties": { "num": 1418, "num_inscription": 1355, "nom": "LAAFOU", "prenom": "AHMED", "adresse": "CITE 175 LOGTS ROUTETILILANE - ADRA R", "wilaya": "Adrar", "tel": "0499667OO", "fax": null, "email": null, "lat": 27.8980556, "lon": -0.2483333, "to_check": false, "code_wil": 1 }, "geometry": { "type": "Point", "coordinates": [ -0.2483333, 27.8980556 ] } },
{ "type": "Feature", "properties": { "num": 61, "num_inscription": 1632, "nom": "AHRES", "prenom": "HASSEN", "adresse": "RUE KADDOUR BELLITIM - ADRAR", "wilaya": "Adrar", "tel": "49964925", "fax": null, "email": "hassanahres@gmail.com", "lat": 27.8827726, "lon": -0.2709035, "to_check": false, "code_wil": 1 }, "geometry": { "type": "Point", "coordinates": [ -0.2709035, 27.8827726 ] } },
{ "type": "Feature", "properties": { "num": 327, "num_inscription": 1213, "nom": "BELLAOUI", "prenom": "ABDERRAHMANE", "adresse": "CITE 05 JUILLET 1962 - ADRAR", "wilaya": "Adrar", "tel": null, "fax": "49951555", "email": null, "lat": 28.0174403, "lon": -0.2642497, "to_check": false, "code_wil": 1 }, "geometry": { "type": "Point", "coordinates": [ -0.294182904092132, 27.879829896752309 ] } },
{ "type": "Feature", "properties": { "num": 1517, "num_inscription": 1189, "nom": "MALKI", "prenom": "RACHID", "adresse": "RUE BELGHIT MOHAMMED N°20 - ADRAR", "wilaya": "Adrar", "tel": "49967999", "fax": null, "email": "malki2004@yahoo.fr", "lat": 28.0174403, "lon": -0.2642497, "to_check": false, "code_wil": 1 }, "geometry": { "type": "Point", "coordinates": [ -0.284630122427932, 27.873825869696777 ] } },
{ "type": "Feature", "properties": { "num": 1086, "num_inscription": 801, "nom": "GRISI", "prenom": "MOHAMED", "adresse": "CITE DES FONCTIONNAIRES BT 05 N'C 06 - CHLEF", "wilaya": "Chlef", "tel": "27777822", "fax": null, "email": null, "lat": 36.4179838, "lon": -79.6502105, "to_check": false, "code_wil": 2 }, "geometry": { "type": "Point", "coordinates": [ 1.339453822737916, 36.16705819947115 ] } },
{ "type": "Feature", "properties": { "num": 735, "num_inscription": 1909, "nom": "BOUZAR-ESSAIDI", "prenom": "DJELLOUL", "adresse": "HAI BELHOUMRI N' 58, OUED FODDA - CHLEF", "wilaya": "Chlef", "tel": "27447355", "fax": null, "email": "bouzaressaidl1954@gmail.com", "lat": 36.1884187, "lon": 1.5328078, "to_check": false, "code_wil": 2 }, "geometry": { "type": "Point", "coordinates": [ 1.5328078, 36.1884187 ] } },
{ "type": "Feature", "properties": { "num": 65, "num_inscription": 1072, "nom": "AICHOUNI", "prenom": "MOHAMED", "adresse": "ROUTE EL KARIMIA OUED FADDA- CHLEF", "wilaya": "Chlef", "tel": "27771441", "fax": null, "email": null, "lat": 36.179925, "lon": 1.5278045, "to_check": false, "code_wil": 2 }, "geometry": { "type": "Point", "coordinates": [ 1.5278045, 36.179925 ] } },
{ "type": "Feature", "properties": { "num": 1833, "num_inscription": 2255, "nom": "SAADI", "prenom": "DJILLALI", "adresse": "76, LOGTS CNEP BLOC A 01 N°l1, HAY BENSOUNA  - CHLEF", "wilaya": "Chlef", "tel": null, "fax": null, "email": "saadi.djillali@yahoo.fr", "lat": 36.1609205, "lon": 1.3155951, "to_check": false, "code_wil": 2 }, "geometry": { "type": "Point", "coordinates": [ 1.3155951, 36.1609205 ] } },
{ "type": "Feature", "properties": { "num": 734, "num_inscription": 1746, "nom": "BOUYAHIA", "prenom": "ABDELAZIZ", "adresse": "RUE MEROUANE  KACIR, TENES, CHLEF", "wilaya": "Chlef", "tel": "27456116", "fax": null, "email": "Abdelazizbouyahia@yahoo.fr", "lat": 36.5441667, "lon": 1.3608333, "to_check": false, "code_wil": 2 }, "geometry": { "type": "Point", "coordinates": [ 1.3608333, 36.544166699999977 ] } },
{ "type": "Feature", "properties": { "num": 11, "num_inscription": 1630, "nom": "ABBOUB", "prenom": "MOHAMMED", "adresse": "HAY ZEBBOUDJ  BLOC 33 N-OB - CHLEF", "wilaya": "Chlef", "tel": "27724841", "fax": "27721762", "email": "betexdz@yahoo.fr", "lat": 36.1673469, "lon": 1.3481301, "to_check": false, "code_wil": 2 }, "geometry": { "type": "Point", "coordinates": [ 1.3481301, 36.1673469 ] } },
{ "type": "Feature", "properties": { "num": 5, "num_inscription": 1073, "nom": "ABBACI", "prenom": "MOHAMED", "adresse": "BO EL MOKRANI - CHLEF", "wilaya": "Chlef", "tel": "27775003", "fax": null, "email": null, "lat": 36.1579664, "lon": 1.3372823, "to_check": false, "code_wil": 2 }, "geometry": { "type": "Point", "coordinates": [ 1.3372823, 36.1579664 ] } },
{ "type": "Feature", "properties": { "num": 575, "num_inscription": 1036, "nom": "BOUCHAKOUR ERRAHMANI", "prenom": "NASREDDINE", "adresse": "HAI BELKHEIL BOUKADIR - CHLEF", "wilaya": "Chlef", "tel": "27740187", "fax": null, "email": null, "lat": 36.060248, "lon": 1.1305809, "to_check": false, "code_wil": 2 }, "geometry": { "type": "Point", "coordinates": [ 1.1305809, 36.060248 ] } },
{ "type": "Feature", "properties": { "num": 29, "num_inscription": 803, "nom": "ABEDDOU", "prenom": "AHMED", "adresse": "ZONE DIFFEREE HAY 52 LOGTS PROMOTINNELS - CHLEF", "wilaya": "Chlef", "tel": "27772734", "fax": null, "email": null, "lat": 36.1579664, "lon": 1.3372823, "to_check": false, "code_wil": 2 }, "geometry": { "type": "Point", "coordinates": [ 1.3372823, 36.1579664 ] } },
{ "type": "Feature", "properties": { "num": 2035, "num_inscription": 28, "nom": "TRAICHE", "prenom": "AHMED", "adresse": "CITE CHAIB MED KRIMO C 5 N'48 TENES - CHLEF", "wilaya": "Chlef", "tel": "27769230", "fax": null, "email": null, "lat": 36.5081163, "lon": 1.3078225, "to_check": false, "code_wil": 2 }, "geometry": { "type": "Point", "coordinates": [ 1.3078225, 36.5081163 ] } },
{ "type": "Feature", "properties": { "num": 1875, "num_inscription": 245, "nom": "SALAOUATCHI", "prenom": "ALI", "adresse": "CITE PREFABRIQUE ECHARRA - CHLEF", "wilaya": "Chlef", "tel": null, "fax": null, "email": null, "lat": 36.1579664, "lon": 1.3372823, "to_check": false, "code_wil": 2 }, "geometry": { "type": "Point", "coordinates": [ 1.3372823, 36.1579664 ] } },
{ "type": "Feature", "properties": { "num": 237, "num_inscription": 1382, "nom": "BAKEL", "prenom": "TAKI", "adresse": "CITE OLYMPIQUE N'75 - CHLEF", "wilaya": "Chlef", "tel": "27773215", "fax": "27773215", "email": "tbakel@gmail.com", "lat": 36.1609205, "lon": 1.3155951, "to_check": false, "code_wil": 2 }, "geometry": { "type": "Point", "coordinates": [ 1.3155951, 36.1609205 ] } },
{ "type": "Feature", "properties": { "num": 547, "num_inscription": 2131, "nom": "BOUAKAZ", "prenom": "HAMZA", "adresse": "HAI EL BASSATINE N'14 - CHLEF", "wilaya": "Chlef", "tel": null, "fax": null, "email": "cabinet.bouakaz2012@gmail.com", "lat": 36.1579664, "lon": 1.3372823, "to_check": false, "code_wil": 2 }, "geometry": { "type": "Point", "coordinates": [ 1.3372823, 36.1579664 ] } },
{ "type": "Feature", "properties": { "num": 928, "num_inscription": 1763, "nom": "DJEDDI", "prenom": "ABDELMOUMENE", "adresse": "HAY EL HOURIA  - CHLEF", "wilaya": "Chlef", "tel": null, "fax": null, "email": "moumenedjeddi@gmail.com", "lat": 36.1738212, "lon": 1.326969, "to_check": false, "code_wil": 2 }, "geometry": { "type": "Point", "coordinates": [ 1.327518151382527, 36.173634114810454 ] } },
{ "type": "Feature", "properties": { "num": 1145, "num_inscription": 282, "nom": "HADJ SENAU", "prenom": "M'HAMED", "adresse": "HAY EL HOURIA TIERCE N' 89 - CHLEF", "wilaya": "Chlef", "tel": "27770233", "fax": null, "email": null, "lat": 36.1738212, "lon": 1.326969, "to_check": false, "code_wil": 2 }, "geometry": { "type": "Point", "coordinates": [ 1.326926042574778, 36.173153026404158 ] } },
{ "type": "Feature", "properties": { "num": 1851, "num_inscription": 1430, "nom": "SAFER", "prenom": "HOCINE", "adresse": "ZONE A 01CHITTIA - CHLEF", "wilaya": "Chlef", "tel": null, "fax": null, "email": null, "lat": 36.1579664, "lon": 1.3372823, "to_check": false, "code_wil": 2 }, "geometry": { "type": "Point", "coordinates": [ 1.3372823, 36.1579664 ] } },
{ "type": "Feature", "properties": { "num": 427, "num_inscription": 47, "nom": "BENKHELIFA", "prenom": "ALI", "adresse": "CIA DES GAZELLES BLOC 2 N°Ol - CHLEF", "wilaya": "Chlef", "tel": "27774289", "fax": null, "email": null, "lat": 36.1579664, "lon": 1.3372823, "to_check": false, "code_wil": 2 }, "geometry": { "type": "Point", "coordinates": [ 1.3372823, 36.1579664 ] } },
{ "type": "Feature", "properties": { "num": 1783, "num_inscription": 1814, "nom": "RAHAL", "prenom": "HASSEN", "adresse": "RUE DE LA RESISTANCE  BLOC H N\"31- CHLEF", "wilaya": "Chlef", "tel": "27778574", "fax": "27778574", "email": "rahal.hassen@gmail.com", "lat": 36.1579664, "lon": 1.3372823, "to_check": false, "code_wil": 2 }, "geometry": { "type": "Point", "coordinates": [ 1.3372823, 36.1579664 ] } },
{ "type": "Feature", "properties": { "num": 1971, "num_inscription": 900, "nom": "TABOU NI", "prenom": "M'HAMED", "adresse": "RUE DU 20 AOUT - CHLEF", "wilaya": "Chlef", "tel": "27772545", "fax": "27772545", "email": null, "lat": 36.1649708, "lon": 1.333648, "to_check": false, "code_wil": 2 }, "geometry": { "type": "Point", "coordinates": [ 1.333648, 36.1649708 ] } },
{ "type": "Feature", "properties": { "num": 1309, "num_inscription": 1971, "nom": "KARDJOUDJ", "prenom": "HlCHAM", "adresse": "CITE CHERIFI KADDOUR N° 09 - CHLEF", "wilaya": "Chlef", "tel": "27797889", "fax": "27797889", "email": "cackardj@gmail.com", "lat": 36.1579664, "lon": 1.3372823, "to_check": false, "code_wil": 2 }, "geometry": { "type": "Point", "coordinates": [ 1.3372823, 36.1579664 ] } },
{ "type": "Feature", "properties": { "num": 1081, "num_inscription": 1664, "nom": "GOMERI", "prenom": "DJILALI", "adresse": "CIA LES GAZELLES N' 17 - CHLEF", "wilaya": "Chlef", "tel": "27774085", "fax": "27774085", "email": null, "lat": 36.1579664, "lon": 1.3372823, "to_check": false, "code_wil": 2 }, "geometry": { "type": "Point", "coordinates": [ 1.3372823, 36.1579664 ] } },
{ "type": "Feature", "properties": { "num": 1028, "num_inscription": 1769, "nom": "FETIAH", "prenom": "MOHAMMED", "adresse": "04, RUE BENBADIS - CHLEF", "wilaya": "Chlef", "tel": "27773339", "fax": "27773339", "email": "fettah.mohammed@outlook.fr", "lat": 36.1579664, "lon": 1.3372823, "to_check": false, "code_wil": 2 }, "geometry": { "type": "Point", "coordinates": [ 1.3372823, 36.1579664 ] } },
{ "type": "Feature", "properties": { "num": 980, "num_inscription": 378, "nom": "DOUADI eps DRAOUA", "prenom": "SAADIA", "adresse": "GALERIE SLIMANI COMMANDANT BOUNAAMA - CHLEF", "wilaya": "Chlef", "tel": "0277787OO", "fax": "0277787OO", "email": "burcomplaop@hotamil.fr", "lat": 36.1579664, "lon": 1.3372823, "to_check": false, "code_wil": 2 }, "geometry": { "type": "Point", "coordinates": [ 1.3372823, 36.1579664 ] } },
{ "type": "Feature", "properties": { "num": 831, "num_inscription": 1753, "nom": "CHEROUAG", "prenom": "G HOLLAMALLAH", "adresse": "LOCAL 16, CENTRE COMMERCIAL - CHLEF", "wilaya": "Chlef", "tel": null, "fax": null, "email": "ghollamOl@hotmail.com", "lat": 36.1579664, "lon": 1.3372823, "to_check": false, "code_wil": 2 }, "geometry": { "type": "Point", "coordinates": [ 1.3372823, 36.1579664 ] } },
{ "type": "Feature", "properties": { "num": 1638, "num_inscription": 471, "nom": "MIR", "prenom": "MUSTAPHA", "adresse": "09 RUE IBN ROCHO, 2-m, ETAGE - CHLEF", "wilaya": "Chlef", "tel": "27721273", "fax": "27721273", "email": "cam_m@yahoo.fr", "lat": 36.1579664, "lon": 1.3372823, "to_check": false, "code_wil": 2 }, "geometry": { "type": "Point", "coordinates": [ 1.3372823, 36.1579664 ] } },
{ "type": "Feature", "properties": { "num": 1683, "num_inscription": 2241, "nom": "NAAMA", "prenom": "MUSTAPHA", "adresse": "CITE OASIS NORD - LAGHOUET", "wilaya": "Laghouat", "tel": null, "fax": null, "email": "musalaa.2003@yahoo.fr", "lat": 33.8097144, "lon": 2.8548541, "to_check": false, "code_wil": 3 }, "geometry": { "type": "Point", "coordinates": [ 2.8548541, 33.8097144 ] } },
{ "type": "Feature", "properties": { "num": 964, "num_inscription": 2169, "nom": "DJIREB", "prenom": "HADJ-AISSA", "adresse": "CITE 600 LOGEMENTS - LAGHOUAT", "wilaya": "Laghouat", "tel": "29112576", "fax": "29112576", "email": "djireb@hotmali.corn", "lat": 33.8078341, "lon": 2.8628294, "to_check": false, "code_wil": 3 }, "geometry": { "type": "Point", "coordinates": [ 2.8628294, 33.807834100000015 ] } },
{ "type": "Feature", "properties": { "num": 306, "num_inscription": 1032, "nom": "BELHADI", "prenom": "RABAH", "adresse": "CITE MIKAM - LAGHOUAT", "wilaya": "Laghouat", "tel": null, "fax": null, "email": null, "lat": 33.8078341, "lon": 2.8628294, "to_check": false, "code_wil": 3 }, "geometry": { "type": "Point", "coordinates": [ 2.8628294, 33.807834100000015 ] } },
{ "type": "Feature", "properties": { "num": 305, "num_inscription": 866, "nom": "BELHADI", "prenom": "NAIMA", "adresse": "CITE M'KAM BP 5237 - LAGHOUAT", "wilaya": "Laghouat", "tel": null, "fax": null, "email": null, "lat": 33.8078341, "lon": 2.8628294, "to_check": false, "code_wil": 3 }, "geometry": { "type": "Point", "coordinates": [ 2.8628294, 33.807834100000015 ] } },
{ "type": "Feature", "properties": { "num": 304, "num_inscription": 389, "nom": "BELHADI\n", "prenom": "ABDELKADER", "adresse": "CITE 600 LOGTS  BLOC \"J\"  15 BP 5235 - LAGHOUAT", "wilaya": "Laghouat", "tel": "29928080", "fax": "29932619", "email": "belhadi47@yahoo.fr", "lat": 33.8078341, "lon": 2.8628294, "to_check": false, "code_wil": 3 }, "geometry": { "type": "Point", "coordinates": [ 2.8628294, 33.807834100000015 ] } },
{ "type": "Feature", "properties": { "num": 279, "num_inscription": 243, "nom": "BELARBI", "prenom": "MOSTEFA", "adresse": "CITE BOUAMER  MAMOURA, 482  LOGTS - LAGHOUAT", "wilaya": "Laghouat", "tel": null, "fax": "29933687", "email": null, "lat": 33.8078341, "lon": 2.8628294, "to_check": false, "code_wil": 3 }, "geometry": { "type": "Point", "coordinates": [ 2.8628294, 33.807834100000015 ] } },
{ "type": "Feature", "properties": { "num": 1542, "num_inscription": 985, "nom": "MEBKHOUTI", "prenom": "MOHAMMED", "adresse": "CITE OAISIS NORD BP 3116 - LAGHOUAT", "wilaya": "Laghouat", "tel": null, "fax": "29902548", "email": null, "lat": 33.8097144, "lon": 2.8548541, "to_check": false, "code_wil": 3 }, "geometry": { "type": "Point", "coordinates": [ 2.8548541, 33.8097144 ] } },
{ "type": "Feature", "properties": { "num": 1717, "num_inscription": 1051, "nom": "NOUAI", "prenom": "AHMED", "adresse": "CITE 198 LOGTS Bt N°lO N' S - LAGHOUAT", "wilaya": "Laghouat", "tel": null, "fax": null, "email": null, "lat": 33.8078341, "lon": 2.8628294, "to_check": false, "code_wil": 3 }, "geometry": { "type": "Point", "coordinates": [ 2.8628294, 33.807834100000015 ] } },
{ "type": "Feature", "properties": { "num": 529, "num_inscription": 1034, "nom": "BEY", "prenom": "AISSA", "adresse": "BP 1173 LE GRAND BAZAR MAAMOURAH - LAGHOUAT", "wilaya": "Laghouat", "tel": "29928705", "fax": null, "email": null, "lat": 33.7972499, "lon": 2.8657376, "to_check": false, "code_wil": 3 }, "geometry": { "type": "Point", "coordinates": [ 2.8657376, 33.7972499 ] } },
{ "type": "Feature", "properties": { "num": 1776, "num_inscription": 395, "nom": "RABEHI", "prenom": "AISSA", "adresse": "CITE BOUAMEUR - LAGHOUAT", "wilaya": "Laghouat", "tel": "a29927368", "fax": "a29927368", "email": "rabehiaissa@yahoo.fr", "lat": 33.7953503, "lon": 2.8665837, "to_check": false, "code_wil": 3 }, "geometry": { "type": "Point", "coordinates": [ 2.8665837, 33.79535030000001 ] } },
{ "type": "Feature", "properties": { "num": 1238, "num_inscription": 149, "nom": "HARRAT", "prenom": "MOHAMMED NOURDDINE", "adresse": "CITE BOUAMEUR MAAMOURA - LAGHOUAT", "wilaya": "Laghouat", "tel": "29932718", "fax": null, "email": null, "lat": 33.796936, "lon": 2.86682, "to_check": false, "code_wil": 3 }, "geometry": { "type": "Point", "coordinates": [ 2.86682, 33.796936 ] } },
{ "type": "Feature", "properties": { "num": 31, "num_inscription": 2078, "nom": "ABIRAT", "prenom": "MOKADEM", "adresse": "CITE 32 LOGT LSP, GOUATINE - LAGHOUAT", "wilaya": "Laghouat", "tel": "29112021", "fax": null, "email": "Mokaburt@yahoo.fr", "lat": 33.8212264, "lon": 2.8731424, "to_check": false, "code_wil": 3 }, "geometry": { "type": "Point", "coordinates": [ 2.8731424, 33.821226399999979 ] } },
{ "type": "Feature", "properties": { "num": 934, "num_inscription": 2164, "nom": "DJEKIDEL", "prenom": "YAHIA", "adresse": "CITE 252 LOGTS C 14, MAAMOURAH - LAGHOUAT", "wilaya": "Laghouat", "tel": null, "fax": "29106362", "email": "djekidelyahia@gmail.com", "lat": 33.7972499, "lon": 2.8657376, "to_check": false, "code_wil": 3 }, "geometry": { "type": "Point", "coordinates": [ 2.8657376, 33.7972499 ] } },
{ "type": "Feature", "properties": { "num": 1359, "num_inscription": 1979, "nom": "KHARBACHE", "prenom": "FATIMA ZOHRA", "adresse": "RUE EMIR ABDELKADER AFLOU - LAGHOUAT", "wilaya": "Laghouat", "tel": "29166014", "fax": "29166014", "email": null, "lat": 34.1193577, "lon": 2.0914457, "to_check": false, "code_wil": 3 }, "geometry": { "type": "Point", "coordinates": [ 2.0914457, 34.1193577 ] } },
{ "type": "Feature", "properties": { "num": 1357, "num_inscription": 1588, "nom": "KHANFAR", "prenom": "TAYEB", "adresse": "CITE CHIADI KADA,AFLOU - LAGHOUAT", "wilaya": "Laghouat", "tel": "29968446", "fax": "29968446", "email": "khanfartayeb@yahoo.fr", "lat": 34.1139518, "lon": 2.0973854, "to_check": false, "code_wil": 3 }, "geometry": { "type": "Point", "coordinates": [ 2.0973854, 34.1139518 ] } },
{ "type": "Feature", "properties": { "num": 321, "num_inscription": 797, "nom": "BELKHEIR", "prenom": "ATHMANE", "adresse": "CITE CHIADI KADDA  BP 358 AFLOU - LAGHOUAT", "wilaya": "Laghouat", "tel": "29967575", "fax": null, "email": null, "lat": 34.1139518, "lon": 2.0973854, "to_check": false, "code_wil": 3 }, "geometry": { "type": "Point", "coordinates": [ 2.0973854, 34.1139518 ] } },
{ "type": "Feature", "properties": { "num": 745, "num_inscription": 1331, "nom": "BOUZIANI", "prenom": "KOUIDER", "adresse": "BP 1885 CITE MAAMOURAH - LAGHOUAT", "wilaya": "Laghouat", "tel": "29903317", "fax": "29903317", "email": "compta.bouzianf@gmail.com", "lat": 33.7972499, "lon": 2.8657376, "to_check": false, "code_wil": 3 }, "geometry": { "type": "Point", "coordinates": [ 2.8657376, 33.7972499 ] } },
{ "type": "Feature", "properties": { "num": 129, "num_inscription": 1393, "nom": "ALOUIT", "prenom": "TOUFIK", "adresse": "CITE 450 LOGTS - LAGHOUAT", "wilaya": "Laghouat", "tel": null, "fax": null, "email": null, "lat": 33.8078341, "lon": 2.8628294, "to_check": false, "code_wil": 3 }, "geometry": { "type": "Point", "coordinates": [ 2.8628294, 33.807834100000015 ] } },
{ "type": "Feature", "properties": { "num": 1653, "num_inscription": 2015, "nom": "MOKHTARI", "prenom": "HAFSA", "adresse": "RUE BOUAMMEUR MAAMOURAH N' 59 - LAGHOUAT", "wilaya": "Laghouat", "tel": null, "fax": null, "email": null, "lat": 33.7972499, "lon": 2.8657376, "to_check": false, "code_wil": 3 }, "geometry": { "type": "Point", "coordinates": [ 2.8657376, 33.7972499 ] } },
{ "type": "Feature", "properties": { "num": 204, "num_inscription": 405, "nom": "BAALOUL", "prenom": "LAZHAR", "adresse": "CITE BOUCIF N'45 - OUM El BOUAGHI", "wilaya": "Oum El Bouaghi", "tel": "32562094", "fax": null, "email": "baaloul_lazhar@yahoo.fr", "lat": 35.8688789, "lon": 7.1108266, "to_check": false, "code_wil": 4 }, "geometry": { "type": "Point", "coordinates": [ 7.1108266, 35.8688789 ] } },
{ "type": "Feature", "properties": { "num": 1116, "num_inscription": 94, "nom": "HABES", "prenom": "SALAH", "adresse": "CITE DES 62 LOGTS MESKINIA - OUM EL BOUAGUI", "wilaya": "Oum El Bouaghi", "tel": "32472885", "fax": "32472885", "email": "cac37992@yahoo.fr", "lat": 35.8688789, "lon": 7.1108266, "to_check": false, "code_wil": 4 }, "geometry": { "type": "Point", "coordinates": [ 7.1108266, 35.8688789 ] } },
{ "type": "Feature", "properties": { "num": 1350, "num_inscription": 103, "nom": "KHALFALLAH", "prenom": "KAMEL", "adresse": "CITE DES 09 LOGTS LYCEE MENTOURI AIN M'LILA - OUM EL BOUAGUI", "wilaya": "Oum El Bouaghi", "tel": "32449854", "fax": "32449854", "email": "cacf@yahoo.fr", "lat": 36.0343972, "lon": 6.5737863, "to_check": false, "code_wil": 4 }, "geometry": { "type": "Point", "coordinates": [ 6.5737863, 36.0343972 ] } },
{ "type": "Feature", "properties": { "num": 233, "num_inscription": 1510, "nom": "BAHLOUL", "prenom": "SLIMANE", "adresse": "BP 288 AIN KERCHA - OUM El BOUAGHI", "wilaya": "Oum El Bouaghi", "tel": null, "fax": null, "email": "sliml201@hotmail.fr", "lat": 35.924848, "lon": 6.6959712, "to_check": false, "code_wil": 4 }, "geometry": { "type": "Point", "coordinates": [ 6.6959712, 35.924848 ] } },
{ "type": "Feature", "properties": { "num": 74, "num_inscription": 211, "nom": "AISSAOUI", "prenom": "AHMED", "adresse": "CITE SIT  AIN BEIDA 04200 - OUM EL BOUAGHI", "wilaya": "Oum El Bouaghi", "tel": "32483641", "fax": "32483641", "email": "samirlotfi274@yahoo.fr", "lat": 35.7983092, "lon": 7.0068393, "to_check": false, "code_wil": 4 }, "geometry": { "type": "Point", "coordinates": [ 7.38864658533555, 35.796253820833897 ] } },
{ "type": "Feature", "properties": { "num": 1234, "num_inscription": 668, "nom": "HARIZI", "prenom": "SMAIL", "adresse": "CITE 24 LOGTS SONATIBA EN FACE DE OPGI - OUM EL BOUAGHI", "wilaya": "Oum El Bouaghi", "tel": "32426983", "fax": null, "email": "harizlsmail@yahoo.fr", "lat": 36.2986623, "lon": 6.6203933, "to_check": false, "code_wil": 4 }, "geometry": { "type": "Point", "coordinates": [ 7.129192164295974, 35.874226933577745 ] } },
{ "type": "Feature", "properties": { "num": 1701, "num_inscription": 1102, "nom": "NASLI", "prenom": "FOUAD", "adresse": "08, RUE ABBOUD EL TAHER  OUM EL BOUAGHI", "wilaya": "Oum El Bouaghi", "tel": "0324232os", "fax": null, "email": null, "lat": 35.7983092, "lon": 7.0068393, "to_check": false, "code_wil": 4 }, "geometry": { "type": "Point", "coordinates": [ 7.112013744912834, 35.877697387339886 ] } },
{ "type": "Feature", "properties": { "num": 1992, "num_inscription": 1627, "nom": "TAMRABET", "prenom": "NADJI", "adresse": "LOTS EL HOURIA N'120A - OUM EL BOUAGHI", "wilaya": "Oum El Bouaghi", "tel": "32427044", "fax": "32427044", "email": "tamrabetnadji@yahoo.fr", "lat": 35.7983092, "lon": 7.0068393, "to_check": false, "code_wil": 4 }, "geometry": { "type": "Point", "coordinates": [ 7.118568863564251, 35.875281316057333 ] } },
{ "type": "Feature", "properties": { "num": 1498, "num_inscription": 356, "nom": "MAANDI", "prenom": "BOUZID", "adresse": "CITE LARBI BEN MHIDI BT 12 - OUM EL BOUAGHI", "wilaya": "Oum El Bouaghi", "tel": null, "fax": null, "email": null, "lat": 35.8780091, "lon": 7.090309, "to_check": false, "code_wil": 4 }, "geometry": { "type": "Point", "coordinates": [ 7.090309, 35.878009099999986 ] } },
{ "type": "Feature", "properties": { "num": 1836, "num_inscription": 307, "nom": "SABRI", "prenom": "KAMEL EDDINE", "adresse": "LOCAL 204 CITE BENBOULAID  BP 918 - OUM EL BOUAGHI", "wilaya": "Oum El Bouaghi", "tel": "32422644", "fax": "32422644", "email": "kamelsa2@gmail.com", "lat": 35.8688789, "lon": 7.1108266, "to_check": false, "code_wil": 4 }, "geometry": { "type": "Point", "coordinates": [ 7.1108266, 35.8688789 ] } },
{ "type": "Feature", "properties": { "num": 748, "num_inscription": 1389, "nom": "BOUZID", "prenom": "MOSTEFA", "adresse": "11 RUE MOHAMED MEDJMEDJ CITE EL AMEL - OM EL BOUAGUI", "wilaya": "Oum El Bouaghi", "tel": "32422954", "fax": null, "email": null, "lat": 35.7966446, "lon": 7.3781871, "to_check": false, "code_wil": 4 }, "geometry": { "type": "Point", "coordinates": [ 7.3781871, 35.7966446 ] } },
{ "type": "Feature", "properties": { "num": 382, "num_inscription": 173, "nom": "BENCHABANE", "prenom": "MILOUD", "adresse": "CITE EL AMEL BP N\"985, AIN EL BEIDA - OUM EL BOUAGUI", "wilaya": "Oum El Bouaghi", "tel": "32483984", "fax": "32483984", "email": "moloudbenchabane@yahoo.fr", "lat": 35.7966446, "lon": 7.3781871, "to_check": false, "code_wil": 4 }, "geometry": { "type": "Point", "coordinates": [ 7.3781871, 35.7966446 ] } },
{ "type": "Feature", "properties": { "num": 1799, "num_inscription": 1816, "nom": "REDJEL", "prenom": "TAHAR", "adresse": "CITE MOUSTAKBEL, AIN  BEIDA, OUM EL BOUAGHI", "wilaya": "Oum El Bouaghi", "tel": null, "fax": "32483842", "email": "tahar·redje\/@hotmail.com", "lat": 35.796101, "lon": 7.3903528, "to_check": false, "code_wil": 4 }, "geometry": { "type": "Point", "coordinates": [ 7.3903528, 35.796101 ] } },
{ "type": "Feature", "properties": { "num": 619, "num_inscription": 1895, "nom": "BOUGHERARA", "prenom": "MOHAMED", "adresse": "CITE BELLE VUE SUPERIEUR  VILLA  N' 490 AIN  M'LILA - OUM EL BOUAGUI", "wilaya": "Oum El Bouaghi", "tel": "32520749", "fax": "32520749", "email": "bougherara_cornpta@yahoo.fr", "lat": 36.0343972, "lon": 6.5737863, "to_check": false, "code_wil": 4 }, "geometry": { "type": "Point", "coordinates": [ 6.5737863, 36.0343972 ] } },
{ "type": "Feature", "properties": { "num": 487, "num_inscription": 1277, "nom": "BENSIDI BRAHIM", "prenom": "DJAMEL", "adresse": "SITE 1N°276 PRES DE LA MOSQUEE KHADIDJA OEM BP 819 AIN EL BEIDA - OUM EL BOUAGHI", "wilaya": "Oum El Bouaghi", "tel": "32492869", "fax": "32492869", "email": "bensidibrahlm@hotmall.fr", "lat": 38.9171356, "lon": -77.056712, "to_check": false, "code_wil": 4 }, "geometry": { "type": "Point", "coordinates": [ 7.377837817774211, 35.798212716496735 ] } },
{ "type": "Feature", "properties": { "num": 674, "num_inscription": 1740, "nom": "BOULAHIA", "prenom": "ABDELHAK", "adresse": "09, RUE KHELIFI, AIN M'LILA,  OUM EL BOUAGHI", "wilaya": "Oum El Bouaghi", "tel": "32459512", "fax": "32459512", "email": "Bureau-13@outlook.fr", "lat": 36.0343972, "lon": 6.5737863, "to_check": false, "code_wil": 4 }, "geometry": { "type": "Point", "coordinates": [ 6.5737863, 36.0343972 ] } },
{ "type": "Feature", "properties": { "num": 1170, "num_inscription": 2196, "nom": "HAMADA", "prenom": "FAYÇAL", "adresse": "22, CITE REGUAZI AIN M'LILA  - OUM  EL BOUAGHI", "wilaya": "Oum El Bouaghi", "tel": "31768468", "fax": "31768468", "email": "faycalhamada@gmall.com", "lat": 36.0343972, "lon": 6.5737863, "to_check": false, "code_wil": 4 }, "geometry": { "type": "Point", "coordinates": [ 6.5737863, 36.0343972 ] } },
{ "type": "Feature", "properties": { "num": 1625, "num_inscription": 313, "nom": "MEZIANI", "prenom": "AZZOUZ", "adresse": "COOPERATIVE LES GRENADIERS N\"2, AIN M'LILA - OUM EL BOUAGHI", "wilaya": "Oum El Bouaghi", "tel": null, "fax": null, "email": null, "lat": 36.0343972, "lon": 6.5737863, "to_check": false, "code_wil": 4 }, "geometry": { "type": "Point", "coordinates": [ 6.5737863, 36.0343972 ] } },
{ "type": "Feature", "properties": { "num": 1503, "num_inscription": 2223, "nom": "MADADI", "prenom": "ABDELHAMID", "adresse": "CITE 600 LOGTS, Bt 31 N'542, AIN MLILA - OUM EL- BOUAGHI", "wilaya": "Oum El Bouaghi", "tel": "32504272", "fax": "32504272", "email": "mcomptaservices@yahoo.fr", "lat": 36.0343972, "lon": 6.5737863, "to_check": false, "code_wil": 4 }, "geometry": { "type": "Point", "coordinates": [ 6.5737863, 36.0343972 ] } },
{ "type": "Feature", "properties": { "num": 1088, "num_inscription": 515, "nom": "GUECHI", "prenom": "RACHID", "adresse": "03, RUE BENAGGOUNE MAAMER, CITE ANNASSER  - BATNA", "wilaya": "Batna", "tel": "33867917", "fax": "33867917", "email": "guechirad@yahoo.fr", "lat": 36.8645971, "lon": 10.1563204, "to_check": false, "code_wil": 5 }, "geometry": { "type": "Point", "coordinates": [ 6.179134234767073, 35.545027946290951 ] } },
{ "type": "Feature", "properties": { "num": 1265, "num_inscription": 46, "nom": "HOUFANI", "prenom": "MOHAMED", "adresse": "CITE 85 LOGTS N' 34 - BATNA", "wilaya": "Batna", "tel": "33823419", "fax": null, "email": null, "lat": null, "lon": null, "to_check": false, "code_wil": 5 }, "geometry": { "type": "Point", "coordinates": [ 6.178033801364122, 35.545529074083312 ] } },
{ "type": "Feature", "properties": { "num": 1229, "num_inscription": 1568, "nom": "HARBOUCHE", "prenom": "SEBTI", "adresse": "10, RUE MOSTAPHA MESSAIA, CITÉ EL BOUSTANE - BATNA", "wilaya": "Batna", "tel": "33250489", "fax": "33250489", "email": "s-harbouche@yahoo.fr", "lat": null, "lon": null, "to_check": false, "code_wil": 5 }, "geometry": { "type": "Point", "coordinates": [ 6.162375707072425, 35.533648836706107 ] } },
{ "type": "Feature", "properties": { "num": 835, "num_inscription": 29, "nom": "CHETARA", "prenom": "HACHEMI", "adresse": "CITE ENNACIM 200 LOGTS H2 N'152 - BATNA", "wilaya": "Batna", "tel": null, "fax": null, "email": null, "lat": 33.3467562, "lon": 10.5011394, "to_check": false, "code_wil": 5 }, "geometry": { "type": "Point", "coordinates": [ 6.158538842133332, 35.550903221088795 ] } },
{ "type": "Feature", "properties": { "num": 393, "num_inscription": 903, "nom": "8ENDAIKHA", "prenom": "ABDELKADER", "adresse": "CITE 80UZOURANE COOP EL HADAIK N' 12 - BATNA", "wilaya": "Batna", "tel": "33852467", "fax": null, "email": null, "lat": 36.8234165, "lon": 6.8879693, "to_check": false, "code_wil": 5 }, "geometry": { "type": "Point", "coordinates": [ 6.888012210832798, 36.823679592067826 ] } },
{ "type": "Feature", "properties": { "num": 1916, "num_inscription": 763, "nom": "SELLAOUI", "prenom": "ABDERRAZAK", "adresse": "CITE ENNASR, Bd SEKKAK  EL SSACI, BARIKA -  BATNA", "wilaya": "Batna", "tel": "33891248", "fax": "33891248", "email": "selabd2S@yahoo.com", "lat": 36.8645971, "lon": 10.1563204, "to_check": false, "code_wil": 5 }, "geometry": { "type": "Point", "coordinates": [ 6.179685041779368, 35.544692672457373 ] } },
{ "type": "Feature", "properties": { "num": 1346, "num_inscription": 2211, "nom": "KHALDI", "prenom": "LAILA", "adresse": "N'07, RUE SETIF, BARIKA - BATNA", "wilaya": "Batna", "tel": "33387053", "fax": null, "email": "adelkhaldi78@hotmail.com", "lat": 36.1897593, "lon": 5.4107984, "to_check": false, "code_wil": 5 }, "geometry": { "type": "Point", "coordinates": [ 5.35583986296361, 35.396267118819189 ] } },
{ "type": "Feature", "properties": { "num": 1547, "num_inscription": 1026, "nom": "MECHOUMA", "prenom": "AHMED", "adresse": "22,RUE \"AA\" BOUAKAL 03 - BATNA", "wilaya": "Batna", "tel": "37814820", "fax": null, "email": null, "lat": 35.5355017, "lon": 6.174758, "to_check": false, "code_wil": 5 }, "geometry": { "type": "Point", "coordinates": [ 6.174758, 35.5355017 ] } },
{ "type": "Feature", "properties": { "num": 1605, "num_inscription": 718, "nom": "MESSAMAH", "prenom": "ABDELKADER", "adresse": "43, RUE ABDELMADJID ABDESMED LAVERDURE - BATNA", "wilaya": "Batna", "tel": "33806973", "fax": "33806973", "email": null, "lat": 35.5447462, "lon": 6.1771152, "to_check": false, "code_wil": 5 }, "geometry": { "type": "Point", "coordinates": [ 6.1771152, 35.5447462 ] } },
{ "type": "Feature", "properties": { "num": 1797, "num_inscription": 426, "nom": "REDDAH", "prenom": "SAID", "adresse": "CITE 168 LOGTS 8t 15, TERRAIN MARREF - BATNA", "wilaya": "Batna", "tel": "33860899", "fax": "33860899", "email": "reddahcac@gmail.com", "lat": 35.5473784, "lon": 6.1765992, "to_check": false, "code_wil": 5 }, "geometry": { "type": "Point", "coordinates": [ 6.1765992, 35.5473784 ] } },
{ "type": "Feature", "properties": { "num": 460, "num_inscription": 1291, "nom": "BENNOUI", "prenom": "LAKHDAR", "adresse": "54,RUE HOCINE ABDESSELAMBP 361 RP - BATNA", "wilaya": "Batna", "tel": "33856561", "fax": "33856561", "email": "akhdarbennoui@gmail.com", "lat": 35.5477229, "lon": 6.1761869, "to_check": false, "code_wil": 5 }, "geometry": { "type": "Point", "coordinates": [ 6.1761869, 35.5477229 ] } },
{ "type": "Feature", "properties": { "num": 77, "num_inscription": 632, "nom": "AISSI", "prenom": "ABDELLAZIZ", "adresse": "10, RUE Al 3eme BOUAKAL BP 69 FRERES KHEZZAR - BATNA", "wilaya": "Batna", "tel": null, "fax": null, "email": null, "lat": 35.5355017, "lon": 6.174758, "to_check": false, "code_wil": 5 }, "geometry": { "type": "Point", "coordinates": [ 6.174758, 35.5355017 ] } },
{ "type": "Feature", "properties": { "num": 359, "num_inscription": 1871, "nom": "BENAIFA", "prenom": "YOUCEF", "adresse": "12, RUE HAMID BEN CHAABANE - BATNA", "wilaya": "Batna", "tel": "33813326", "fax": null, "email": null, "lat": null, "lon": null, "to_check": false, "code_wil": 5 }, "geometry": { "type": "Point", "coordinates": [ 6.175729991979563, 35.545450978849928 ] } },
{ "type": "Feature", "properties": { "num": 170, "num_inscription": 1422, "nom": "AOURRA", "prenom": "FARIDA", "adresse": "CITE LA VERDURE AVENUE  HADJ ABDESSAMED - BATNA", "wilaya": "Batna", "tel": "33822298", "fax": null, "email": "faridaa2012@yahoo.com", "lat": 35.5505751, "lon": 6.1731403, "to_check": false, "code_wil": 5 }, "geometry": { "type": "Point", "coordinates": [ 6.1731403, 35.55057510000001 ] } },
{ "type": "Feature", "properties": { "num": 637, "num_inscription": 1897, "nom": "BOUHEOUIRA", "prenom": "HASSINA", "adresse": "RUE ABDESSEMED  ABDELMADJID  LA VERDURE  - BATNA", "wilaya": "Batna", "tel": "33853974", "fax": "33853974", "email": null, "lat": 35.5505751, "lon": 6.1731403, "to_check": false, "code_wil": 5 }, "geometry": { "type": "Point", "coordinates": [ 6.1731403, 35.55057510000001 ] } },
{ "type": "Feature", "properties": { "num": 609, "num_inscription": 822, "nom": "BOUDJENIBA", "prenom": "ABDELAZIZ", "adresse": "CITE DES FONCTIONNAIRES  Bt C N\"102 - BATNA", "wilaya": "Batna", "tel": "33803424", "fax": "33803424", "email": null, "lat": 35.5448968, "lon": 6.1727514, "to_check": false, "code_wil": 5 }, "geometry": { "type": "Point", "coordinates": [ 6.1727514, 35.544896799999982 ] } },
{ "type": "Feature", "properties": { "num": 1252, "num_inscription": 1966, "nom": "HELLALET", "prenom": "SIHEM", "adresse": "CITE DES FONCTIONNAIRES 302 A - BATNA", "wilaya": "Batna", "tel": "o33804424", "fax": "o33804424", "email": "hellaletsihem@gmail.com", "lat": 35.5448968, "lon": 6.1727514, "to_check": false, "code_wil": 5 }, "geometry": { "type": "Point", "coordinates": [ 6.1727514, 35.544896799999982 ] } },
{ "type": "Feature", "properties": { "num": 1000, "num_inscription": 1933, "nom": "FAHLOUL", "prenom": "LEMBAREK", "adresse": "LOT HACHACHNA N' 59 B TAMACHIT 2 - BATNA", "wilaya": "Batna", "tel": null, "fax": null, "email": "fahloull4@gmail.com", "lat": 35.5264335, "lon": 6.1705966, "to_check": false, "code_wil": 5 }, "geometry": { "type": "Point", "coordinates": [ 6.17101375060658, 35.526531027599042 ] } },
{ "type": "Feature", "properties": { "num": 2027, "num_inscription": 1421, "nom": "TOUMI", "prenom": "ABLA", "adresse": "N'52 TAMCHITE 04 - BATNA", "wilaya": "Batna", "tel": "33860899", "fax": "33860899", "email": "toumicac@gmail.com", "lat": 35.5264335, "lon": 6.1705966, "to_check": false, "code_wil": 5 }, "geometry": { "type": "Point", "coordinates": [ 6.1705966, 35.5264335 ] } },
{ "type": "Feature", "properties": { "num": 1419, "num_inscription": 563, "nom": "LAALMI", "prenom": "CHERIF", "adresse": "LOTISSEMENT ABDESSEMED,ROUTE DE BISKRA - BATNA", "wilaya": "Batna", "tel": "33363215", "fax": null, "email": null, "lat": 35.5425803, "lon": 6.163888, "to_check": false, "code_wil": 5 }, "geometry": { "type": "Point", "coordinates": [ 6.163888, 35.5425803 ] } },
{ "type": "Feature", "properties": { "num": 20, "num_inscription": 1483, "nom": "ABDERRAOUF", "prenom": "ABDERRAHMANE", "adresse": "02,RUE AM CITE CHOUHADA - BATNA", "wilaya": "Batna", "tel": "32866284", "fax": "33866284", "email": "cacbatna@lve.fr", "lat": 35.5406867, "lon": 6.1631915, "to_check": false, "code_wil": 5 }, "geometry": { "type": "Point", "coordinates": [ 6.1631915, 35.5406867 ] } },
{ "type": "Feature", "properties": { "num": 1949, "num_inscription": 38, "nom": "SOHBI", "prenom": "AMOR", "adresse": "TERRAIN MEDDOUR, N'19, KECHIDA - BATNA", "wilaya": "Batna", "tel": "33864564", "fax": null, "email": "amorsohbi@yahoo.fr", "lat": 35.5598923, "lon": 6.1560126, "to_check": false, "code_wil": 5 }, "geometry": { "type": "Point", "coordinates": [ 6.1560126, 35.5598923 ] } },
{ "type": "Feature", "properties": { "num": 570, "num_inscription": 323, "nom": "BOUCHAIS", "prenom": "NOUREDDINE", "adresse": "895, BLOC 38 CITE 1272 LOGTS - BATNA", "wilaya": "Batna", "tel": "33854674", "fax": "33854674", "email": "bouchaibcac@yahoo.fr", "lat": 35.5327479, "lon": 6.1548114, "to_check": false, "code_wil": 5 }, "geometry": { "type": "Point", "coordinates": [ 6.1548114, 35.5327479 ] } },
{ "type": "Feature", "properties": { "num": 1015, "num_inscription": 2179, "nom": "FENGHOUR", "prenom": "ABD ESSELAM", "adresse": "CITE 1272 LOGTS, Bt \"P\" 37 N°843 - BATNA", "wilaya": "Batna", "tel": null, "fax": null, "email": "fenghour09@gmail.com", "lat": 35.5327479, "lon": 6.1548114, "to_check": false, "code_wil": 5 }, "geometry": { "type": "Point", "coordinates": [ 6.1548114, 35.5327479 ] } },
{ "type": "Feature", "properties": { "num": 480, "num_inscription": 1458, "nom": "BENSEBAA", "prenom": "MOHAMED YAZID", "adresse": "126 ROUTE DE BISKRA - BATNA", "wilaya": "Batna", "tel": null, "fax": null, "email": "benseba_yazid@yahoo.fr", "lat": 35.5381426, "lon": 6.1529261, "to_check": false, "code_wil": 5 }, "geometry": { "type": "Point", "coordinates": [ 6.1529261, 35.5381426 ] } },
{ "type": "Feature", "properties": { "num": 2052, "num_inscription": 309, "nom": "YOUKANA", "prenom": "SALAH", "adresse": "9, RUE OUKHENOUFA ABDELLAH, CITE NOUVELLE AIN TOUTA - BATNA", "wilaya": "Batna", "tel": "33834472", "fax": null, "email": "s.youkane@yahoo.fr", "lat": 35.3808071, "lon": 5.9020128, "to_check": false, "code_wil": 5 }, "geometry": { "type": "Point", "coordinates": [ 5.9020128, 35.3808071 ] } },
{ "type": "Feature", "properties": { "num": 624, "num_inscription": 142, "nom": "BOUGROURA", "prenom": "ABDELHAMID", "adresse": "126, ROUTE DE BISKRA - BATNA", "wilaya": "Batna", "tel": "33817845", "fax": "33817845", "email": null, "lat": 35.5381426, "lon": 6.1529261, "to_check": false, "code_wil": 5 }, "geometry": { "type": "Point", "coordinates": [ 6.1529261, 35.5381426 ] } },
{ "type": "Feature", "properties": { "num": 25, "num_inscription": 1485, "nom": "ABECHE", "prenom": "MALIK", "adresse": "HAMLA 100 LOGTS - BATNA", "wilaya": "Batna", "tel": "33283535", "fax": "33283535", "email": "amalik9man@gmail.com", "lat": 35.5581299, "lon": 6.0832144, "to_check": false, "code_wil": 5 }, "geometry": { "type": "Point", "coordinates": [ 6.175223766647609, 35.558777529361763 ] } },
{ "type": "Feature", "properties": { "num": 499, "num_inscription": 1883, "nom": "BENYA HIA", "prenom": "NOURA", "adresse": "CITE 1020 LOGTS BLOC \"B\" N° 17 - BATNA", "wilaya": "Batna", "tel": "33817977", "fax": "33817977", "email": "diana07-06@hotmail.com", "lat": 35.5478965, "lon": 6.1507102, "to_check": false, "code_wil": 5 }, "geometry": { "type": "Point", "coordinates": [ 6.151387201005235, 35.547682067421484 ] } },
{ "type": "Feature", "properties": { "num": 1658, "num_inscription": 1804, "nom": "MOKRANI", "prenom": "OUMELKHIR", "adresse": "CITE 1020 LOGTS, N'  7, KHECHIDA - BATNA", "wilaya": "Batna", "tel": null, "fax": null, "email": null, "lat": 35.5478965, "lon": 6.1507102, "to_check": false, "code_wil": 5 }, "geometry": { "type": "Point", "coordinates": [ 6.150821827148406, 35.547338804722692 ] } },
{ "type": "Feature", "properties": { "num": 1792, "num_inscription": 2029, "nom": "REBBOUH", "prenom": "TAREK", "adresse": "CITE ALATIK,  RUE GHANEME MOHAMED SALAH - BARIKA - BATNA", "wilaya": "Batna", "tel": "a33391022", "fax": "33391022", "email": "tarekrebbouhcal58dz@gmail.com", "lat": 46.207888, "lon": 6.142184, "to_check": false, "code_wil": 5 }, "geometry": { "type": "Point", "coordinates": [ 5.368804175614111, 35.387810017572306 ] } },
{ "type": "Feature", "properties": { "num": 1822, "num_inscription": 2033, "nom": "ROUICHI", "prenom": "MOHAMMED", "adresse": "EL KHENDEK CENTRE VILLE  N'GAOUS - BATNA", "wilaya": "Batna", "tel": null, "fax": null, "email": null, "lat": 35.5472882, "lon": 5.6296201, "to_check": false, "code_wil": 5 }, "geometry": { "type": "Point", "coordinates": [ 5.6296201, 35.5472882 ] } },
{ "type": "Feature", "properties": { "num": 1466, "num_inscription": 707, "nom": "LATIAR", "prenom": "BOUZID", "adresse": "RUE LICHANI RABAH, BARIKA - BATNA", "wilaya": "Batna", "tel": "33891951", "fax": null, "email": "bouzid_lattar@yahoo.fr", "lat": 35.3877747, "lon": 5.3703633, "to_check": false, "code_wil": 5 }, "geometry": { "type": "Point", "coordinates": [ 5.3703633, 35.3877747 ] } },
{ "type": "Feature", "properties": { "num": 987, "num_inscription": 1660, "nom": "DRIDI", "prenom": "KHELIFA", "adresse": "RUE 1er NOVEMBRE, BARIKA - BATNA", "wilaya": "Batna", "tel": "33894409", "fax": "33894409", "email": null, "lat": 35.3877205, "lon": 5.3704047, "to_check": false, "code_wil": 5 }, "geometry": { "type": "Point", "coordinates": [ 5.3704047, 35.3877205 ] } },
{ "type": "Feature", "properties": { "num": 1261, "num_inscription": 280, "nom": "HIMA", "prenom": "MOHAMED SALAH", "adresse": "RUE GHANEM MOHAMED SALAH,BARIKA - BATNA", "wilaya": "Batna", "tel": null, "fax": "33890678", "email": null, "lat": 35.387611, "lon": 5.3683839, "to_check": false, "code_wil": 5 }, "geometry": { "type": "Point", "coordinates": [ 5.3683839, 35.387611 ] } },
{ "type": "Feature", "properties": { "num": 954, "num_inscription": 1554, "nom": "DJENNANE", "prenom": "RACHID", "adresse": "CITE BOUZOUAOUIA  P13 - BATNA", "wilaya": "Batna", "tel": null, "fax": null, "email": null, "lat": null, "lon": null, "to_check": false, "code_wil": 5 }, "geometry": { "type": "Point", "coordinates": [ 6.189845705412092, 35.564564787218458 ] } },
{ "type": "Feature", "properties": { "num": 418, "num_inscription": 987, "nom": "BENHALA", "prenom": "NACER", "adresse": "CITE ENNOUR, TAZOULT - BATNA", "wilaya": "Batna", "tel": null, "fax": null, "email": "benhalanacer@hotmail.fr", "lat": 35.4833556, "lon": 6.2595251, "to_check": false, "code_wil": 5 }, "geometry": { "type": "Point", "coordinates": [ 6.2595251, 35.4833556 ] } },
{ "type": "Feature", "properties": { "num": 431, "num_inscription": 2116, "nom": "BENKHERROUR", "prenom": "SAID", "adresse": "ROUTE DE TAZOULT,  RUE \"KN\"  COTE DROITE - BATNA", "wilaya": "Batna", "tel": "33305002", "fax": "33305002", "email": "bureau.comptbilite.OS@gmail.com", "lat": 35.4833556, "lon": 6.2595251, "to_check": false, "code_wil": 5 }, "geometry": { "type": "Point", "coordinates": [ 6.2595251, 35.4833556 ] } },
{ "type": "Feature", "properties": { "num": 1541, "num_inscription": 1405, "nom": "MEBARKIA", "prenom": "ABDELMADJID", "adresse": "CITE NOUR TAZOULT - BATNA", "wilaya": "Batna", "tel": null, "fax": "33821053", "email": null, "lat": 35.4833556, "lon": 6.2595251, "to_check": false, "code_wil": 5 }, "geometry": { "type": "Point", "coordinates": [ 6.2595251, 35.4833556 ] } },
{ "type": "Feature", "properties": { "num": 1887, "num_inscription": 978, "nom": "SARAOUI", "prenom": "AHMEO", "adresse": "AVENUE DU 1er NOVEMBRE ,BARIKA - BATNA", "wilaya": "Batna", "tel": "33891419", "fax": "33891419", "email": "ahmedcompt@yahoo.fr", "lat": 35.416737, "lon": 5.334764, "to_check": false, "code_wil": 5 }, "geometry": { "type": "Point", "coordinates": [ 5.354795628656781, 35.397666172088989 ] } },
{ "type": "Feature", "properties": { "num": 245, "num_inscription": 2096, "nom": "BANCHOUR", "prenom": "NASSIMA", "adresse": "RUE KlTAMACHIT A3 N°9 BOUZGHAIA - BATNA", "wilaya": "Batna", "tel": "33823147", "fax": "33823147", "email": "nassimabanchour@gmail.com", "lat": 36.338745, "lon": 1.240543, "to_check": false, "code_wil": 5 }, "geometry": { "type": "Point", "coordinates": [ 6.154274646059753, 35.539726449578971 ] } },
{ "type": "Feature", "properties": { "num": 1478, "num_inscription": 752, "nom": "LEMMOUCHI", "prenom": "MOHAMMED", "adresse": "41, RUE Y PARC A FOURAGE - BATNA", "wilaya": "Batna", "tel": "33928081", "fax": null, "email": null, "lat": 35.540717, "lon": 6.1977851, "to_check": false, "code_wil": 5 }, "geometry": { "type": "Point", "coordinates": [ 6.1977851, 35.540717 ] } },
{ "type": "Feature", "properties": { "num": 1632, "num_inscription": 107, "nom": "MILOUDI", "prenom": "MENAD", "adresse": "31,RUE LARBI SEN M'HIDI BARIKA, BPN'69 - BATNA", "wilaya": "Batna", "tel": "33891724", "fax": "33891724", "email": "miloudi_menad@yahoo.com", "lat": 35.3842783, "lon": 5.3685614, "to_check": false, "code_wil": 5 }, "geometry": { "type": "Point", "coordinates": [ 5.3685614, 35.3842783 ] } },
{ "type": "Feature", "properties": { "num": 251, "num_inscription": 43, "nom": "BAYARASSOU", "prenom": "SMAIL", "adresse": "CITE 410 LG BLOC 19 ETAGE 01N°184 - BATNA", "wilaya": "Batna", "tel": "33803542", "fax": null, "email": null, "lat": 35.5634192, "lon": 6.1889996, "to_check": false, "code_wil": 5 }, "geometry": { "type": "Point", "coordinates": [ 6.1889996, 35.5634192 ] } },
{ "type": "Feature", "properties": { "num": 435, "num_inscription": 886, "nom": "BENLAHCENE", "prenom": "ALI", "adresse": "RUE BELAHCENE SEDDIK, N'GAOUAS 05600 - BATNA", "wilaya": "Batna", "tel": "30365501", "fax": null, "email": null, "lat": 35.5634192, "lon": 6.1889996, "to_check": false, "code_wil": 5 }, "geometry": { "type": "Point", "coordinates": [ 6.1889996, 35.5634192 ] } },
{ "type": "Feature", "properties": { "num": 891, "num_inscription": 612, "nom": "DEMAGH", "prenom": "SALAH EDDINE SEDDIK", "adresse": "SECTEUR OS, BOUZOURANE  RUE \"Z\" N°Al4 - BATNA", "wilaya": "Batna", "tel": "33802446", "fax": "33802446", "email": "demagh_s@yahoo.fr", "lat": 35.5627956, "lon": 6.1924791, "to_check": false, "code_wil": 5 }, "geometry": { "type": "Point", "coordinates": [ 6.1924791, 35.5627956 ] } },
{ "type": "Feature", "properties": { "num": 1032, "num_inscription": 1253, "nom": "FEZZANI", "prenom": "ABDELMALEK", "adresse": "CITE FRERES MEBARKI N°13 RUE GF\/ BP MESALI N°40 - BATNA", "wilaya": "Batna", "tel": "33927942", "fax": "33927942", "email": "fezzani73@gmail.com", "lat": 35.5634192, "lon": 6.1889996, "to_check": false, "code_wil": 5 }, "geometry": { "type": "Point", "coordinates": [ 6.1889996, 35.5634192 ] } },
{ "type": "Feature", "properties": { "num": 1042, "num_inscription": 1940, "nom": "FRAH", "prenom": "ABOULKACEM", "adresse": "RUE ABDELMADJID  BOUAKAZ CAMP - BATNA", "wilaya": "Batna", "tel": "33856787", "fax": "33856787", "email": "ccff2017flscal@netcourrier.corn", "lat": 35.5634192, "lon": 6.1889996, "to_check": false, "code_wil": 5 }, "geometry": { "type": "Point", "coordinates": [ 6.1889996, 35.5634192 ] } },
{ "type": "Feature", "properties": { "num": 1310, "num_inscription": 22, "nom": "KAROUI", "prenom": "ABDELKRIM", "adresse": "PLACE DE LA LIBERTE IMM EL MOSTAEL  BATNA", "wilaya": "Batna", "tel": "33807274", "fax": null, "email": null, "lat": 35.5634192, "lon": 6.1889996, "to_check": false, "code_wil": 5 }, "geometry": { "type": "Point", "coordinates": [ 6.18910380069503, 35.563608120609615 ] } },
{ "type": "Feature", "properties": { "num": 1378, "num_inscription": 338, "nom": "KHELLAF", "prenom": "LAKHDAR", "adresse": "COOPERATIVE AURES  N'62 CITEAN NASR - BATNA", "wilaya": "Batna", "tel": "33823902", "fax": null, "email": null, "lat": 35.5634192, "lon": 6.1889996, "to_check": false, "code_wil": 5 }, "geometry": { "type": "Point", "coordinates": [ 6.1889996, 35.5634192 ] } },
{ "type": "Feature", "properties": { "num": 1787, "num_inscription": 1815, "nom": "RAHMANI", "prenom": "MALEK", "adresse": "21, RUE DES JASMINS CITÉ STAND - BATNA", "wilaya": "Batna", "tel": "33857202", "fax": "33857202", "email": "faridcompta1180@gmail.com", "lat": 35.5634192, "lon": 6.1889996, "to_check": false, "code_wil": 5 }, "geometry": { "type": "Point", "coordinates": [ 6.1889996, 35.5634192 ] } },
{ "type": "Feature", "properties": { "num": 2103, "num_inscription": 1424, "nom": "ZINE", "prenom": "ABDELLAH", "adresse": "CITE  DES JARDINS  200 LOGTS -  BATNA", "wilaya": "Batna", "tel": null, "fax": null, "email": null, "lat": 35.5634192, "lon": 6.1889996, "to_check": false, "code_wil": 5 }, "geometry": { "type": "Point", "coordinates": [ 6.1889996, 35.5634192 ] } },
{ "type": "Feature", "properties": { "num": 981, "num_inscription": 597, "nom": "DOUAK", "prenom": "ABDELKADER", "adresse": "CITE 742 LOGTS EL MOUDJAHIDINE  N'2 - BATNA", "wilaya": "Batna", "tel": "33868331", "fax": null, "email": "douakabdeka@gamil.com", "lat": 35.5334746, "lon": 6.1861788, "to_check": false, "code_wil": 5 }, "geometry": { "type": "Point", "coordinates": [ 6.1861788, 35.5334746 ] } },
{ "type": "Feature", "properties": { "num": 266, "num_inscription": 1254, "nom": "BEHDENNA", "prenom": "ABDESSELAM", "adresse": "BP 193, FRERES KHEZZAR -  BATNA", "wilaya": "Batna", "tel": null, "fax": null, "email": "behdennaa@yahoo.com", "lat": 35.5284185, "lon": 6.1843879, "to_check": false, "code_wil": 5 }, "geometry": { "type": "Point", "coordinates": [ 6.1843879, 35.5284185 ] } },
{ "type": "Feature", "properties": { "num": 1404, "num_inscription": 576, "nom": "KITOUNI", "prenom": "KAMEL", "adresse": "ROUTE DU 1er NOVEMBRE,BARIKA - BATNA", "wilaya": "Batna", "tel": null, "fax": null, "email": null, "lat": 35.4132035, "lon": 5.3388483, "to_check": false, "code_wil": 5 }, "geometry": { "type": "Point", "coordinates": [ 5.356592709844558, 35.395323908967825 ] } },
{ "type": "Feature", "properties": { "num": 571, "num_inscription": 2133, "nom": "BOUCHAIS", "prenom": "MAHDI", "adresse": "A  12, LOTISSEMENT ElFEDJR,  Z'MALA - BATNA", "wilaya": "Batna", "tel": "33854674", "fax": "33854674", "email": "bouchaibmahdicac@gmail.com", "lat": 35.5634192, "lon": 6.1889996, "to_check": false, "code_wil": 5 }, "geometry": { "type": "Point", "coordinates": [ 6.1889996, 35.5634192 ] } },
{ "type": "Feature", "properties": { "num": 8, "num_inscription": 1235, "nom": "ABBAS", "prenom": "SAJD", "adresse": "1272 LOGTS BLOC 87 N432 - BATNA", "wilaya": "Batna", "tel": "33818294", "fax": null, "email": "abbas_said@yahoo.fr", "lat": null, "lon": null, "to_check": false, "code_wil": 5 }, "geometry": { "type": "Point", "coordinates": [ 6.15741665975312, 35.530651932125359 ] } },
{ "type": "Feature", "properties": { "num": 1953, "num_inscription": 603, "nom": "SOUADIH", "prenom": "FERHAT", "adresse": "BP N'67 CEDEX N'03, CITE REMLA - BEJAIA", "wilaya": "Bejaia", "tel": "34214596", "fax": "34204140", "email": "lerhatssc@gmail.com", "lat": 36.7346426, "lon": 5.048823, "to_check": false, "code_wil": 6 }, "geometry": { "type": "Point", "coordinates": [ 5.048823, 36.7346426 ] } },
{ "type": "Feature", "properties": { "num": 2043, "num_inscription": 40, "nom": "YAHIAOUI", "prenom": "BOUALEM", "adresse": "CENTRECOMMERCIALATLAS TARGA OUZEMOUR- BEJAIA", "wilaya": "Bejaia", "tel": null, "fax": null, "email": null, "lat": 36.7514869, "lon": 5.0480643, "to_check": false, "code_wil": 6 }, "geometry": { "type": "Point", "coordinates": [ 5.0480643, 36.7514869 ] } },
{ "type": "Feature", "properties": { "num": 206, "num_inscription": 150, "nom": "BABA·AISSA", "prenom": "MAHFOUD", "adresse": "Bd KRIM BELKACEM, PROMOTION SOMACOB - BEJAIA", "wilaya": "Bejaia", "tel": "34205796", "fax": "34206129", "email": "babaaîssacac@yahoo.fr", "lat": 36.7448372, "lon": 5.0492083, "to_check": false, "code_wil": 6 }, "geometry": { "type": "Point", "coordinates": [ 5.0492083, 36.744837199999985 ] } },
{ "type": "Feature", "properties": { "num": 2013, "num_inscription": 1828, "nom": "TILKOUT", "prenom": "HOCINE", "adresse": "IMMEUBLE DJAMA ABDELKADER,  AVENUE  HASSlBA BEN BOUALI - BEJAIA", "wilaya": "Bejaia", "tel": "34124155", "fax": null, "email": "hocinetllkout@gmail.com", "lat": 36.7503296, "lon": 5.0497818, "to_check": false, "code_wil": 6 }, "geometry": { "type": "Point", "coordinates": [ 5.0497818, 36.7503296 ] } },
{ "type": "Feature", "properties": { "num": 656, "num_inscription": 1536, "nom": "BOUKHALFA", "prenom": "MEHDIA", "adresse": "IMMEUBLE DJAMA ROUTE DE L'UNIVERSITÉ - BEJAIA", "wilaya": "Bejaia", "tel": null, "fax": null, "email": null, "lat": 36.7503296, "lon": 5.0497818, "to_check": false, "code_wil": 6 }, "geometry": { "type": "Point", "coordinates": [ 5.0497818, 36.7503296 ] } },
{ "type": "Feature", "properties": { "num": 971, "num_inscription": 2170, "nom": "DJOUDANE", "prenom": "MOHAMED", "adresse": "CITE 1000 LOGT, IHADDADEN - BEJAIA", "wilaya": "Bejaia", "tel": null, "fax": null, "email": "djoudanemohamed@yahoo.fr", "lat": 36.7433076, "lon": 5.0436063, "to_check": false, "code_wil": 6 }, "geometry": { "type": "Point", "coordinates": [ 5.0436063, 36.7433076 ] } },
{ "type": "Feature", "properties": { "num": 770, "num_inscription": 1915, "nom": "CHAABNA", "prenom": "ABDELHAK", "adresse": "IGHIL OUAZOUG - BEJAIA", "wilaya": "Bejaia", "tel": "34803668", "fax": "34803668", "email": "acb.consulte@gmail.com", "lat": 36.7317465, "lon": 5.0468584, "to_check": false, "code_wil": 6 }, "geometry": { "type": "Point", "coordinates": [ 5.0468584, 36.7317465 ] } },
{ "type": "Feature", "properties": { "num": 1766, "num_inscription": 1005, "nom": "OURA8AH", "prenom": "ABDELKRIM", "adresse": "LAAZIB OUMAAMAR  BP 312 TER - BEJAIA", "wilaya": "Bejaia", "tel": "a34219844", "fax": null, "email": "akrimourabah@hotmail.fr", "lat": 36.742553, "lon": 5.046458, "to_check": false, "code_wil": 6 }, "geometry": { "type": "Point", "coordinates": [ 5.046458, 36.742553 ] } },
{ "type": "Feature", "properties": { "num": 1225, "num_inscription": 1069, "nom": "HANNOU", "prenom": "AKLI", "adresse": "CITE 600 LOGTS AS N'227 - BEJAIA", "wilaya": "Bejaia", "tel": null, "fax": "34213957", "email": "aklihannou@yahoo.fr", "lat": 36.7365331, "lon": 5.0449071, "to_check": false, "code_wil": 6 }, "geometry": { "type": "Point", "coordinates": [ 5.0449071, 36.7365331 ] } },
{ "type": "Feature", "properties": { "num": 700, "num_inscription": 375, "nom": "BOURAI", "prenom": "EL-HAMID", "adresse": "PROMOTION  EDIMCO Bp N'253 RP - BEJAIA", "wilaya": "Bejaia", "tel": "34217168", "fax": "34219203", "email": null, "lat": 36.7478959, "lon": 5.044338, "to_check": false, "code_wil": 6 }, "geometry": { "type": "Point", "coordinates": [ 5.044338, 36.7478959 ] } },
{ "type": "Feature", "properties": { "num": 1620, "num_inscription": 1441, "nom": "MEZHOUD", "prenom": "FAWZI", "adresse": "Bd KRIM BELKACEM CITE 18 FEVRIER( EDIMCO) - BEJAIA", "wilaya": "Bejaia", "tel": null, "fax": null, "email": "fawzi-mez@hotmail.com", "lat": 36.7478959, "lon": 5.044338, "to_check": false, "code_wil": 6 }, "geometry": { "type": "Point", "coordinates": [ 5.044338, 36.7478959 ] } },
{ "type": "Feature", "properties": { "num": 977, "num_inscription": 789, "nom": "DJOUHRI eps AIT MEZIANE", "prenom": "SAUMA", "adresse": "RESIDENCE FORUM DE L'UNIVERSITE, BLOC P - BEJAIA", "wilaya": "Bejaia", "tel": "34218602", "fax": null, "email": null, "lat": 36.7481807, "lon": 5.0386989, "to_check": false, "code_wil": 6 }, "geometry": { "type": "Point", "coordinates": [ 5.0386989, 36.748180699999985 ] } },
{ "type": "Feature", "properties": { "num": 1323, "num_inscription": 1150, "nom": "KENTOURI", "prenom": "MOHAMED AMEZIANE", "adresse": "FERME DJAMA ROUTE DE L'UNIVERSITE, BEJAIA", "wilaya": "Bejaia", "tel": "34213770", "fax": "32247638", "email": "ladjali_compta39@yahoo.fr", "lat": 36.7502671, "lon": 5.0407496, "to_check": false, "code_wil": 6 }, "geometry": { "type": "Point", "coordinates": [ 5.0407496, 36.7502671 ] } },
{ "type": "Feature", "properties": { "num": 875, "num_inscription": 793, "nom": "DALI", "prenom": "NABIL", "adresse": "IMMEUBLE DJAMA RTE UNIVERSITE - BEJAIA", "wilaya": "Bejaia", "tel": "30431392", "fax": "34215844", "email": "cacc_dali@yahoo.fr", "lat": 36.7502671, "lon": 5.0407496, "to_check": false, "code_wil": 6 }, "geometry": { "type": "Point", "coordinates": [ 5.0407496, 36.7502671 ] } },
{ "type": "Feature", "properties": { "num": 799, "num_inscription": 692, "nom": "CHEBIEB", "prenom": "NADIR", "adresse": "Bd KRIM BELKACEM SONACOB 3 - BEJAIA", "wilaya": "Bejaia", "tel": null, "fax": null, "email": null, "lat": 36.7364713, "lon": 5.0475124, "to_check": false, "code_wil": 6 }, "geometry": { "type": "Point", "coordinates": [ 5.0475124, 36.7364713 ] } },
{ "type": "Feature", "properties": { "num": 2102, "num_inscription": 2074, "nom": "ZIDELKHIL", "prenom": "FOUDIL", "adresse": "CITE SOMACOB  BLOC C2, IHADDADEN - BEJAIA", "wilaya": "Bejaia", "tel": "34120102", "fax": "34120107", "email": "Z.FOUDIL@YAHOO.FR", "lat": 36.7446982, "lon": 5.050436, "to_check": false, "code_wil": 6 }, "geometry": { "type": "Point", "coordinates": [ 5.050436, 36.744698199999988 ] } },
{ "type": "Feature", "properties": { "num": 1275, "num_inscription": 522, "nom": "INOUDJAL", "prenom": "HAMID", "adresse": "04, RUE RACHID HASSISSENE - BEJAIA", "wilaya": "Bejaia", "tel": "o34227511", "fax": "o34228305", "email": "inoudjalhamid@yahoo.fr", "lat": 36.7528426, "lon": 5.0758105, "to_check": false, "code_wil": 6 }, "geometry": { "type": "Point", "coordinates": [ 5.0758105, 36.7528426 ] } },
{ "type": "Feature", "properties": { "num": 46, "num_inscription": 791, "nom": "ADRAR", "prenom": "AZDINE", "adresse": "RESIDENCE LA GRANDE BAIETOBA- BEJAIA", "wilaya": "Bejaia", "tel": "0341091OO", "fax": "0341091OO", "email": "adrarcompta@yahoo.com", "lat": 36.7464959, "lon": 5.0506233, "to_check": false, "code_wil": 6 }, "geometry": { "type": "Point", "coordinates": [ 5.0506233, 36.746495899999978 ] } },
{ "type": "Feature", "properties": { "num": 1747, "num_inscription": 786, "nom": "OUCHENE", "prenom": "RABAH", "adresse": "ROUTE DE SIDI AHMED - BEJAIA", "wilaya": "Bejaia", "tel": "34206557", "fax": null, "email": null, "lat": 36.75365, "lon": 5.062007, "to_check": false, "code_wil": 6 }, "geometry": { "type": "Point", "coordinates": [ 5.062007, 36.75365 ] } },
{ "type": "Feature", "properties": { "num": 2021, "num_inscription": 152, "nom": "TOUATI", "prenom": "ABDALLAH", "adresse": "TOUR  LA GRANDE BAIE, CITE TOBAL - BEJAIA", "wilaya": "Bejaia", "tel": "34109288", "fax": "34109288", "email": "ocftouati@yahoo.fr", "lat": 36.7500083, "lon": 5.0717435, "to_check": false, "code_wil": 6 }, "geometry": { "type": "Point", "coordinates": [ 5.0717435, 36.7500083 ] } },
{ "type": "Feature", "properties": { "num": 2005, "num_inscription": 872, "nom": "TER BAH", "prenom": "AKLI", "adresse": "23, RUE DE LA LIBERTE ·BEJAIA", "wilaya": "Bejaia", "tel": "34227205", "fax": null, "email": null, "lat": 36.752867, "lon": 5.0725, "to_check": false, "code_wil": 6 }, "geometry": { "type": "Point", "coordinates": [ 5.0725, 36.752867 ] } },
{ "type": "Feature", "properties": { "num": 699, "num_inscription": 374, "nom": "BOURAI", "prenom": "ALLA OUA", "adresse": "35, RUE DE LA LIBERTE - BEJAIA", "wilaya": "Bejaia", "tel": "34201887", "fax": "34212746", "email": "saddek44@hotmail.com", "lat": 36.752867, "lon": 5.0725, "to_check": false, "code_wil": 6 }, "geometry": { "type": "Point", "coordinates": [ 5.0725, 36.752867 ] } },
{ "type": "Feature", "properties": { "num": 509, "num_inscription": 693, "nom": "BENZENATI", "prenom": "TAHAR", "adresse": "13, RUE AHMED BOUMEDA - BEJAIA", "wilaya": "Bejaia", "tel": "34224951", "fax": "34224951", "email": "tbenzenati@yahoo.fr", "lat": 36.7524975, "lon": 5.0739187, "to_check": false, "code_wil": 6 }, "geometry": { "type": "Point", "coordinates": [ 5.0739187, 36.7524975 ] } },
{ "type": "Feature", "properties": { "num": 780, "num_inscription": 1749, "nom": "CHAFFI", "prenom": "FAIZA", "adresse": "16, RUE BABA AISSA,  El KSEUR - BEJAIA", "wilaya": "Bejaia", "tel": null, "fax": null, "email": "kouba999999@gmail.com", "lat": 36.6879592, "lon": 4.8503121, "to_check": false, "code_wil": 6 }, "geometry": { "type": "Point", "coordinates": [ 4.8503121, 36.6879592 ] } },
{ "type": "Feature", "properties": { "num": 974, "num_inscription": 1274, "nom": "DJOUDI", "prenom": "KARIMA", "adresse": "RUE DES FRERES OUYOUGOUT, PLACE IFRI - BEJAIA", "wilaya": "Bejaia", "tel": "34181067", "fax": "34181067", "email": "bcc.djoudl@gmail.com", "lat": 36.7539274, "lon": 5.0803845, "to_check": false, "code_wil": 6 }, "geometry": { "type": "Point", "coordinates": [ 5.0803845, 36.753927399999988 ] } },
{ "type": "Feature", "properties": { "num": 1983, "num_inscription": 658, "nom": "TAIRI", "prenom": "OUAHIB", "adresse": "CITE DES PALMIERS 215 LOGTS EPLF BI 07 N'2\/A, AOKAS  - BEJAIA", "wilaya": "Bejaia", "tel": "34232174", "fax": null, "email": "bureauaokas@yahoo.fr", "lat": 36.6376346, "lon": 5.2452449, "to_check": false, "code_wil": 6 }, "geometry": { "type": "Point", "coordinates": [ 5.2452449, 36.6376346 ] } },
{ "type": "Feature", "properties": { "num": 1702, "num_inscription": 650, "nom": "NASRI", "prenom": "AZDINE", "adresse": "CITE 12 LOGTS Bt O LOCAL 83,AOKAS - BEJAIA", "wilaya": "Bejaia", "tel": "34232103", "fax": "o34232103", "email": "nasriazedine@yahoc.fr", "lat": 36.6376346, "lon": 5.2452449, "to_check": false, "code_wil": 6 }, "geometry": { "type": "Point", "coordinates": [ 5.2452449, 36.6376346 ] } },
{ "type": "Feature", "properties": { "num": 1016, "num_inscription": 1455, "nom": "FENNOUCHE", "prenom": "OMAR", "adresse": "CITE 50 LOGTS Bt A N'll, AOKAS - BAJAIA", "wilaya": "Bejaia", "tel": null, "fax": null, "email": "enpestise_2007@yahoo.fr", "lat": 36.6376346, "lon": 5.2452449, "to_check": false, "code_wil": 6 }, "geometry": { "type": "Point", "coordinates": [ 5.2452449, 36.6376346 ] } },
{ "type": "Feature", "properties": { "num": 1538, "num_inscription": 1597, "nom": "MEBARKI", "prenom": "LARBI", "adresse": "CITÉ DES 80 LOGEMENTS LSP BAT G 2EME ÉTAGE SOUK EL TENINE - BEJAIA", "wilaya": "Bejaia", "tel": null, "fax": null, "email": "mebarkilarbi06@yahoc.fr", "lat": 36.6365647, "lon": 5.2484517, "to_check": false, "code_wil": 6 }, "geometry": { "type": "Point", "coordinates": [ 5.2484517, 36.6365647 ] } },
{ "type": "Feature", "properties": { "num": 148, "num_inscription": 1264, "nom": "AMRANE", "prenom": "SAMIR", "adresse": "28, RUE DU 1er NOVEMBRE 1954 KHERRATA - BEJAIA", "wilaya": "Bejaia", "tel": "34246949", "fax": null, "email": "amranesamir@yahoo.fr", "lat": 36.4936399, "lon": 5.2770714, "to_check": false, "code_wil": 6 }, "geometry": { "type": "Point", "coordinates": [ 5.2770714, 36.4936399 ] } },
{ "type": "Feature", "properties": { "num": 951, "num_inscription": 1398, "nom": "DJENANE", "prenom": "RAFIK", "adresse": "CITE 108 LOGTS, EPLF Bt 08 N°l02, BORDJ MIRA -  BEJAIA", "wilaya": "Bejaia", "tel": "34386490", "fax": "34386490", "email": "rafikdjenane@yahoo.fr", "lat": 36.5481916, "lon": 5.2775864, "to_check": false, "code_wil": 6 }, "geometry": { "type": "Point", "coordinates": [ 5.2775864, 36.5481916 ] } },
{ "type": "Feature", "properties": { "num": 187, "num_inscription": 1637, "nom": "ATMANI", "prenom": "BRAHIM", "adresse": "CITE 24 LOGS EPLF, TASKRIOUT - BEJAIA", "wilaya": "Bejaia", "tel": "34386521", "fax": "34386521", "email": "brahim.atmani@yahoofr", "lat": 36.5548754, "lon": 5.2860696, "to_check": false, "code_wil": 6 }, "geometry": { "type": "Point", "coordinates": [ 5.2860696, 36.5548754 ] } },
{ "type": "Feature", "properties": { "num": 1247, "num_inscription": 272, "nom": "HATTAB", "prenom": "MUSTAPHA", "adresse": "CITE EPLF Bt A N° 2 SOUK  ELTENINE, BEJAIA", "wilaya": "Bejaia", "tel": "o3423n22", "fax": "34237222", "email": "compta-hattab@gmail.com", "lat": 36.6279964, "lon": 5.3340282, "to_check": false, "code_wil": 6 }, "geometry": { "type": "Point", "coordinates": [ 5.3340282, 36.627996399999986 ] } },
{ "type": "Feature", "properties": { "num": 738, "num_inscription": 493, "nom": "BOUZEKRI", "prenom": "RACHID", "adresse": "CITE 24 LOGTS LSP, SOUK EL TENINE - BEJAIA", "wilaya": "Bejaia", "tel": "34237666", "fax": "34237666", "email": "ccacbouzekrl@yahoo.fr", "lat": 36.6279732, "lon": 5.3351901, "to_check": false, "code_wil": 6 }, "geometry": { "type": "Point", "coordinates": [ 5.3351901, 36.6279732 ] } },
{ "type": "Feature", "properties": { "num": 667, "num_inscription": 491, "nom": "BOUKHEZAR", "prenom": "AHCENE", "adresse": "ROUTE NATIONALE N\"43 MELBOU CENTRE - BEJAIA", "wilaya": "Bejaia", "tel": "34259405", "fax": "34259405", "email": "ahcenecompta@live.fr", "lat": 36.6527679, "lon": 5.4052413, "to_check": false, "code_wil": 6 }, "geometry": { "type": "Point", "coordinates": [ 5.365684123381641, 36.641337217686484 ] } },
{ "type": "Feature", "properties": { "num": 791, "num_inscription": 670, "nom": "CHALANE", "prenom": "AMAR", "adresse": "ROUTE SIDI AHMED AMRIW OUFELLA - BEJAIA", "wilaya": "Bejaia", "tel": "34205932", "fax": null, "email": "amchatane@yahoo.fr", "lat": 36.7640331, "lon": 5.0598608, "to_check": false, "code_wil": 6 }, "geometry": { "type": "Point", "coordinates": [ 5.0598608, 36.764033099999985 ] } },
{ "type": "Feature", "properties": { "num": 207, "num_inscription": 1044, "nom": "BABA·AISSA", "prenom": "SALIM", "adresse": "PROMO IMOB, EPBTP BLOC A - BEJAIA", "wilaya": "Bejaia", "tel": "34203040", "fax": "34203040", "email": "salim.baba.aissa@gmail.com", "lat": 36.7439243, "lon": 5.0505981, "to_check": false, "code_wil": 6 }, "geometry": { "type": "Point", "coordinates": [ 5.0505981, 36.743924299999989 ] } },
{ "type": "Feature", "properties": { "num": 872, "num_inscription": 1923, "nom": "DAHMANI", "prenom": "OUAFIA", "adresse": "22, RUE DES FRERES MELLALI, SIDI AHMED - BEJAIA", "wilaya": "Bejaia", "tel": null, "fax": null, "email": "ouafiadahmani@yahoo.fr", "lat": 36.7640331, "lon": 5.0598608, "to_check": false, "code_wil": 6 }, "geometry": { "type": "Point", "coordinates": [ 5.0598608, 36.764033099999985 ] } },
{ "type": "Feature", "properties": { "num": 1226, "num_inscription": 91, "nom": "HARANI", "prenom": "MOHAND SAID", "adresse": "LOT BARKET N'59, ROUTE DE SIDI AHMED - BEJAIA", "wilaya": "Bejaia", "tel": "34216939", "fax": "34217691", "email": "mdsaid_harani@yahoo.fr", "lat": 36.7640331, "lon": 5.0598608, "to_check": false, "code_wil": 6 }, "geometry": { "type": "Point", "coordinates": [ 5.0598608, 36.764033099999985 ] } },
{ "type": "Feature", "properties": { "num": 1206, "num_inscription": 1961, "nom": "HAMMOUCHE", "prenom": "NADIR", "adresse": "03 A, Bd KRIM BELKACEM - BEJAIA", "wilaya": "Bejaia", "tel": "34124967", "fax": null, "email": "hamm_nad@hotmail.com", "lat": 36.7484814, "lon": 5.0534258, "to_check": false, "code_wil": 6 }, "geometry": { "type": "Point", "coordinates": [ 5.0534258, 36.748481399999989 ] } },
{ "type": "Feature", "properties": { "num": 2019, "num_inscription": 688, "nom": "TOUAHRI", "prenom": "MOULOUD", "adresse": "CITE DES 50 LOGTS AGHZER AMOKRANE  - BEJAIA", "wilaya": "Bejaia", "tel": "34352260", "fax": "34352260", "email": "mouloud.touahri@yahoo.fr", "lat": 36.7515258, "lon": 5.0556837, "to_check": false, "code_wil": 6 }, "geometry": { "type": "Point", "coordinates": [ 5.0556837, 36.7515258 ] } },
{ "type": "Feature", "properties": { "num": 1846, "num_inscription": 1341, "nom": "SADI AHMED", "prenom": "EL HASSEN", "adresse": "41,CITE TOBAR - BEJAIA", "wilaya": "Bejaia", "tel": "34212595", "fax": null, "email": "hassensadiO@yahoo.fr", "lat": 36.7515258, "lon": 5.0556837, "to_check": false, "code_wil": 6 }, "geometry": { "type": "Point", "coordinates": [ 5.0556837, 36.7515258 ] } },
{ "type": "Feature", "properties": { "num": 1843, "num_inscription": 827, "nom": "SADI", "prenom": "NOUR  EL HOUDA", "adresse": "LOT MOUMEN 1000 LOGTS IHADDADEN -  BEJAIA", "wilaya": "Bejaia", "tel": "34213928", "fax": "34213928", "email": null, "lat": 36.7515258, "lon": 5.0556837, "to_check": false, "code_wil": 6 }, "geometry": { "type": "Point", "coordinates": [ 5.0556837, 36.7515258 ] } },
{ "type": "Feature", "properties": { "num": 1739, "num_inscription": 1813, "nom": "OUATAH", "prenom": "RABAH", "adresse": "CITE 612 LOGTS BT 017 N\"231,5101 AHMED,BEJAIA", "wilaya": "Bejaia", "tel": null, "fax": null, "email": "OUATAHRABAHJHOTMAIL.FR", "lat": 36.7515258, "lon": 5.0556837, "to_check": false, "code_wil": 6 }, "geometry": { "type": "Point", "coordinates": [ 5.0556837, 36.7515258 ] } },
{ "type": "Feature", "properties": { "num": 1521, "num_inscription": 469, "nom": "MAMERI", "prenom": "SAID", "adresse": "CITE 107 LOGTS Bt 84 NACERIA - BEJAIA", "wilaya": "Bejaia", "tel": null, "fax": null, "email": "saidmamerl@hotmail.fr", "lat": 36.7515258, "lon": 5.0556837, "to_check": false, "code_wil": 6 }, "geometry": { "type": "Point", "coordinates": [ 5.0556837, 36.7515258 ] } },
{ "type": "Feature", "properties": { "num": 1399, "num_inscription": 1004, "nom": "KHOULALENE", "prenom": "BOUALEM", "adresse": "RUE DES FRERES BOUAOUDIA,IMMEUBLE RAMDANI - BEJAIA", "wilaya": "Bejaia", "tel": "34226816", "fax": "34226852", "email": "khoulalene@hotmall.com", "lat": 36.7515258, "lon": 5.0556837, "to_check": false, "code_wil": 6 }, "geometry": { "type": "Point", "coordinates": [ 5.0556837, 36.7515258 ] } },
{ "type": "Feature", "properties": { "num": 790, "num_inscription": 617, "nom": "CHALAL", "prenom": "ABDELHAMIO", "adresse": "CITE AMLA  LHADDADEN  LOT 94 SECTION 154 - BEJAIA", "wilaya": "Bejaia", "tel": null, "fax": null, "email": "chalal_hamid@.fr", "lat": 36.7515258, "lon": 5.0556837, "to_check": false, "code_wil": 6 }, "geometry": { "type": "Point", "coordinates": [ 5.0556837, 36.7515258 ] } },
{ "type": "Feature", "properties": { "num": 764, "num_inscription": 1316, "nom": "BRAHMI", "prenom": "ALLAL", "adresse": "24,CHEMIN DES CRETES BP 27 CIDEX N'8 AMRIW - BEJAIA", "wilaya": "Bejaia", "tel": "34212355", "fax": "0342123SS", "email": null, "lat": 36.7515258, "lon": 5.0556837, "to_check": false, "code_wil": 6 }, "geometry": { "type": "Point", "coordinates": [ 5.0556837, 36.7515258 ] } },
{ "type": "Feature", "properties": { "num": 751, "num_inscription": 733, "nom": "BOUZIDI", "prenom": "ABDELHAKIM", "adresse": "CITE 1000 LOGTS BT B 13 N° 411 IHADADENE - BEJAIA", "wilaya": "Bejaia", "tel": "34207332", "fax": null, "email": null, "lat": 36.7515258, "lon": 5.0556837, "to_check": false, "code_wil": 6 }, "geometry": { "type": "Point", "coordinates": [ 5.0556837, 36.7515258 ] } },
{ "type": "Feature", "properties": { "num": 313, "num_inscription": 364, "nom": "BELHOCINE", "prenom": "ABDEREZAK", "adresse": "ROUTE NATIONALE 26, TARKIEZ - BEJAIA", "wilaya": "Bejaia", "tel": "34296249", "fax": "34296249", "email": "b_abder@hotmail.com", "lat": 36.7515258, "lon": 5.0556837, "to_check": false, "code_wil": 6 }, "geometry": { "type": "Point", "coordinates": [ 5.0556837, 36.7515258 ] } },
{ "type": "Feature", "properties": { "num": 43, "num_inscription": 687, "nom": "ADLI", "prenom": "YACINE", "adresse": "CITE DES HAMMADITES BAT 4 N'411 - BEJAIA", "wilaya": "Bejaia", "tel": "34210346", "fax": "34216765", "email": "adliyacine@yahoo.fr", "lat": 36.7515258, "lon": 5.0556837, "to_check": false, "code_wil": 6 }, "geometry": { "type": "Point", "coordinates": [ 5.0556837, 36.7515258 ] } },
{ "type": "Feature", "properties": { "num": 37, "num_inscription": 177, "nom": "ACHOUR", "prenom": "MOHAMMED", "adresse": "05,RUE RABAH ISSAAD - BEJAIA", "wilaya": "Bejaia", "tel": "34109127", "fax": null, "email": null, "lat": 36.7515258, "lon": 5.0556837, "to_check": false, "code_wil": 6 }, "geometry": { "type": "Point", "coordinates": [ 5.0556837, 36.7515258 ] } },
{ "type": "Feature", "properties": { "num": 1796, "num_inscription": 1692, "nom": "RECHERACHE", "prenom": "RAFIK", "adresse": "CITE DOUANIERE IGHIL OUAZOUG - BEJAIA", "wilaya": "Bejaia", "tel": "34101275", "fax": "34101275", "email": "recheracherafik@hotmail.fr", "lat": 36.7291835, "lon": 5.0558028, "to_check": false, "code_wil": 6 }, "geometry": { "type": "Point", "coordinates": [ 5.0558028, 36.729183500000012 ] } },
{ "type": "Feature", "properties": { "num": 2057, "num_inscription": 2280, "nom": "YOUSFI", "prenom": "BOUBEKEUR", "adresse": "CITE ZERRARA-BEJAIA", "wilaya": "Bejaia", "tel": null, "fax": "34818215", "email": "bobyousfi@gmail.com", "lat": 36.7525323, "lon": 5.0580862, "to_check": false, "code_wil": 6 }, "geometry": { "type": "Point", "coordinates": [ 5.0580862, 36.752532299999977 ] } },
{ "type": "Feature", "properties": { "num": 2046, "num_inscription": 700, "nom": "YAHIAOUI", "prenom": "SAID", "adresse": "CITE LES HAMMADITES(SIDI-AHMED) BIS N'532 - BEJAIA", "wilaya": "Bejaia", "tel": "34217048", "fax": "34217048", "email": "yahiaoui_said@hotmail.fr", "lat": 36.7640331, "lon": 5.0598608, "to_check": false, "code_wil": 6 }, "geometry": { "type": "Point", "coordinates": [ 5.0598608, 36.764033099999985 ] } },
{ "type": "Feature", "properties": { "num": 1311, "num_inscription": 192, "nom": "KAROUS", "prenom": "OMAR", "adresse": "IMMEUBLE AKHBIR ROUTE DE SIDI AHMED - BEJAIA", "wilaya": "Bejaia", "tel": "34215809", "fax": null, "email": null, "lat": 36.7640331, "lon": 5.0598608, "to_check": false, "code_wil": 6 }, "geometry": { "type": "Point", "coordinates": [ 5.0598608, 36.764033099999985 ] } },
{ "type": "Feature", "properties": { "num": 921, "num_inscription": 1926, "nom": "DJEBAR", "prenom": "LYES", "adresse": "RESIDENCE EL-YASMINE LOCAL \"A\" SIDI AHMED - BEJAIA", "wilaya": "Bejaia", "tel": null, "fax": null, "email": "djebar_lyes@yahoo.fr", "lat": 36.7640331, "lon": 5.0598608, "to_check": false, "code_wil": 6 }, "geometry": { "type": "Point", "coordinates": [ 5.0598608, 36.764033099999985 ] } },
{ "type": "Feature", "properties": { "num": 303, "num_inscription": 372, "nom": "BELHADI", "prenom": "LAHLOU", "adresse": "CITE 48 LOGTS BP 176, EL KSEUR - BEJAIA", "wilaya": "Bejaia", "tel": "34252923", "fax": null, "email": "belhadi-lahlou@yahoo.fr", "lat": 36.6775376, "lon": 4.8492903, "to_check": false, "code_wil": 6 }, "geometry": { "type": "Point", "coordinates": [ 4.8492903, 36.677537599999987 ] } },
{ "type": "Feature", "properties": { "num": 1656, "num_inscription": 11, "nom": "MOKRANI", "prenom": "MOULOUD", "adresse": "RUE COLONEL LOTFI - JIJEL", "wilaya": "JIJEL", "tel": "34497504", "fax": "41397839", "email": null, "lat": 36.8210144, "lon": 5.7634126, "to_check": false, "code_wil": 6 }, "geometry": { "type": "Point", "coordinates": [ 5.766731059127038, 36.819339118932028 ] } },
{ "type": "Feature", "properties": { "num": 1270, "num_inscription": 1573, "nom": "IGHIT", "prenom": "LAKHAL", "adresse": "LOTISSEMENT AKAL ABERKAN E, EL KSEUR - BEJAIA", "wilaya": "Bejaia", "tel": "o34251441", "fax": "34251441", "email": null, "lat": 36.6814736, "lon": 4.8451828, "to_check": false, "code_wil": 6 }, "geometry": { "type": "Point", "coordinates": [ 4.8451828, 36.681473599999983 ] } },
{ "type": "Feature", "properties": { "num": 1168, "num_inscription": 1958, "nom": "HALOUANE", "prenom": "LYACINE", "adresse": "TAKERIET COMMUNE SOUK OUFELLA - BEJAIA", "wilaya": "Bejaia", "tel": null, "fax": null, "email": "cub3200S@yahoo.fr", "lat": 36.5849197, "lon": 4.6610044, "to_check": false, "code_wil": 6 }, "geometry": { "type": "Point", "coordinates": [ 4.6610044, 36.5849197 ] } },
{ "type": "Feature", "properties": { "num": 804, "num_inscription": 536, "nom": "CHEKKAL", "prenom": "ABDELOUAHAB", "adresse": "IGHZER AMOKRANE CENTRE, COMMUNE OUZLLAGUEN, TAZMALT - BEJAIA", "wilaya": "Bejaia", "tel": null, "fax": null, "email": null, "lat": 36.5450566, "lon": 4.6205497, "to_check": false, "code_wil": 6 }, "geometry": { "type": "Point", "coordinates": [ 4.6205497, 36.545056599999988 ] } },
{ "type": "Feature", "properties": { "num": 1402, "num_inscription": 1677, "nom": "KIROUANE", "prenom": "MOHAMED", "adresse": "03, CHEMIN IGHZER AMOKRANE OUZELLAGUEN - BEJAIA", "wilaya": "Bejaia", "tel": null, "fax": null, "email": "kirouane2002@yahoo.fr", "lat": 36.5450566, "lon": 4.6205497, "to_check": false, "code_wil": 6 }, "geometry": { "type": "Point", "coordinates": [ 4.6205497, 36.545056599999988 ] } },
{ "type": "Feature", "properties": { "num": 527, "num_inscription": 2125, "nom": "BESSAOU", "prenom": "SOUAD", "adresse": "GUENDOUZA RESIDENCE GUELDAMENE,AKBOU - BEJAIA", "wilaya": "Bejaia", "tel": null, "fax": null, "email": "bessaou_souad@hotmail.om", "lat": 36.4518133, "lon": 4.5379472, "to_check": false, "code_wil": 6 }, "geometry": { "type": "Point", "coordinates": [ 4.5379472, 36.451813299999984 ] } },
{ "type": "Feature", "properties": { "num": 18, "num_inscription": 1709, "nom": "ABDELLI", "prenom": "RACHID", "adresse": "AVENUE  DU 01 NOVEMBRE 54(Ex RAHBA) AKBOU, BEJAIA", "wilaya": "Bejaia", "tel": null, "fax": null, "email": null, "lat": 36.4556403, "lon": 4.5365087, "to_check": false, "code_wil": 6 }, "geometry": { "type": "Point", "coordinates": [ 4.5365087, 36.4556403 ] } },
{ "type": "Feature", "properties": { "num": 275, "num_inscription": 780, "nom": "BELAID", "prenom": "DJAMAL", "adresse": "CITE 504 LOGTS Bt07 , PORTE N\"22, AKBOU -  BEJAIA", "wilaya": "Bejaia", "tel": null, "fax": null, "email": "cabinetacf@hotmail.fr", "lat": 36.4556403, "lon": 4.5365087, "to_check": false, "code_wil": 6 }, "geometry": { "type": "Point", "coordinates": [ 4.5365087, 36.4556403 ] } },
{ "type": "Feature", "properties": { "num": 315, "num_inscription": 2106, "nom": "BELHOUL", "prenom": "ATMANE", "adresse": "LOT METIDJI, IMMEUBLE HADDAD FAUBOURG  DE LA GARE, AKBOU - BEJAIA", "wilaya": "Bejaia", "tel": "34354871", "fax": null, "email": "comptexact@gmail.com", "lat": 36.4556403, "lon": 4.5365087, "to_check": false, "code_wil": 6 }, "geometry": { "type": "Point", "coordinates": [ 4.5365087, 36.4556403 ] } },
{ "type": "Feature", "properties": { "num": 1395, "num_inscription": 438, "nom": "KHIMOUZI", "prenom": "BOUDJEMA", "adresse": "01,RUE DE LA GARE AKBOU - BEJAIA", "wilaya": "Bejaia", "tel": "34359203", "fax": "34359202", "email": "khimouzimohamed@hotmail.fr", "lat": 36.4556403, "lon": 4.5365087, "to_check": false, "code_wil": 6 }, "geometry": { "type": "Point", "coordinates": [ 4.5365087, 36.4556403 ] } },
{ "type": "Feature", "properties": { "num": 613, "num_inscription": 2137, "nom": "BOUDRAA", "prenom": "RAFIK", "adresse": "CITE 83 LOGTS Bt G N'26, RESIDENCE GUELDAMENE, AKBOU - BEJAIA", "wilaya": "Bejaia", "tel": "34365271", "fax": null, "email": "cacflducia@gmail.com", "lat": 36.4595996, "lon": 4.5355219, "to_check": false, "code_wil": 6 }, "geometry": { "type": "Point", "coordinates": [ 4.5355219, 36.4595996 ] } },
{ "type": "Feature", "properties": { "num": 420, "num_inscription": 1523, "nom": "BENHAMOUCHE", "prenom": "YOUCEF", "adresse": "RUE LARBI TOUTI, AKBOU - BEJAIA", "wilaya": "Bejaia", "tel": "34360879", "fax": "34360883", "email": "benhamouche_youcef@hotmai1.com", "lat": 36.46336, "lon": 4.5339488, "to_check": false, "code_wil": 6 }, "geometry": { "type": "Point", "coordinates": [ 4.5339488, 36.46336 ] } },
{ "type": "Feature", "properties": { "num": 13, "num_inscription": 772, "nom": "ABDELADIM", "prenom": "YAZID", "adresse": "AVENUE DU 1ER NOVEMBRE AKBOU 06001- BEJAIA", "wilaya": "Bejaia", "tel": "30413034", "fax": "34359309", "email": "abdelad2000@yahoo.fr", "lat": 36.4618975, "lon": 4.5274267, "to_check": false, "code_wil": 6 }, "geometry": { "type": "Point", "coordinates": [ 4.5274267, 36.4618975 ] } },
{ "type": "Feature", "properties": { "num": 151, "num_inscription": 534, "nom": "AMRI", "prenom": "ABDELLAH", "adresse": "AVENUE  DU 1\" NOVEMBRE AKBOU - BEJAIA", "wilaya": "Bejaia", "tel": "34358186", "fax": "34358235", "email": "amriabdellah@yahoo.fr", "lat": 36.4618975, "lon": 4.5274267, "to_check": false, "code_wil": 6 }, "geometry": { "type": "Point", "coordinates": [ 4.5274267, 36.4618975 ] } },
{ "type": "Feature", "properties": { "num": 1930, "num_inscription": 808, "nom": "SIAMER eps  KHEDIS", "prenom": "FARIZA", "adresse": "ARAFOU  AKBOU  -  BEJAIA", "wilaya": "Bejaia", "tel": "34357269", "fax": "34357269", "email": "farizakhedis@hotmail.com", "lat": 36.4597992, "lon": 4.5180517, "to_check": false, "code_wil": 6 }, "geometry": { "type": "Point", "coordinates": [ 4.5180517, 36.4597992 ] } },
{ "type": "Feature", "properties": { "num": 274, "num_inscription": 618, "nom": "BELAID", "prenom": "AH CENE", "adresse": "CENTRE COMMERCIAL, TAZMEL - BEJAIA", "wilaya": "Bejaia", "tel": "34313991", "fax": "34313991", "email": null, "lat": 36.3850764, "lon": 4.4017336, "to_check": false, "code_wil": 6 }, "geometry": { "type": "Point", "coordinates": [ 4.4017336, 36.385076399999988 ] } },
{ "type": "Feature", "properties": { "num": 1175, "num_inscription": 742, "nom": "HAMANI", "prenom": "ZOU BIR", "adresse": "19, RUE BEN MESSAOUD RABIA, 06006 TAZMALT - BEJAIA", "wilaya": "Bejaia", "tel": "34314496", "fax": null, "email": "hamanl.zoublr@yahoo.com", "lat": 36.3903818, "lon": 4.3954971, "to_check": false, "code_wil": 6 }, "geometry": { "type": "Point", "coordinates": [ 4.3954971, 36.3903818 ] } },
{ "type": "Feature", "properties": { "num": 852, "num_inscription": 1756, "nom": "CHIKH", "prenom": "MOURAD", "adresse": "8, RUE GUEMACHE SLIMANE, EL-KSEUR - BEJAIA", "wilaya": "Bejaia", "tel": "34253980", "fax": null, "email": "mourad_chik@yahoo.fr", "lat": 36.6775376, "lon": 4.8492903, "to_check": false, "code_wil": 6 }, "geometry": { "type": "Point", "coordinates": [ 4.8492903, 36.677537599999987 ] } },
{ "type": "Feature", "properties": { "num": 1754, "num_inscription": 2026, "nom": "OUHAB", "prenom": "SAUMA", "adresse": "MARCHE COUVERT LOCAL N'20, EDIMCO - BEJAIA", "wilaya": "Bejaia", "tel": "34113218", "fax": null, "email": null, "lat": 39.9533113, "lon": -75.15943, "to_check": false, "code_wil": 6 }, "geometry": { "type": "Point", "coordinates": [ 5.049409301739274, 36.745046770666519 ] } },
{ "type": "Feature", "properties": { "num": 6, "num_inscription": 1222, "nom": "ABBANE", "prenom": "MAKHLOUF", "adresse": "VILLAGE BIRMATOU COMMUNE DE TINEBOAR - BEJAIA", "wilaya": "Bejaia", "tel": "34251267", "fax": "34251267", "email": "makhlouf2012abbane@hotmail.fr", "lat": 36.6258265, "lon": 4.685691, "to_check": false, "code_wil": 6 }, "geometry": { "type": "Point", "coordinates": [ 4.685691, 36.6258265 ] } },
{ "type": "Feature", "properties": { "num": 1142, "num_inscription": 898, "nom": "HADIDI", "prenom": "MEHAMED", "adresse": "CITE 216 LOGTS SIDI AICH - BEJAIA", "wilaya": "Bejaia", "tel": "34292344", "fax": "34292344", "email": "mehmet9dz@yahoo.fr", "lat": 36.6097178, "lon": 4.6901722, "to_check": false, "code_wil": 6 }, "geometry": { "type": "Point", "coordinates": [ 4.6901722, 36.6097178 ] } },
{ "type": "Feature", "properties": { "num": 1771, "num_inscription": 578, "nom": "OUYAHIA", "prenom": "AMAR", "adresse": "MEROT 1BLOC B 33, TAZMALT - BEJAIA", "wilaya": "Bejaia", "tel": "30406226", "fax": null, "email": "ouyahia_fr@yahoo.com", "lat": 36.3903818, "lon": 4.3954971, "to_check": false, "code_wil": 6 }, "geometry": { "type": "Point", "coordinates": [ 4.3954971, 36.3903818 ] } },
{ "type": "Feature", "properties": { "num": 1389, "num_inscription": 2214, "nom": "KHETTAL", "prenom": "ELHADI", "adresse": "BENI MAOUCHE CENTRE, BLOC 82 N'29 - BEJAIA", "wilaya": "Bejaia", "tel": null, "fax": null, "email": "asilemzi@yaho.fr", "lat": 36.5052688, "lon": 4.7623453, "to_check": false, "code_wil": 6 }, "geometry": { "type": "Point", "coordinates": [ 4.7623453, 36.5052688 ] } },
{ "type": "Feature", "properties": { "num": 128, "num_inscription": 1040, "nom": "ALOUI", "prenom": "AZIZ", "adresse": "QUARTIER DE LA GARE,SIDI AICH - BEJAIA", "wilaya": "Bejaia", "tel": "34291425", "fax": "34291425", "email": "alouiaziz-cab@live.fr", "lat": 36.6097178, "lon": 4.6901722, "to_check": false, "code_wil": 6 }, "geometry": { "type": "Point", "coordinates": [ 4.6901722, 36.6097178 ] } },
{ "type": "Feature", "properties": { "num": 2077, "num_inscription": 1351, "nom": "ZEBOUDJI", "prenom": "DJEBAR", "adresse": "LOT N°03 AKAL ABERKANE,  EL KASEUR - BEJAIA", "wilaya": "Bejaia", "tel": "34251441", "fax": null, "email": null, "lat": 36.6814736, "lon": 4.8451828, "to_check": false, "code_wil": 6 }, "geometry": { "type": "Point", "coordinates": [ 4.8451828, 36.681473599999983 ] } },
{ "type": "Feature", "properties": { "num": 1645, "num_inscription": 462, "nom": "MOHAMMED!", "prenom": "SLIMANE", "adresse": "03, AVENUE ZAATCHA - BISKRA", "wilaya": "Biskra", "tel": "33746329", "fax": null, "email": "slim07dz@yahoo.fr", "lat": 34.853425, "lon": 5.724744, "to_check": false, "code_wil": 7 }, "geometry": { "type": "Point", "coordinates": [ 5.724744, 34.853425 ] } },
{ "type": "Feature", "properties": { "num": 1122, "num_inscription": 1953, "nom": "HACHAN!", "prenom": "LAID", "adresse": "CITE BILAL N' 05 - BISKRA", "wilaya": "Biskra", "tel": "33534363", "fax": "33534363", "email": "hachlaid@gmall.com", "lat": 34.8449437, "lon": 5.7248567, "to_check": false, "code_wil": 7 }, "geometry": { "type": "Point", "coordinates": [ 5.7248567, 34.8449437 ] } },
{ "type": "Feature", "properties": { "num": 1328, "num_inscription": 1785, "nom": "KERDOUDI", "prenom": "SALIM", "adresse": "CITE 362 LOTS N\"288 ELA LIA NORD - BISKRA", "wilaya": "Biskra", "tel": null, "fax": null, "email": "KERDOUDSALIM@GMAIL.COM", "lat": 34.8449437, "lon": 5.7248567, "to_check": false, "code_wil": 7 }, "geometry": { "type": "Point", "coordinates": [ 5.7248567, 34.8449437 ] } },
{ "type": "Feature", "properties": { "num": 1361, "num_inscription": 1212, "nom": "KHAZANI", "prenom": "SIF EDDINE", "adresse": "CITE DJOUAD, RUE DJEFFALAMARA - BISKRA", "wilaya": "Biskra", "tel": "03353OO38", "fax": "03353OO38", "email": "CACCA.KHAZANl@YAHOO.COM", "lat": 34.8449437, "lon": 5.7248567, "to_check": false, "code_wil": 7 }, "geometry": { "type": "Point", "coordinates": [ 5.7248567, 34.8449437 ] } },
{ "type": "Feature", "properties": { "num": 122, "num_inscription": 1228, "nom": "ALLAOUI", "prenom": "HICHEM", "adresse": "RUE BOUZIENNE AHMED TOLGA - BISKRA", "wilaya": "Biskra", "tel": null, "fax": null, "email": null, "lat": 34.9346106, "lon": 5.1305127, "to_check": false, "code_wil": 7 }, "geometry": { "type": "Point", "coordinates": [ 5.382584177550521, 34.730637388617374 ] } },
{ "type": "Feature", "properties": { "num": 1711, "num_inscription": 674, "nom": "NEDJAI", "prenom": "ALI", "adresse": "COOPERATIVE IMMOB EL-EZDIHAR N°99 BP 968 RP 07000 - BISKRA", "wilaya": "Biskra", "tel": null, "fax": "33712525", "email": "alinedjai@yahoo.fr", "lat": 34.8449437, "lon": 5.7248567, "to_check": false, "code_wil": 7 }, "geometry": { "type": "Point", "coordinates": [ 5.7248567, 34.8449437 ] } },
{ "type": "Feature", "properties": { "num": 1880, "num_inscription": 2260, "nom": "SALHI", "prenom": "OUAHIBA", "adresse": "CITE BEN GANA, LOT 186 N'99 - BISKRA", "wilaya": "Biskra", "tel": null, "fax": null, "email": null, "lat": 34.8449437, "lon": 5.7248567, "to_check": false, "code_wil": 7 }, "geometry": { "type": "Point", "coordinates": [ 5.7248567, 34.8449437 ] } },
{ "type": "Feature", "properties": { "num": 2037, "num_inscription": 673, "nom": "TROUDl", "prenom": "ALI", "adresse": "CITE 82 LOGTS LOCAUX 18 ET 19 - BISKRA", "wilaya": "Biskra", "tel": "33756537", "fax": "33756537", "email": "alitroudi@gmail.com", "lat": 34.8449437, "lon": 5.7248567, "to_check": false, "code_wil": 7 }, "geometry": { "type": "Point", "coordinates": [ 5.7248567, 34.8449437 ] } },
{ "type": "Feature", "properties": { "num": 1111, "num_inscription": 922, "nom": "GUETIAF", "prenom": "NABIL", "adresse": "BP N'OS LOT B ,ALIA - BISKRA", "wilaya": "Biskra", "tel": "33752515", "fax": "33752515", "email": "guettainabll@yahoo.fr", "lat": 34.8449437, "lon": 5.7248567, "to_check": false, "code_wil": 7 }, "geometry": { "type": "Point", "coordinates": [ 5.7248567, 34.8449437 ] } },
{ "type": "Feature", "properties": { "num": 1968, "num_inscription": 2051, "nom": "TABBECH", "prenom": "FELLA", "adresse": "CITE 36 LOGTS CNEP OULED-DJELLAL - BISKRA", "wilaya": "Biskra", "tel": null, "fax": null, "email": null, "lat": 34.4294289, "lon": 5.0681159, "to_check": false, "code_wil": 7 }, "geometry": { "type": "Point", "coordinates": [ 5.0681159, 34.4294289 ] } },
{ "type": "Feature", "properties": { "num": 894, "num_inscription": 2158, "nom": "DENDANI", "prenom": "BELOASSIM", "adresse": "LOTS 12 N° 08, ZONE URBINE EST, EL ALIA - BISKRA", "wilaya": "Biskra", "tel": "33525253", "fax": "33525253", "email": "w.dendanl@yahoo.com", "lat": 34.8430085, "lon": 5.7541963, "to_check": false, "code_wil": 7 }, "geometry": { "type": "Point", "coordinates": [ 5.7541963, 34.8430085 ] } },
{ "type": "Feature", "properties": { "num": 2114, "num_inscription": 1239, "nom": "ZOU BIRI", "prenom": "WAHID", "adresse": "17, RUE EL EULMI DJEFAL, HAI EL MOUDJAHIDINE  - BISKRA", "wilaya": "Biskra", "tel": null, "fax": null, "email": "w.zoubiri@gmail.com", "lat": 34.8620864, "lon": 5.7155039, "to_check": false, "code_wil": 7 }, "geometry": { "type": "Point", "coordinates": [ 5.7155039, 34.86208640000001 ] } },
{ "type": "Feature", "properties": { "num": 1082, "num_inscription": 1473, "nom": "GORMI", "prenom": "MOHAMED·LAID", "adresse": "61,CITE 20 AOUT, OULED DJELLAL - BISKRA", "wilaya": "Biskra", "tel": "33761644", "fax": null, "email": "laid063@gmail.com", "lat": 34.4294289, "lon": 5.0681159, "to_check": false, "code_wil": 7 }, "geometry": { "type": "Point", "coordinates": [ 5.0681159, 34.4294289 ] } },
{ "type": "Feature", "properties": { "num": 2017, "num_inscription": 246, "nom": "TOBBECHE", "prenom": "SALAH", "adresse": "GARE ROUTIERE 1er ETAGE, ROUTE DE BATNA - BISKRA", "wilaya": "Biskra", "tel": "33758221", "fax": "33758221", "email": "tsalah_cac@yahoo.fr", "lat": 35.5634192, "lon": 6.1889996, "to_check": false, "code_wil": 7 }, "geometry": { "type": "Point", "coordinates": [ 5.736099911240954, 34.848264126715478 ] } },
{ "type": "Feature", "properties": { "num": 2018, "num_inscription": 2059, "nom": "TORCHI", "prenom": "MOUSSA", "adresse": "COOP IMMOBILIERE REDHA HOUHOU ZONE OUEST 03 - BISKRA", "wilaya": "Biskra", "tel": "33509564", "fax": "33509564", "email": "moussa.torchi@gmail.com", "lat": 34.8449437, "lon": 5.7248567, "to_check": false, "code_wil": 7 }, "geometry": { "type": "Point", "coordinates": [ 5.7248567, 34.8449437 ] } },
{ "type": "Feature", "properties": { "num": 969, "num_inscription": 573, "nom": "DJOUAMA", "prenom": "MOHAMED", "adresse": "RUE REZOUZ AMAR - BISKRA", "wilaya": "Biskra", "tel": "33738956", "fax": null, "email": null, "lat": 34.8449437, "lon": 5.7248567, "to_check": false, "code_wil": 7 }, "geometry": { "type": "Point", "coordinates": [ 5.7248567, 34.8449437 ] } },
{ "type": "Feature", "properties": { "num": 1499, "num_inscription": 337, "nom": "MAAOUI", "prenom": "NACEUR", "adresse": "RUE ZIRE BACHIR N' 32 - BISKRA", "wilaya": "Biskra", "tel": "33734670", "fax": null, "email": null, "lat": 34.8449437, "lon": 5.7248567, "to_check": false, "code_wil": 7 }, "geometry": { "type": "Point", "coordinates": [ 5.7248567, 34.8449437 ] } },
{ "type": "Feature", "properties": { "num": 631, "num_inscription": 746, "nom": "BOUHALI epse TROU Dl", "prenom": "DJAMILA", "adresse": "CITE ELATEX BLOC DOS - BISKRA", "wilaya": "Biskra", "tel": "33756336", "fax": "33749481", "email": "troudi-fr2000@yahoo.fr", "lat": 34.8449437, "lon": 5.7248567, "to_check": false, "code_wil": 7 }, "geometry": { "type": "Point", "coordinates": [ 5.7248567, 34.8449437 ] } },
{ "type": "Feature", "properties": { "num": 1484, "num_inscription": 853, "nom": "LITIM", "prenom": "ALI", "adresse": "N°l86 CITE 500 LOGTS COMMUN CHETMA - BISKRA", "wilaya": "Biskra", "tel": "03375OO42", "fax": "33750042", "email": "cab.litimali@yahoo.fr", "lat": 34.8497845, "lon": 5.7888475, "to_check": false, "code_wil": 7 }, "geometry": { "type": "Point", "coordinates": [ 5.7888475, 34.8497845 ] } },
{ "type": "Feature", "properties": { "num": 330, "num_inscription": 215, "nom": "BELLOU FI", "prenom": "ABDELHAKIM", "adresse": "EL ALIA - BISKRA", "wilaya": "Biskra", "tel": "33714206", "fax": null, "email": null, "lat": 34.8550991, "lon": 5.7470972, "to_check": false, "code_wil": 7 }, "geometry": { "type": "Point", "coordinates": [ 5.7470972, 34.8550991 ] } },
{ "type": "Feature", "properties": { "num": 1496, "num_inscription": 518, "nom": "MAALLA", "prenom": "MOHAMMED", "adresse": "LOT BOUZAHER  N°09 EL ALIA EST - BISKRA", "wilaya": "Biskra", "tel": "33750279", "fax": "33750279", "email": "maalla07@yahoo.fr", "lat": 34.8550991, "lon": 5.7470972, "to_check": false, "code_wil": 7 }, "geometry": { "type": "Point", "coordinates": [ 5.7470972, 34.8550991 ] } },
{ "type": "Feature", "properties": { "num": 907, "num_inscription": 1335, "nom": "DIFALLAH", "prenom": "LAKHDAR", "adresse": "CITE 04 VILLA HOPITAL BACHIR BENACEUR - BISKRA", "wilaya": "Biskra", "tel": null, "fax": null, "email": null, "lat": 34.849527, "lon": 5.7435067, "to_check": false, "code_wil": 7 }, "geometry": { "type": "Point", "coordinates": [ 5.7435067, 34.849527 ] } },
{ "type": "Feature", "properties": { "num": 135, "num_inscription": 480, "nom": "AMEUR", "prenom": "RABAH", "adresse": "HAI GARE ROUTIERE, RUE HALIMI RACHID N\"07 - BISKRA", "wilaya": "Biskra", "tel": null, "fax": "33507691", "email": "ramda_rabah@yahoo.fr", "lat": 34.8466489, "lon": 5.7339908, "to_check": false, "code_wil": 7 }, "geometry": { "type": "Point", "coordinates": [ 5.7339908, 34.8466489 ] } },
{ "type": "Feature", "properties": { "num": 732, "num_inscription": 1285, "nom": "BOUTINA", "prenom": "ABDELHAK", "adresse": "317, BOUTALEB - BISKRA", "wilaya": "Biskra", "tel": null, "fax": null, "email": null, "lat": 34.8449437, "lon": 5.7248567, "to_check": false, "code_wil": 7 }, "geometry": { "type": "Point", "coordinates": [ 5.7248567, 34.8449437 ] } },
{ "type": "Feature", "properties": { "num": 219, "num_inscription": 1218, "nom": "SADI", "prenom": "TAHAR", "adresse": "91, RUE NEDJAR MEO HAI El OUED - BISKRA", "wilaya": "Biskra", "tel": null, "fax": null, "email": null, "lat": 34.8533182, "lon": 5.7334047, "to_check": false, "code_wil": 7 }, "geometry": { "type": "Point", "coordinates": [ 5.7334047, 34.8533182 ] } },
{ "type": "Feature", "properties": { "num": 975, "num_inscription": 1334, "nom": "DJOUDI", "prenom": "MOHAMED  HICHEM", "adresse": "RUE DES FRERES MENANI - BISKRA", "wilaya": "Biskra", "tel": "33746990", "fax": "33746997", "email": "djcompta@gmail.com", "lat": 34.8536887, "lon": 5.7324884, "to_check": false, "code_wil": 7 }, "geometry": { "type": "Point", "coordinates": [ 5.7324884, 34.8536887 ] } },
{ "type": "Feature", "properties": { "num": 1121, "num_inscription": 417, "nom": "HACHAN!", "prenom": "ABDELHAFID", "adresse": "01,Bd EMIR ABDELKA DER - BISKRA", "wilaya": "Biskra", "tel": "33746902", "fax": "33747287", "email": "hachaniabdelhafid@yahoo.fr", "lat": 34.8558289, "lon": 5.7255262, "to_check": false, "code_wil": 7 }, "geometry": { "type": "Point", "coordinates": [ 5.7255262, 34.855828899999977 ] } },
{ "type": "Feature", "properties": { "num": 1476, "num_inscription": 393, "nom": "LEGOUERA", "prenom": "MOSTEFA", "adresse": "CITE DU 5 JUILLET  LOCAL 08 Bt N° 07, TOLGA - BISKRA", "wilaya": "Biskra", "tel": "33787762", "fax": "33787762", "email": "lagmostafa@hotmail.fr", "lat": 34.9346106, "lon": 5.1305127, "to_check": false, "code_wil": 7 }, "geometry": { "type": "Point", "coordinates": [ 5.383009420613474, 34.730637388617367 ] } },
{ "type": "Feature", "properties": { "num": 1860, "num_inscription": 1615, "nom": "SAHRAOUI", "prenom": "LYNDA", "adresse": "CITÉ 96 LOGEMENTS SIDI OKBA - BISKRA", "wilaya": "Biskra", "tel": null, "fax": null, "email": "sahraoul.li@yahoo.com", "lat": 34.7505874, "lon": 5.9084077, "to_check": false, "code_wil": 7 }, "geometry": { "type": "Point", "coordinates": [ 5.9084077, 34.7505874 ] } },
{ "type": "Feature", "properties": { "num": 489, "num_inscription": 948, "nom": "BENSMINA", "prenom": "MOHAMED LARBI", "adresse": "RUE LAROUSSI ELWARDI - BISKRA", "wilaya": "Biskra", "tel": null, "fax": null, "email": null, "lat": 34.8449437, "lon": 5.7248567, "to_check": false, "code_wil": 7 }, "geometry": { "type": "Point", "coordinates": [ 5.7248567, 34.8449437 ] } },
{ "type": "Feature", "properties": { "num": 455, "num_inscription": 1080, "nom": "BENNADJI", "prenom": "HANANE", "adresse": "CITE 748 LOGTS ALIA - BISKRA", "wilaya": "Biskra", "tel": "33742336", "fax": "33742336", "email": "han.ane.811@hotmail.com", "lat": 34.8449437, "lon": 5.7248567, "to_check": false, "code_wil": 7 }, "geometry": { "type": "Point", "coordinates": [ 5.7248567, 34.8449437 ] } },
{ "type": "Feature", "properties": { "num": 57, "num_inscription": 706, "nom": "AHMEDGAID", "prenom": "NOUREDDINE", "adresse": "AVENUE  HAMOUDA BEN ABDRAZAK - BISKRA", "wilaya": "Biskra", "tel": "33743505", "fax": "33743505", "email": "ahmedgaid2000@hotmail.fr", "lat": 34.8449437, "lon": 5.7248567, "to_check": false, "code_wil": 7 }, "geometry": { "type": "Point", "coordinates": [ 5.7248567, 34.8449437 ] } },
{ "type": "Feature", "properties": { "num": 212, "num_inscription": 2093, "nom": "BACHA", "prenom": "KAMEL", "adresse": "23, RUE MOHAMED EL CHERIF - BISKRA", "wilaya": "Biskra", "tel": "0335185BO", "fax": null, "email": "kamelbacha@outlouk.fr", "lat": 34.8449437, "lon": 5.7248567, "to_check": false, "code_wil": 7 }, "geometry": { "type": "Point", "coordinates": [ 5.7248567, 34.8449437 ] } },
{ "type": "Feature", "properties": { "num": 1963, "num_inscription": 352, "nom": "SOUKEUR", "prenom": "DJAMEL", "adresse": "09, RUE KHALED ABDELHAMID,  CITE 08 MAI 1945 OULED DJELLAL - BISKRA", "wilaya": "Biskra", "tel": null, "fax": "33763710", "email": "dsekeur@yahoo.fr", "lat": 34.4294289, "lon": 5.0681159, "to_check": false, "code_wil": 7 }, "geometry": { "type": "Point", "coordinates": [ 5.0681159, 34.4294289 ] } },
{ "type": "Feature", "properties": { "num": 542, "num_inscription": 489, "nom": "BOUADI", "prenom": "BRAHIM", "adresse": "LOT 481, HAI EL BADR - BECHAR", "wilaya": "Bechar", "tel": "49219396", "fax": "49219396", "email": null, "lat": null, "lon": null, "to_check": false, "code_wil": 8 }, "geometry": { "type": "Point", "coordinates": [ -2.224766160230372, 31.592115775238394 ] } },
{ "type": "Feature", "properties": { "num": 60, "num_inscription": 911, "nom": "AHMIEDI", "prenom": "ABDELKADER", "adresse": "66, AVENU E DU SAHARA  BP 359 - BECHAR", "wilaya": "Bechar", "tel": "49819746", "fax": "49816758", "email": "aekahmiedi12@yahoo.fr", "lat": 31.6238098, "lon": -2.2162443, "to_check": false, "code_wil": 8 }, "geometry": { "type": "Point", "coordinates": [ -2.2162443, 31.6238098 ] } },
{ "type": "Feature", "properties": { "num": 105, "num_inscription": 1710, "nom": "ALAOUI", "prenom": "LAKHDAR", "adresse": "HAI EL FATH LOGTS LSP N'156,DEBAABA - BECHAR", "wilaya": "Bechar", "tel": "49801551", "fax": "49801551", "email": "ALAOUI.LAKHDAR@HOTMAIL.FR", "lat": 31.6238098, "lon": -2.2162443, "to_check": false, "code_wil": 8 }, "geometry": { "type": "Point", "coordinates": [ -2.2162443, 31.6238098 ] } },
{ "type": "Feature", "properties": { "num": 994, "num_inscription": 183, "nom": "EL-HABIB DAHO", "prenom": "BENAOUDA SALAH EDDINE", "adresse": "66, AVENUE  DU 1er NOVEMBRE 1954, BP 359 - BECHAR", "wilaya": "Bechar", "tel": "49219746", "fax": "49219747", "email": "hdbsoB@yahoo.fr", "lat": 31.6238098, "lon": -2.2162443, "to_check": false, "code_wil": 8 }, "geometry": { "type": "Point", "coordinates": [ -2.2162443, 31.6238098 ] } },
{ "type": "Feature", "properties": { "num": 1582, "num_inscription": 2006, "nom": "MELLOUKI", "prenom": "ALI", "adresse": "RUE SI ALI BENBOUALEM N' 140 - BECHAR", "wilaya": "Bechar", "tel": null, "fax": null, "email": null, "lat": 31.6238098, "lon": -2.2162443, "to_check": false, "code_wil": 8 }, "geometry": { "type": "Point", "coordinates": [ -2.2162443, 31.6238098 ] } },