num,name,address,code_wil,Tribunal,tel,status,lat,lon
1,BARIK BOUDJEMAA,CITE 103 LOGTS BP 575 Adrar,1,Adrar,049 96 53 89,physical,28.0174403,-0.2642497
2,BENHADJ AHMED,CITE DES 40 LOGTS LOCAL 25 Adrar,1,Adrar,049 96 67 26,physical,28.0174403,-0.2642497
3,AZZOU ABD ERRAHMANE,Rue Amrad Cité OULED ANKAL Adrar,1,Adrar,049 96 53 19,physical,,
4,MIMOUNI ABDELKADER,"Rue Mokadem El Arbi, lot 30 Group 191 Adrar",1,Adrar,0665 01 20 18,physical,,
5,OULED ALI AHMED,Cité 60 Logements Timimoun Adrar ,1,Timimoun,0555 40 62 94,physical,,
6,AROUCHE HOCINE,CITE BEN HAMMADI ALLAL Timimoun Adrar,1,Timimoun*,,physical,29.2616911,0.2415964
7,BELLAOUI ABDELKADER,Cité casbah Aoulef Adrar,1,Aoulef,0550 40 62 94,physical,,
4,BOUDJELTIA ABDELKADER,42 RUE DES MARTYRS Chlef,2,,,,36.1579664,1.3372823
5,BEN M'HAMED ABDELLAH,53 RUE DE LA REPUBLIQUE Chlef,2,,,,36.1663176,1.3368035
6,BEZIOU MOHAMED,CENTRE COMMERCIAL BOUKADIR Boukadir Chlef,2,,,,36.060248,1.1305809
7,BENOUSSAR AHMED,2 RUE DE LA RESISTANCE Chlef,2,,,,36.1667634,1.3361096
8,HAMADOUCHE ROKIA,4 RUE SI ALLEL Chlef,2,,,,36.1579664,1.3372823
9,SAMET BOUHAYEK DJILLALI,26 RUE EL MOUSSAAD AZZOUN Chlef,2,,,,36.1579664,1.3372823
10,KELLOUCHE ABDELKADER,RUE DES MARTYRS Chlef,2,,,,36.1664031,1.3361486
11,BEN DAOUDIA DRISS,1 CITE 136 LOGTS BT I Chlef,2,,,,36.1579664,1.3372823
12,TERBAK ABDELKADER,24 RUE EL KODS Tenes Chlef,2,,,,36.503668,1.2857665
13,HADJ SADOUK MALIKA,RUE EMIR ABDELKADER Chlef,2,,,,36.1579664,1.3372823
14,MAKHFI MOKHTAR,RUE LES FRERES BEN SOULTAN BP 137 Tenes Chlef,2,,,,36.5081163,1.3078225
15,BEN SAADA MOUSTAPHA,27 RUE DE LA RESISTANCE Chlef,2,,,,36.1659828,1.3363526
16,TEKIA ABDELHAMID,CITE DES FONCTIONNAIRES BT C/1 EMIR ABDELKADER Chlef,2,,,,36.1696316,1.3410486
17,HAMADOUCHE ABDELKADER,4 RUE SI ALLAL Chlef,2,,,,36.1667158,1.3371104
18,DAHMANE SBAIHIA M'HAMED,14 RUE IBN ROCHD Chlef,2,,,,36.1579664,1.3372823
19,AMARI SIHEM,RUE MOSQUEE EL IMEM EL HOUSAIN CITE MAAMOURA Laghouat,3,,,,33.8078341,2.8628294
20,DJERADI YOUCEF,RUE AMIR ABDELKADER CITE EL GHARBIA Laghouat,3,,,,33.8041979,2.8787076
21,SLIMANI MOHAMED,CITE EL MAAMOURA Laghouat,3,,,,33.8078341,2.8628294
22,EL TAHER MAHFOUD,RUE AKKARI BELKACEM Aflou Laghouat,3,,,,34.1139518,2.0973854
23,SASSI HAMID,CITE 1ER NOVEMBRE 54 BT 01 ETAGE 21 Oum El Bouaghi,4,,,,35.8688789,7.1108266
24,BELILI MOHAMED,CITE HIHI EL MEKI BP 163 Oum El Bouaghi,4,,,,35.8742956,7.1225851
25,HAFID SEBTI,AVENUE ZIDOUNI AMARA Ain Beida  Oum El Bouaghi,4,,,,35.7958379,7.3902546
26,BOULKAYLA ALI,RUE ZAOUI ABEDELMADJID Ain Beida  Oum El Bouaghi,4,,,,35.796101,7.3903528
27,BOUDHRAA NADIR,23 RUE IDIR AISSAT Ain M'lila  Oum El Bouaghi,4,,,,36.0370574,6.5702778
28,HILAL RACHID,CITE DES 30 LOGTS Ain Fakroun  Oum El Bouaghi,4,,,,35.9772098,6.8733714
29,YEKHLEF AMAR,9 AVENUE RICHI Ain M'lila  Oum El Bouaghi,4,,,,36.0343972,6.5737863
30,KADEM ABDEREZAK,CITE BEN BOULAID 1150 Oum El Bouaghi,4,,,,35.8688789,7.1108266
31,BOUTEGHRAR ALLAOUA,33 RUE DES FRERES BOUAABSSA Batna,5,,,,35.5634192,6.1889996
32,BENHOUDA BRAHIM,5 BD BENFLIS Batna,5,,,,35.5321898,6.1686094
33,BOUHARA SAID,CITE DES 50 LOGTS BT B ETAGE 13 Batna,5,,,,35.5634192,6.1889996
34,BOUBGUIRA KAMEL,CITE 20 AOUT 1955 Batna,5,,,,35.5561749,6.1720883
35,DELINDA KAMEL,15 RUE CHENAF AMAR QUARTIER VERDURE Batna,5,,,,35.5321898,6.1686094
36,DALINDA SAID,19 PROM IMMOBILIERE BOUZERIA LES ALLEES 19 MARS BLOC 19 1ER ETAGE Batna,5,,,,35.5634192,6.1889996
37,MAARAF ABEDSSELEM,3 RUE LARBI TEBESSI Batna,5,,,,35.5519634,6.1781831
38,BELOUM ABEDELLAH,6 RUE KOUBABI ALI CITE EMIR ABDELKADER Barika Batna,5,,,,35.3844754,5.3713596
39,BELKADHI KHALIFA,6 CITE 200 LOGTS BLOC A Merouana Batna,5,,,,35.6320745,5.9131539
40,BEN HAFIDH AMAR,AVENUE SAID RAHMANI AIN TOUTA Ain Touta Batna,5,,,,35.3808071,5.9020128
41,MADJOUR AISSA,27 CITE FRERES DIBABI BOUAKAL 3EME Batna,5,,,,35.5355017,6.174758
42,BARKAT TAHER,CITE 410 LOGTS BAT 36 Batna,5,,,,35.5634192,6.1889996
43,YOUB KELTHOUM,30 RUE DES FRERES BOUADSA Batna,5,,,,35.5634192,6.1889996
44,ZEKRAOUI BELKACEM,01 ALLES SALAH NEZZAR Batna,5,,,,35.5460591,6.1710809
45,BEKHOUCHE AHMED,RUE MOUSTAPHA BEN BOULAID Batna,5,,,,35.5634192,6.1889996
46,LEBRARA ABDERRAHMANE,RUE  1ER NOVEMBRE 1954 Barika Batna,5,,,,35.3877205,5.3704047
47,LAHDIRI AMAR,BOULEVARD DE LA REVOLUTION Bejaia,6,,,,36.7493649,5.0592183
48,KASSI HOCINE,RESIDENCE DE LA FORET SACREE AVENUE AMIROUCHE Bejaia,6,,,,36.7541855,5.0813739
49,BOUFEDJAR LARBI,ROUTE DES AURESS BT C2 NACERIA Bejaia,6,,,,36.7645536,5.0594622
50,BOUKHARI ZAKIA,96 LOGTS BT A4 28 TOUBALE Bejaia,6,,,,36.7515258,5.0556837
51,BOUGUERA ALI IBN KHEMISTI,CITE DU 1ER NOVEMBRE 54 Kherrata Bejaia,6,,,,36.4936399,5.2770714
52,TAZAMOUCHT NEDJIMA,CITE DES 24 LOGTS ZONE INDUSTRIELLE COMMERCIALE BT A Souk Eltenine Bejaia,6,,,,36.6241834,5.3365405
53,KHABCHECHE EL HAFSSI,AVENUE DU 1ER NOVEMBRE 1954 Kherrata Bejaia,6,,,,36.7493649,5.0592183
54,IDER BELAID,CITE FIGHOU Tazmalt Bejaia,6,,,,36.6241834,5.3365405
55,DAHMANI YOUCEF,RUE DE LA LIBERTE TOUR GENI SIDER 1ER ETAGE Bejaia,6,,,,36.7515258,5.0556837
56,CHEMROUK NADIA,QUAI DE LA GARE Sidi Aich Bejaia,6,,,,36.7493649,5.0592183
57,CHAOU HAMOU,RUE DES FRERES HAFFIF SIDI AHMED Bejaia ,6,,,,36.7493649,5.0592183
58,KATI AHMED,CITE 300 LOGTS NACERIA BT 31 Bejaia,6,,,,36.7406681,5.0461954
59,IBERAKENE IDIR,CITE AGHZEZ AMOKRANE RN N 26 OUZELEKENE Bejaia,6,,,,36.7493649,5.0592183
60,MOHAND CHERIF HASSINA,40 LOGTS BT B 05 RUE DES FRERES DOUAOUDIA Bejaia,6,,,,36.7515258,5.0556837
61,BEN KADOUR LAKHAL,23 CITE 80 LOGTS BT B5 Sidi Aich Bejaia,6,,,,36.6097178,4.6901722
62,AZOUI SALAH,RUE ABDAOUI ABDERAHMANE Biskra,7,,,,34.8553366,5.733139
63,TOUTI FERHAT,2 AVE BELLILI ABOUBAKER SEDDIK Biskra,7,,,,34.8449437,5.7248567
64,SAADAOUI ABED EL HAMID,19 RUE EMIR ABDELKADER Biskra,7,,,,34.8558289,5.7255262
65,SEKOUR MOHAMED,RUE 24 AVRIL Biskra,7,,,,34.8449437,5.7248567
66,BEN MECHICHE ABED EL AZIZ,RUE DES FRERES MENANI Biskra,7,,,,34.8536887,5.7324884
67,BOUSTTA MOHAMED,1 RUE MOHAMED NEDJAR Biskra,7,,,,34.8533182,5.7334047
68,BEN HOURIA BRAHIM,RUE 1er NOVEMBRE 1954 Ouled Djellal Biskra,7,,,,34.4285554,5.0682965
69,MANSOURE ABD NACER,35 RUE MOHAMED EL ARBI BAARIR Biskra,7,,,,34.8567404,5.7254007
70,ABED EL BAKI BEN OMAR,141 CITE ESSADA Tolga Biskra,7,,,,34.7291802,5.3802134
71,LAABABI HAFIDHA,CITE EL EMIR ABDELKADER 129 BT 1 CTRE VILLE Bechar,8,,,,31.6238098,-2.2162443
72,CHEBAH CHERIF,CITE 70 LOGTS 5 Beni Abbes Bechar,8,,,,30.1312217,-2.1662258
73,AMRI BACHIR,531 CITE EL BADR Bechar,8,,,,31.6238098,-2.2162443
74,DJABRI EL BACHIR,CITE 62 LOGTS 55 CTRE VILLE Bechar,8,,,,31.6238098,-2.2162443
75,HAMMOUDA MOHAMED,RUE SBIHI MEHDI Larbaa Blida,9,,,,36.5658397,3.1563962
76,KECHOUT ABDELLATIF,36 RUE MOHAMED BOUDIAF Blida,9,,,,36.4707094,2.8292306
77,MEDJRAB EL HADI,CITE 110 LOGTS BT E5 30 Blida,9,,,,36.4933447,2.8612952
78,LARBI ESSEGHIR,63 AVE AMARA YOUCEF Blida,9,,,,36.4752079,2.8204585
79,CHABANE MOHAMMED,22 RUE BEN ALI Oued El Alleug,9,,,,36.558265,2.793251
80,ARAB CHABANE,CITE SIDI YAKHLEF BT A Blida,9,,,,36.4735715,2.8323153
81,BOUAMRA KHORIS,RUE MUSTAPHA BEN BOUALI Blida,9,,,,36.4711582,2.8305238
82,CHIKER MUSTAPHA,CITE DES 72 LOGTS El Affroun Blida,9,,,,36.4701592,2.625741
83,SALHI MUSTAPHA,CITE BEN BOULAID BT R 3 Blida,9,,,,36.4846841,2.8346336
84,BOUTINE HOUCINE,RUE DES FRERES ALILI AHMED 26 Blida,9,,,,36.4735715,2.8323153
85,TOUMI BEN ALI NAIMA,RUE AYOUNA MOHAMED Blida,9,,,,36.4860147,2.8263335
86,TIGHERSI AHMED,CITE NOUVELLE MEFTAH BLOC 11 RDC Blida,9,,,,36.5210052,3.0730945
87,KHIARI ABDELMALEK,RUE DES FRERES DJARBOUA Blida,9,,,,36.4735715,2.8323153
88,SOUALMI ABDERAHMAN,19 CTRE ZABANA RUE D Blida,9,,,,36.4799716,2.8063907
89,ATMANI MUSTAPHA,27 RUE BELKACEM  LOUZERI Blida,9,,,,36.4768074,2.8305802
90,ARACHE NOUREDDINE,17 AVE SI SMAIL OUA SOUIDANI BOUDJEMAA Boufarik Blida,9,,,,36.5709339,2.9112103
91,MEHAFDI ABDELAZIZ,CITE DES 128 LOGTS BT B4/4 Meftah Blida,9,,,,36.6223869,3.2261299
92,TRAD KARIMA,RUE DU 11 DECEMBRE 1960 CITE PIMA BT E N 5 Blida,9,,,,36.4887391,2.8213773
93,MESSAOUDI MOHAMED,CITE ALILI AHMED Boufarik Blida,9,,,,36.5832413,2.9121256
94,ZGHIDI SOUAD,2 RUE ZAGHOUANI ABDELKADER Ouled Yaich Blida,9,,,,36.4971139,2.8609977
95,RAHOU ASMA,TRANCHE SLIMANI Chiffa Blida,9,,,,36.4624901,2.7410554
96,HADJI ASSIA,CITE 1240 LOGTS  Ouled Yaich Blida,9,,,,36.4941553,2.862698
97,CHIKER MOUSTAPHA,CITE 250 LOGTS El Affroun Blida,9,,,,36.4701592,2.625741
98,AMEUR ZAKARIA,20 RUE DOUISSI ABDELKADER El Affroun Blida,9,,,,36.4701592,2.625741
99,OUSSALEM ARAB,8 AVENUE TAKARLI ABDERREZAK Blida,9,,,,36.468349,2.832168
100,IKHLEF MAHFOUD,CITE 30 LOGTS BT 1 BEN BOULAID Blida,9,,,,36.4746249,2.8309837
101,KHALED KOUIDER,RUE DIDOUCHE MOURAD 11 Blida,9,,,,36.4733907,2.8277988
102,SEBIHI SADEK,RUE 11 DECEMBRE 1960 127 Blida,9,,,,36.4887391,2.8213773
103,KHELFI LYNDA,CITE 5 JUILLET B 39  Beni Merad,9,,,,36.5207695,2.8602746
104,DRAFLI HOURIA,RUE MOHAMED BOURAS Boufarik Blida,9,,,,36.6631541,3.1069769
105,BECHE AHMED,CITE HADJ MERZOUK BT A 1 Bouira,10,,,,36.3627656,3.8980721
106,AMROUNE MAAMAR,RUE EMIR ABDELKADER Sour El Ghozlane Bouira,10,,,,36.1508804,3.7074189
107,BOUDAR YOUCEF,CITE TAZGHARAT ACHOUR BT A 1 Bouira,10,,,,36.3627656,3.8980721
108,BOUSAAD GUEMMAZ,BT ZEMMOUR MOHAMMED IRAB 69 Bouira,10,,,,36.3691846,3.9006194
109,HARKAT AMAR,CITE DES 280 LOGTS BT 9 1 Bouira,10,,,,36.372297,3.892094
110,BOUCHOUANE MESSAOUD,5 RUE SI LAKHDER Lakhdaria Bouira,10,,,,36.5655989,3.593173
111,TOUNSI YAHIA,R.N. 5 RUE COLONEL SI LAKHDER Bouira,10,,,,36.5655989,3.593173
112,ABDELAOUI ZOULIKHA,CITE DES 120 LOGTS BT 1 APPT 3 Bouira,10,,,,36.5389502,3.675159
113,KARI NAIMA,CITE DES 126 LOGTS BOUTERMAS MESSAOUD BT 1 1 ER ETAGE Bouira,10,,,,36.3691846,3.9006194
114,KAOUANE MESSAOUD,6 CITE ARADH SALAH Ain Bessem Bouira,10,,,,36.3337514,3.687402
115,TAIB MOHAMED RACHID,CITE BOUTRIK M'BAREK Sour El Ghozlane Bouira,10,,,,36.3879398,3.9010477
116,BERNOU HAMID,9 RUE SAAD M'SILI Ain Bessem Bouira,10,,,,36.3337514,3.687402
117,DJEMAA MOUHOUCHE,CITE 56 LGTS RUE ABANE RAMDANE Bouira,10,,,,36.3712008,3.9013973
118,HAMIDI AISSA,CITE BOUTARMAS 126 LOGTS BT 4 1 Bouira,10,,,,36.3691846,3.9006194
119,NIAR IBRAHIM MOHAMMED,CITE 65 LOGTS RUE ABANE RAMDANE Lakhdaria Bouira,10,,,,36.5660649,3.5960213
120,ABDELBAKI MADANI,AVENUE DU 5 JUILLET SERSOUF Tamanrasset,11,,,,22.7902972,5.5193268
121,REKANI NADJEM,BOULEVARD MOKRANI SAID Tamanrasset,11,,,,22.7902972,5.5193268
122,MOULAY SLIMANE,BP 315 In Salah Tamanrasset,11,,,,27.2026311,2.4878487
123,BEN SAAD ELLAH BRAHIM,RUE EL EMIR ABEDELKADER Tebessa,12,,,,35.4010797,8.1172958
124,ABANE SAAD,269 RUE SI ALI BEN LAMANI MAISON ROMAINE Tebessa,12,,,,35.402131,8.120509
125,MOUISSI ABEDELLAH,RUE DE LA BASILIC ROMAINE Tebessa,12,,,,35.3879968,8.1065235
126,GHRIB RACHID,6 QUARTIER DE LA ROMONTE ILOT 224 Tebessa,12,,,,35.4010797,8.1172958
127,AHMED CHAOUCHE LARBI,1 CITE DERBASSI KHELIL Tebessa,12,,,,35.417958,8.1167895
128,BOUTERAA ABEDERRAHMENE,RUE DE TEBESSA Cheria Tebessa,12,,,,35.3879968,8.1065235
129,REBII RAFIK,43 CITE 84 LOGTS Bir El Ater Tebessa,12,,,,34.749839,8.0577526
130,BEN FADHA MOHAMED TAHER,CITE 08 MAI 1945 El Aouinet Tebessa,12,,,,35.8680504,7.8861697
131,BEN DIHDJI THOURIA,18 Boulevard de l’indépendance Tlemcen,13,Tlemcen,043 26 31 32,physical,,
132,SEBAGH MOHAMED,"Cité ennahda 1079, 322 logements Tlemcen",13,Tlemcen,043 21 47 51 / 043 21 44 92,physical,,
133,BEN KEDDA FETH ALLAH,02 Cité des Amendiers Tlemcen,13,Tlemcen,043 26 70 97 / 043 26 70 95,physical,,
134,FERHAT HASSINA,Résidence Pomaria Boulevard Drar Abd errahmane Batiment B1 n1 El Kiffane Tlemcen,13,Tlemcen,043 56 40 61 / 0560 59 51 18,physical,,
135,YAKOUBI ABDELHAFID ,04 Rue Drar Abderrahmane Tlemcen,13,Tlemcen,043 41 30 96 ,physical,,
136,MOHAMMEDI NOUREDDINE,16 RUE DE LA PAIX Tlemcen,13,Tlemcen,043 26 18 54,physical,34.8831751,-1.31197
137,GHAYAT ABEDELKRIM,2 AVE COMMANDANT DJABER Tlemcen,13,Tlemcen,043 26 27 86,physical,34.8831751,-1.31197
138,AZZOUNI ABDELLATIF,13 RUE COMMANDANT MOKHTAR BOUZIDI Tlemcen,13,Tlemcen,043 26 13 41,physical,34.8831751,-1.31197
139,BOUKLI HACEN ABED EL GHANI,12 RUE SIDI LAHCEN BAB SIDI BOUMEDIENNE Tlemcen,13,Tlemcen,043 26 47 77,physical,34.8851606,-1.3058288
140,HADJ SAID MOUSSA,4 RUE COMMANDANT DJABER Tlemcen,13,Tlemcen,043 26 56 39,physical,34.8831751,-1.31197
141,HACHEMAOUI AHMED,Cité El Kiffane n 03 Drar Abderrahmane Kara Slimane Tlemcen,13,Tlemcen,043 56 40 17,physical,,
142,Société Civile AIN SEBAA BOUZIANE & FAIZA,Cité menuisier batiment E n 02 Tlemcen,13,Tlemcen,043 56 41 45 / 043 56 41 44 ,company,,
143,DALI YOUCEF AMAR,45 Rue Docteur Tidjani Damerji Tlemcen,13,Tlemcen,043 20 43 38,physical,,
144,BELYAKOUBI BELKHIR,Cité Enassim 1079 logements Batiment M n° 02 El Imama Tlemcen ,13,Tlemcen,043 21 37 50,physical,,
145,AMAR ZENATI ABD EL HALIM,02 Rue Belgaid sid Ahmed Tlemcen,13,Tlemcen,043 27 82 40 / 0553 69 63 03,physical,,
146,ABED BERRACHED BOUCIF,26 Rue Ibn Khamis Tlemcen,13,Tlemcen,043 27 30 25 / 0559 06 07 42,physical,,
147,BELKAID KAMILA,Rue Ali Ain Nedjar n 04 cité Ain Nedjar Tlemcen,13,Tlemcen,043 41 11 11 / 0770 28 58 11,physical,34.8854938,-1.3051281
148,BEMOUSSAT ABIR SANAA,08.03 Boulevard Commandant Mokhtar Tlemcen,13,Tlemcen,0770 93 69 18 / 043 26 25 53 ,physical,,
149,MAHI ABDEREZZAK ,05 Rue Ain Sebaa Ali Bel Horizon Tlemcen,13,Tlemcen,043 41 54 42 / 043 38 22 21,physical,,
150,MEDJATI ABDERREZAK,Cité 1060 Logements Imama Tlemcen,13,Tlemcen,0776 35 57 80 / 043 41 42 62,physical,,
151,ALI EL ARBI KHEIR EDDINE,05 Rue Frère Abd El Djebbar Tlemcen,13,Tlemcen,0774 00 90 65,physical,,
152,GHITRI ZINE EL ABIDINE ,19 Rue de la paie Tlemcen,13,Tlemcen,043 26 24 56 / 0661 22 21 14,physical,,
153,ABBAD ABD EL MADJID,Rue Kaouar Houcine 112 Logements Batiment B Tlemcen,13,Tlemcen,043 27 21 79,physical,,
154,ESSENOUBAR AHMED,Rue Ain Sebaa Ali Batiement Hamza Echerrif Ain Nedjar Tlemcen,13,Tlemcen,043 56 44 60 / 0660 44 56 43,physical,,
155,BOUMADANI AMMARA,05 Rue Frère Abd El Djebbar Tlemcen,13,Tlemcen,043 56 35 96,physical,,
156,DJELAILIA AHMED,Cité Ennasim 1079 Logements Tlemcen,13,Tlemcen,043 21 00 02,physical,,
157,MOHAMMEDI NOUREDDINE,16 RUE DE LA PAIX Tlemcen,13,Tlemcen*,,,,
158,BEN SNOUSSI BOUZIANE,4 TRANCHE KARA SLIMEN EL KIFFEN Tlemcen,13,Tlemcen*,,,34.8828864,-1.3166815
,,,,,,,,
,MEDJAOUI ABDELKRIM,RUE DES FRERES SEDDIKI Remchi,13,,,,35.0609828,-1.4304801
,,,,,,,,
,,,,,,,,
,,,,,,,,
,,,,,,,,
,,,,,,,,
,,,,,,,,
,,,,,,,,
,,,,,,,,
,ASSMI AHCEN,66 RUE 1ER NOVEMBRE 54 Maghnia,13,,,,34.8487433,-1.726959
,KIHEL ABED EL AZIZ,52 RUE COLONNEL AMIROUCHE Maghnia,13,,,,34.8486597,-1.7293536
,HAMDAOUI EL HABRI,CTRE COMMERCIAL CITE DES SABLE Ghazaouet,13,,,,35.0936543,-1.861861
,,,,,,,,
,AZMANI ABDERREZAK,48 RUE GUNAOUA EL MAGHREB Nedroma,13,,,,35.0292918,-1.7666936
,SAADAOUI SALEH,RUE DE LA PALESTINE Sebdou,13,,,,34.6376648,-1.3329676
,BALOUT TOUHAMI,116 CITE KASMI ABDELKADER RTE BELABES Ouled Mimoun,13,,,,34.9044116,-1.0342358
,,,,,,,,
145,BELHAOUA ALI,CITE BOUCHAREB NACER Sougueur,14,,,,35.1872934,1.4959513
146,LOUNES ALI,24 RUE EMIR ABDELKADER Tiaret,14,,,,35.3763256,1.3135742
147,LAZRAG YAMINA,3 600 LOGTS BT C11 CADAT Tiaret,14,,,,35.3593621,1.3174019
148,OUAZINE MOUSSA,RUE SI M'HAMED BOUGERA Ksar Chellala,14,,,,35.2181066,2.3153581
,,,,,,,,
,,,,,,,,
,,,,,,,,
,,,,,,,,
,,,,,,,,
,,,,,,,,
149,MEZIANI YOUCEF,CITE DES 32 LOGTS BT B 1 Azazga,15,,,,36.7453947,4.3714004
150,BELOUNIS NASREDDINE,12 RTE DE BOGHNI Draa El Mizan,15,,,,36.5329303,3.9611136
151,TOUMI AKLI,38 AVENUE KHOUDJA KHALED Tizi Ouzou,15,,,,36.7353068,3.9849727
152,HAMLIL AMAR,CITE EUCALYPTUS BT A 62 Tizi Ouzou,15,,,,36.7118815,4.0488682
153,ZENBOUDJI AHMED MOUSADDEK,CITE HAMMOUTENE 24 Tizi Ouzou,15,,,,36.7104686,4.0650031
154,BELACEL BOUBEKEUR,RUE AMIROUCHE AIT BEN AMARA Tizi Ouzou,15,,,,36.7389973,4.0108251
155,BOUHERAOUA HOCINE,CITE DES 200 VILLA COOP. KAHINA N°1 Tizi Ouzou,15,,,,36.7335539,3.9618589
156,KEBBAS ZAHIA,CITE DES FONCTIONNAIRES BT 7 9 Tizi Ouzou,15,,,,36.7122399,4.0556532
157,DJAAFOUR RACHID,CITE 18 LOGTS BT 1 2 Boghni,15,,,,36.5329303,3.9611136
158,ZAAMOUM HOUCINE,RUE DES FRERES MAAMRI Boghni,15,,,,36.5329303,3.9611136
159,GHIAR BOUSAAD,RUE DU 1ER NOVEMBRE BP 501 Ain El Hammam,15,,,,36.5698193,4.3120324
160,OUANOUGHI SAID,RUE CHAFAI AHMED IMMEUBLE YAHYAOUIALI Tigzirt,15,,,,36.7117061,4.0552492
161,ZOULIM DJAMEL,CITE DES PALMIERS BT A 18 Tizi Ouzou,15,,,,36.713548,4.0473075
162,MOALI FOUZIA,ROUTE DES TOURS VILLA 1 IMMEUBLE BEN YAHI Tizi Ouzou,15,,,,36.7163828,4.0407774
163,KAMEL ABDERRAHMAN,BOULEVARD AHMED ZAIDET Azazga,15,,,,36.7453947,4.3714004
164,ISSAD TASSADIT,25 RUE DU 20 AOUT 1956 IMMEUBLE ZERIOUL Azazga,15,,,,36.7453947,4.3714004
165,OUALMI LOUIZA,RUE KASRI AHMED IMMEUBLE REZZOUK ILOT CENTRAL 39 Tizi Ouzou,15,,,,36.7308862,3.9663581
166,TERBAH RACHID,CITE 15 LOGTS PREMIER ETAGE 6 Draa El Mizan,15,,,,36.53572,3.8364355
167,SERBOUH KAHINA,CENTRE VILLE Larba Nath Irathen,15,,,,36.6388682,4.2031576
168,ASLA KHEIREDDINE,RUE DES MOUDJAHIDINE VILLA C 01 1ER ETAGE Azazga,15,,,,36.7453947,4.3714004
169,ZOULIM DJAMEL,18 CITE DES PALMIERS BT A Tizi Ouzou,15,,,,36.713548,4.0473075
170,KAMEL ABDERRAHMANE,BD COLONEL AMIROUCHE Azazga,15,,,,36.7453947,4.3714004
171,DALI DJAMILA,96 RUE KHODJA KHALED Tizi Ouzou,15,,,,36.7061801,4.0386069
172,IMAD HOCINE,RUE MAGHNEM MOHAMED AKLI 104 LOGTS Tizi Ouzou,15,,,,36.713548,4.0473075
173,GHELLAB RACHID,RUE ABANE RAMDANE CITE 60 LOGTS APPT 5 Tizi Ouzou,15,,,,36.7057476,4.0546069
174,KHANOUS MALIKA,RUE MOHAMED AOUDIA BT 2 2EME ETAGE Tizi Ouzou,15,,,,36.7133875,4.049744
175,SAADI ABDELLAH,CITE 180 200 BAT 8 APPART 01 Bab Ezzouar,16,,,,36.7220182,3.1856806
176,CHAMBRE NATIONALE DES NOTAIRES,2 RUE EL BAKRI Ben Aknoun Rp,16,,,,36.7646339,3.0156492
177,BOUCHALI FOUZIA,12 RUE MOULOUD ZADI ET LE 110 ANGLE DIDOUCHE MOURAD LE SACRE COEUR Alger  Centre,16,,,,36.7637381,3.048095
178,CHIALI HIND,157 CITE AISSAT IDIR Cheraga Rp,16,,,,36.7578281,2.9572724
179,OUBAD NADJET,62 R.N.  Bainem,16,,,,36.8127227,2.9625921
180,BENZAOUI HAMMOU,4 ET 5 RUE CHEIKH BACHIR EL IBRAHIMI BP 303 El Harrach,16,,,,36.7189505,3.1417051
181,DERARDJA ABDELKRIM,10 RUE ABANE RAMDANE Alger  Centre,16,,,,36.778884,3.059357
182,SOCIETE CIVILE PROFESSIONNELLE NOTARIALE NOURI HAMMOUM & ALLAOUA SAID,70 RUE DE TRIPOLI Hussein Dey Rp,16,,,company,36.7445821,3.0944025
183,BOUTER KHELIFA,8 RUE AHMED MOKRANI El Harrach,16,,,,36.7204806,3.1405843
184,ZEMIR MOSTEFA,12 AVENUE MOHAMED BOUKELLA Bab El Oued,16,,,,36.7943835,3.0523634
185,MERAD KADDOUR,4 RUE EL BEKRI El Biar,16,,,,36.7694847,3.0309897
186,BACHA SALIM,18 AVENUE BOUBELLA MOHAMED Bab El Oued,16,,,,36.7943835,3.0523634
187,RABAHI AMAR,CITE 44 LOGTS BT A/2 Zeralda,16,,,,36.711348,2.8380608
188,KLOUCHE AMINA,CITE RABIA TAHAR BATIMENT 9 C 263 Bab Ezzouar,16,,,,36.7227952,3.1798486
189,BOUKHELKHAL ALI,95 RTE DE CHERAGA Dely Ibrahim,16,,,,36.7543235,2.9730065
190,IMANDASSEN MOHAMED AMEZIANE,28 BOULEVARD ZIROUD YOUCEF  Khelifa Boukhalfa,16,,,,36.7667039,3.0539096
191,ZITOUNI MERIEM,31 AVENUE COLONEL AMIROUCHE Alger  Centre,16,,,,36.7704344,3.0578615
192,MIROUH RABAH,CITE DAUPHIN VILLA DAR ESSALAM 11 Draria,16,,,,36.720057,2.9951112
193,MIMOUNI NOUREDDINE,2 RUE MOHAMED IDRIS BEY Alger  Centre,16,,,,36.7610218,3.0564266
194,ALI NEMRI,37 RUE LARBI BEN MHIDI Alger  Centre,16,,,,36.7793569,3.0580611
195,HAMMADI OUADHOUR,40 BD MOHAMED 5 Alger  Centre,16,,,,36.76787,3.0523284
196,HENTABLI AHMED,7 RUE ABDELKEDER SELLAL El Mouradia,16,,,,36.7409527,3.0543286
197,EL HADJ MESSAOUD MOHAMED,7 RUE DES FRERES ZEGHNOUNE BELLE VUE El Harrach,16,,,,36.7279477,3.1388886
198,BENAMIROUCHE ABDELKADER,CITE 632 LOGTS BT 55 6 Mohammadia,16,,,,36.7303904,3.1472242
199,BEDJAOUI KHENFER AZZEDINE,1 CITE 300 LOGTS BT 20 EX 15 Bab Ezzouar,16,,,,36.7514093,3.0585793
200,BOUSRI MOKHTAR,CITE DES 310 LOGTS BT D 39 1 LES BANANIERS Mohammadia,16,,,,36.730841,3.1659437
201,BENAGGOUN CHERIF,AVENUE 11 DECEMBRE 1960 24 Bordj El Kiffan,16,,,,36.7740428,3.2625559
202,ZAANANI NADIA,CITE DES 618 LOGTS BT 9 El Harrach,16,,,,36.7209669,3.1376625
203,MANSOURI RABAH,CITE 1ER NOVEMBRE 32 LOGTS BT A/1 Dar El Beida,16,,,,36.7139279,3.21325
204,ARICHI BACHIR,CITE 5 JUILLET BT D 01 Bab Ezzouar,16,,,,36.7215061,3.1828809
205,AYAD AHMED,CITE HLM DES 70 LOGTS CAGE B 11 Baraki,16,,,,36.6685704,3.1025581
206,EL ARBI BOUAMRANE,10 BD TALEB ABDERRAHMANE Bab El Oued,16,,,,36.79024,3.0567318
207,BOUKHARI RABAH,17 AVENUE COLONEL LOTFI Bab El Oued,16,,,,36.7910119,3.0549077
208,BENABID MOHAMMED TAHAR,03 AVENUE DU 1 ER NOVEMBRE 1954 Alger  Centre,16,,,,36.787873,3.0629224
209,BADECHE ALI,02 RUE AHMED TOUZAM Bab El Oued,16,,,,36.7904262,3.0520959
210,MOHAMED YAHIAOUI AMMAR,APART CITE ANCIENS MOULINS Bab El Oued,16,,,,36.7943835,3.0523634
211,AFOUFOU ABDESSALEM,7 RUE OMAR AMIMOUR Alger  Centre,16,,,,36.7712246,3.0612244
212,AMROUCHE ALI,02 RUE DERBOUZ LOUNI AREZKI Bab El Oued,16,,,,36.7884999,3.0585282
213,SI HACENE NADJIA,12 RUE DIDOUCHE MOURAD Alger  Centre,16,,,,36.7696875,3.0552229
214,CHAIB MOHAMED,05 RUE DES FRERES MERZOUK Bab El Oued,16,,,,36.7943835,3.0523634
215,BENMOUBAREK AHMED,04 RUE SAID HAMDINE Bir Mourad Rais,16,,,,36.732839,3.0381036
216,MANSOUR ABDELLAH,NOUVELLE RTE 149 Bouzareah,16,,,,36.788908,3.017453
217,ZITOUNI BOUDJEMAA,CITE 604 LOGTS BATIMENT 47 01 Bir Mourad Rais,16,,,,36.7323545,3.0497609
218,LADJEL NAIMA,CITE ZIANNIA BT 5 CHEVALLY Bouzareah,16,,,,36.7696236,3.008815
219,MANSOURI OUDINA NADIA,CITE DES SOURCES BATIMENT 10 B 3 Bir Mourad Rais,16,,,,36.7331108,3.0554289
220,IMAD MOHAMED,ROUTE SIDI YAHIA Hydra,16,,,,36.7387861,3.04359
221,CHIHANI ABDELKADER,01 AVENUE AMRANE AHMED El Biar,16,,,,36.7688987,3.0260599
222,NASSAR SALAH-BEY SALIHA,11 CITE AHCEN MEHYOUZ EX ASFODEL BT B CAGE 2 Ben Aknoun Rp,16,,,,36.7597697,3.0138343
223,DHERBANI LAKHDAR,CITE CHAHID MAHDID SALAH BT F Birkhadem,16,,,,36.7160675,3.0496695
224,BADI ABDELHAMID,101 NOUVELLE ROUTE Bouzareah,16,,,,36.7904362,3.0173207
225,BEN AKILA ABDELKADER,10 CITE SAID HAMDINE BT 8 Bir Mourad Rais,16,,,,36.7353482,3.0383576
226,AIT BOUDAOUD ISMAIL,CITE LES ANNASSERS 2 BT B29/2 Kouba,16,,,,36.7341842,3.066072
227,MELAKHSSOU TAHAR,81 RUE KRIM BELKACEM Alger  Centre,16,,,,36.7695198,3.0504901
228,SAIDI MOHAMMED CHERIF,CITE BACHJERAH BT 39 ISSUE 3 01  Khelifa Boukhalfa,16,,,,36.766362,3.053652
229,AMIROUCHE AZZEDDINE,CITE DOUZI 3 428 Bab Ezzouar,16,,,,36.736469,3.18412
230,REGANI NADJEM,CITE BACHJERAH BT 62/2 Bachedjerah,16,,,,36.7193746,3.1116446
231,DENANE KHEDIDJA,AVENUE BOUDJEMAA MOGHNI BT ESSALEM CAGE C 28 Hussein Dey Rp,16,,,,36.7388579,3.1005586
232,AIT KACI BOUALEM,01 RUE MESBAH HAMIDOU Kheraicia,16,,,,36.7027252,3.0227071
233,BENABDELLAH MOULOUD,RUE BELHADID Kheraicia,16,,,,36.6679107,2.9982768
234,OUADI MENNI HOURIA,232 LOT. BOULANGERIE INDUSTRIELLE Cheraga Rp,16,,,,36.7668544,2.9602011
235,BOUDJENANA ABDELKADER,CITE ALI KERKOUBA BP 130 Kouba,16,,,,36.7260163,3.0826673
236,DJIDJEK SALAH,78 RUE DES FRERES ABDESLAMI Kouba,16,,,,36.728999,3.0805174
237,BELLAHCENE ABDELKADER,9 RUE AHCEN KHMISSA  Sidi M'hamed,16,,,,36.7468799,3.0551056
238,KRIM LEILA,AVE 1ER JUILLET BT 70 Birkhadem,16,,,,36.721798,3.0287448
239,ZEMIRLI OURIDA,CITE 1 BT 2/8 Kouba Garidi,16,,,,36.7273022,3.0673808
240,ZERRAG YOUCEF,118 CITE 20 AOUT 1955 BT 4 Rouiba Rp,16,,,,36.7358928,3.2779879
241,SEDRATI BOUZID,LOTISSEMENT LA CADET VILLA 14 Rouiba Rp,16,,,,36.7358928,3.2779879
242,SAHEB ABDERRAHMANE,CITE 150 LOGTS BT 9 31 Rouiba Rp,16,,,,36.7438381,3.2850861
243,BOUKHAROUBA SAMIRA,04 RUE KHELIFA BOUKHALFA Alger  Centre,16,,,,36.7445311,3.0938679
244,MERABET AHMED,64 CITE EL MOUDJAHIDINE CHEVALLY Ben Aknoun Rp,16,,,,36.7696236,3.008815
245,ABBES AHMED,1 RUE ABDELKRIM CHEBOUT Hussein Dey Rp,16,,,,36.7413901,3.0993429
246,BELHADJ AHMED,6 RUE DAIB AISSA Bordj El Kiffan,16,,,,36.7460195,3.1913182
247,DJADIDI MAARADJ,11 RUE DES FRERES HAMZA Dely Ibrahim,16,,,,36.7520272,2.9841482
248,REZAK LABZA SAID,CITE AISSAT IDIR BT 07 El Harrach,16,,,,36.7209669,3.1376625
249,ABDELLAH SLIMANE,CITE PATRIMOINE C9 El Magharia,16,,,,36.7304225,3.1100238
250,ATICHE HANI ABDELHAMID,116 AVENUE DIDOUCHE MOURAD  Mourad Didouche,16,,,,36.7635509,3.046542
251,AMRANI BAHIA,01 RUE COLONEL AMIROUCHE PROMOTION IMMOBILIERE SAADA Bordj El Kiffan,16,,,,36.7941454,3.2903027
252,MOURAD KADOUR,4 RUE EL BEKRI Ben Aknoun Rp,16,,,,36.7597697,3.0138343
253,MESSAOUDI SEDDIK,21 RUE ALI MEDOUCHE Hussein Dey Rp,16,,,,36.734132,3.1006781
254,MOUISSI ABDELKADER,8 RUE BADREDDINE RIDJIMI Kouba,16,,,,36.7322951,3.0870573
255,NAIT CHABANE AMER,67 RUE BOUDJEMA MEGHNI Hussein Dey Rp,16,,,,36.7406167,3.0961917
256,WATHEH AICHA,42 RUE BOUDJEMAA MOGHNI Hussein Dey Rp,16,,,,36.7401224,3.0989528
257,AHNOU KAHINA,CITE DES 250 LOGTS BT A3 02 Cheraga Rp,16,,,,36.7697785,2.9557933
258,BELIR MALIKA,3 AVENUE MIHOUBI MOHAMED Cheraga Rp,16,,,,36.7659645,2.961667
259,BOUKHATEM ABDELKADER,CITE DES 42 LOGTS Ain Benian,16,,,,36.8027623,2.9184078
260,MIMOUN MOHAMED AMINE,CITE 20 LOGTS BT A 2 AISSAT IDIR Cheraga Rp,16,,,,36.7567621,2.9545226
261,ACHOUCHE ALI,02 RUE AHMED ZINDJABIL Bologhine,16,,,,36.8079399,3.0389024
262,DILMI RABAH,93 BD MOHAMED 5  Mohamed V,16,,,,36.7674944,3.0503867
263,TOUFFALI AHMED,12 BD SAID HAMDINE Hydra,16,,,,36.7482998,3.0397597
264,AGGAL MAKHLOUF,80 AVE MAHMOUD BOUDJATIT Kouba,16,,,,36.7381971,3.0898023
265,BUREAU NOTARIAL,11 RUE DAUPHIN DAR ESSALAM Draria,16,,,,36.720057,2.9951112
266,TIR ABDEREZAK,1 CITE 170 LOGTS BT B10 SAID HAMDINE Bir Mourad Rais,16,,,,36.7339979,3.033837
267,AZIAD FRIDA EPSE BOUKARI,9 RUE MOHAMED GARIDI Kouba,16,,,,36.7317197,3.0850228
268,DJEDJIG LAHLOU,35 AVENUE BOUAAMAMA HASSEN BADI El Harrach,16,,,,36.716488,3.1373997
269,BEN FERHAT MOHAMED,COOPERATIVE IMMOBILIERE EL YASMINE 8 LES ORANGERS Rouiba Rp,16,,,,36.7390353,3.2840306
270,KAOUAH MERIEM AZIZA,202 RUE MOHAMED BELOUIZDAD  Sidi M'hamed,16,,,,36.753547,3.0615416
271,ATBI MOHAMED,16 RUE DU 5 JUILLET El Harrach,16,,,,36.7205788,3.1374809
272,NEGGACHE RAMDANE,CITE 2004 LOGTS LOT 46 Baraki,16,,,,36.6622277,3.1014614
273,BAKAIL SOUHILA,11 RUE AISSA BEN FADHA Zeralda,16,,,,36.7137456,2.8449957
274,BEN MERIEM LINDA,62 CITE 100 LOGTS BT 7 Zeralda,16,,,,36.7137456,2.8449957
275,BEN MIMOUN EL HABIB,CITE LES SOURCES BT 2 N 5 Bir Mourad Rais,16,,,,36.732855,3.05563
276,BEN TALHA MOHAMED,CITE MITIDJA BATIMENT 12 /43 Rouiba Rp,16,,,,36.7395542,3.2803983
277,BENTAYA RIMA,CITE 294 LOGTS BATIMENT A4 1 Ain Benian,16,,,,36.7948752,2.905233
278,BOUKHAROUBA SAMEH,CITE GARIDI 1 BATIMENT 8 8 Kouba,16,,,,36.7445311,3.0938679
279,OPM DERARDJA ISSAM,18 RUE DES FRERES LARBI Douera,16,,,,36.6688355,2.9442592
280,TADJINE FATIHA,24 RUE 1er JUILLET Birkhadem,16,,,,36.7160675,3.0496695
281,FETTIS KAMAL,CITE 384 LOGTS BT C 22 SAID HAMDINE Bir Mourad Rais,16,,,,36.7349175,3.0351991
282,GUENDOUZE HINDA,43 RUE DIDOUCHE MOURAD  Sidi M'hamed,16,,,,36.7670944,3.0533882
283,OUZENI HATTEM,CITE 250 LOGTS Cheraga Rp,16,,,,36.7668544,2.9602011
284,REGUIEG KARIMA,04 PLACE EL KODS Hydra,16,,,,36.7474636,3.0402509
285,SAHRAOUI KARIM,137 RUE 1ER NOVEMBRE Zeralda,16,,,,36.7118869,2.8398444
286,SALEM SALAH,CITE EL ANASSER CITE 4 BATIMENT 92 APPARTEMENT 2 Kouba,16,,,,36.7344353,3.0695755
287,SELLAMI SAMIA ALDJIA,192 CITE HBM 2eme GPE BELOUIZDAD  Sidi M'hamed,16,,,,36.7616535,3.056515
288,SELLAMNA AZIZA,2 RUE DES FRERES OUGHLIS El Mouradia,16,,,,36.7452496,3.0505324
289,ZENBOUDJI AHMED MOSSADEK,2 RUE KADDOUR RAHIM Hussein Dey Rp,16,,,,36.7420781,3.0931291
290,ZEROUG HOUCINE,8 RUE NEZALI CHERIF Cheraga Rp,16,,,,36.7660527,2.9589692
291,SOCIETE NOTARIALE CIVILE BED AIDA NADJAT,CITE GARIDI 1 BATIMENT 18/5 Kouba,16,,,company,36.7279237,3.0670478
292,BOUKOURA FAIZA,22 AVENUE 1ER NOVEMBRE  Haute Casbah,16,,,,36.787873,3.0629224
293,TOUMI RAFIK,LOT DU PHARE 3 CAP CAXINE Ain Benian,16,,,,36.8128451,2.954008
294,TOUATI FADILA,1 RUE RACHID KORICHI Bab El Oued,16,,,,36.7879584,3.055397
295,BECHA SALIM,1 RUE HAMMANI AREZKI Alger  Centre,16,,,,36.771589,3.057788
296,BEDAIDA SAID,CITE GARIDI 1 BATIMENT 18 5 Kouba,16,,,,36.7279237,3.0670478
297,BUKHEROUBA KELTHOUM,26 RUE TRIPOULI Hussein Dey Rp,16,,,,36.7445311,3.0938679
298,DERIAS ZIDOUMA ET OUBAD NADJAT,COOPERATIVA EL NASSER 60 Kouba,16,,,,36.7260163,3.0826673
299,AMRA MADJID,CITE HAYAT BT B11/3 Gue De Constantine,16,,,,36.704399,3.0924
300,MOHAMED EL MOKHTAR AMRIOU,30 RUE SOUIDANI BOUDJEMAA Cheraga Rp,16,,,,36.7553142,3.0473057
301,NOURINE MUSTAPHA,CITE BOUZAGZA BT 3 ESCALLIER B 9 Reghaia,16,,,,36.7616535,3.056515
302,CHEKELALA FATIHA,CITE 300 LOG BAT 33 Bab Ezzouar,16,,,,36.7208407,3.1851232
303,KIHAL SMAIL,LOT H 39 El Achour,16,,,,36.7323719,3.0033602
304,BENFATTOUM HOUCINE,16 LOT KAOUCHE B Cheraga Cgn,16,,,,36.7594538,2.9628136
305,ZAANABI NADIA,CITE 618 LOGTS BT 16 APPT. 4 ET 5 Mohammadia,16,,,,36.7291999,3.1504149
306,MOSSAB BRAHIM,SAID HAMDINE BT 2 BLOC 2 Bir Mourad Rais,16,,,,36.7353482,3.0383576
307,BOUHANGUEL MAHFOUD,9 RUE FERHAT ABDELKADER Staoueli,16,,,,36.7533929,2.8874925
308,BELKADI SMAIL,56 RUE FELLA MOHAMED ARAB El Mouradia,16,,,,36.7423081,3.0537512
309,BENLALIA FOUAD,CITE DOUZI 399 Bab Ezzouar,16,,,,36.7366339,3.1831067
310,CHERAIR MOHAMED,CITE SAID HAMDINE VILLA 187 Bir Mourad Rais,16,,,,36.7353482,3.0383576
311,KRIM LAILA,RUE EL FATAH JUILLET BT 70 1 ER ETAGE Birkhadem,16,,,,36.7160675,3.0496695
312,AMAD MOHAMED,17 CHEMIN DE SIDI YAHIA Hydra,16,,,,36.7387861,3.04359
313,BOULAHIA BRAHIM,CITE 56 LOG. BT. A1 RUE AHMED BOUGARA 2 Ain Benian,16,,,,36.8041974,2.9223981
314,DHARBANI LAKHDAR,CITE MAHDIDE SALAH LES VERGES Birkhadem,16,,,,36.7160675,3.0496695
315,BELOUNIS NACER EDDINE,5 RTE BOIS DES CARS Dely Ibrahim,16,,,,36.7554848,2.9797084
316,BENNIA KHADIDJA,45 LOT MERKIDAL LES SOURCES Birkhadem,16,,,,36.7333245,3.0523604
317,BOUGUERRA KARIMA,3 LOT. TARDETTI Bir Mourad Rais,16,,,,36.7323545,3.0497609
318,MERINI HANANE,1 COOP. LES VERGERS LOT 2 Birkhadem,16,,,,36.7280542,3.0492559
319,BOULKRIAT BOUDJEMA,444 SAID HAMDINE BT 13A/1 Bir Mourad Rais,16,,,,36.7353482,3.0383576
320,ABDELAOUI ABDELKADER,7 CITE DIAR EL MAHSOL BT A El Madania,16,,,,36.7467896,3.0649653
321,ZIAD FARIDA EPSE BOUKARI,9 RUE MOHAMED GARIDI Kouba,16,,,,36.7389854,3.0876324
322,BENATTIA ABDELKADER,355 CITE TAHAR BOUCHET RTE D'EL KADOUS Tixeraine,16,,,,36.7198807,3.036673
323,BEN AMIROUCHE HAYAT,RES. EL BATOUL 1ER ET. Birtouta,16,,,,36.6436334,2.9946473
324,ZENATI FAYÇAL,10 RUE ALLAOUA ABDELKADER (LES COMMUNAUX) Kouba,16,,,,36.729421,3.0842811
325,SAHI SAMIA,1 CITE BACHDHARAH BT 5 ESC 1 Bachedjerah,16,,,,36.7244831,3.1167415
326,KHODJA NIHAD SABRINA,CITE LES MARRONS AIN ALLAH BATIMENT 401 A Dely Ibrahim,16,,,,36.7495801,2.9897445
327,SOCIETE CIVILE DE NOTARIAT,2 RUE IGUEDGDAL MOHAMED Ain Benian,16,,,,36.800402,2.9181427
328,MOHAMED LAMINE,CITE 20 LOGTS Cheraga Rp,16,,,,36.7668544,2.9602011
329,KEDDOUR BELKACEM,28 RUE DE LA LIBERTE  Khelifa Boukhalfa,16,,,,36.7790904,3.0601645
330,LAHLOU DJIDJIK,35 AVENUE BOUAMAMA El Harrach,16,,,,36.720437,3.1441783
331,MAREF FAOUZI,RUE MOHAMED FELAH 12 Kouba,16,,,,36.7315399,3.0880783
332,MESKINE ALI,COOPERATIVE IMMOBILIERE FRANTZ FANON Reghaia,16,,,,36.7393245,3.3416465
333,BOUCHACHI YOUCEF,01 RUE MORITANIQUE Bab El Oued,16,,,,36.7943835,3.0523634
334,BERRAKCHI YOUCEF,09 AVENUE FAYCAL MOUBAREK  Sidi M'hamed,16,,,,36.753547,3.0615416
335,DJEDDOU ABDELMADJID,11 RUE MOHAMMED BELOUIZDAD  Sidi M'hamed,16,,,,36.753547,3.0615416
336,KHERAT YACINE,58 RUE DE TRIPOLI Hussein Dey Rp,16,,,,36.7445311,3.0938679
337,AMRA MADJID,CITE EL HAYET BT 11B/3 Gue De Constantine,16,,,,36.704399,3.0924
338,NEDJAR MUSTAPHA,AVENUE TALA AHCEN 33 HOTEL EL EMIR Cheraga Rp,16,,,,36.7616535,3.056515
339,HAMOUTENE FARIDA,CITE MAVAL BT A 02 Reghaia,16,,,,36.7386643,3.34255
340,BOUABDELAH ALI,03 RUE ZOUAOUI MOKHTAR  Haute Casbah,16,,,,36.7846964,3.0597479
341,DRID AZEDINE,11 AVENUE BAB AZOUNE Bab El Oued,16,,,,36.7903197,3.0611642
342,GUARECH AMAR,101 RUE TRIPOLI Hussein Dey Rp,16,,,,36.7414302,3.1022226
343,MOKHTARI MOHAMED,39 RUE MUSTAPHA KHALEF Ben Aknoun Rp,16,,,,36.7619273,3.0169608
344,MEHDAOUI MIMI,CITE SAID HAMDINE 444 BT A 06 Bir Mourad Rais,16,,,,36.7353482,3.0383576
345,MIMOUN NOUREDDINE,02 AVENUE MOHAMED IDRIS BEY  Khelifa Boukhalfa,16,,,,36.7329001,3.0555058
346,BAHATA IBRAHIM,CITE 24 FEVRIER GROUPE 5 07 Staoueli,16,,,,36.7572655,2.8885537
347,BOULEKRIAT BOUDJEMAA,CITE 47 LOGTS BT 05 02 Kheraicia,16,,,,36.6679107,2.9982768
348,SAAD FARID,11 RUE DES MARTYRS Cheraga Rp,16,,,,36.7674361,2.9640119
349,CHELIC YAMINA,ROUTE KAHTAL MOHAMED 02 Ain Benian,16,,,,36.800402,2.9181427
350,MANSOURI ALI,24 RUE OMAR BEN EL KHATAB Bab El Oued,16,,,,36.7920574,3.05338
351,OPN OUIDIR,CITE MITIDJA Rouiba Rp,16,,,,36.7358928,3.2779879
352,MELHAG SAAD,246 CITE DOUZI 4 R.N 5 Bab Ezzouar,16,,,,36.7366561,3.1835558
353,REZZAG LEBZA MOHAMED,CITE RABIA TAHAR BT 32 Bab Ezzouar,16,,,,36.7227951,3.1798487
354,EL HADJ SENOUSSI,03 RUE ATIA OUKHELIL El Harrach,16,,,,36.7279477,3.1388886
355,HAMILA MADJIDA,COOPERATIVE WIFAK MUSTAPHA AISSAT Reghaia,16,,,,36.7222088,3.3388675
356,BOURABA MOHAMED,PL 1ER MAI GROUPE 10 BT B  1er Mai,16,,,,36.0481608,-95.8868756
357,HETTAB CHERIF,CITE DJILALI ELYABES BT 3/34 BEN OMAR Kouba,16,,,,36.7254927,3.0912254
358,ABIDELAH MESSAOUD,2EME GROUPE BT I  1er Mai,16,,,,36.0481608,-95.8868756
359,BEN KABOU MOHAMED FERIH,02 RUE KLAYLYA MOULAY BP 1009 Mohammadia,16,,,,35.5919096,0.06542
360,BOULFRAK HACENE HOURIA,5 RUE ACHOUR MIHOUBI Kouba,16,,,,36.7293777,3.0749574
361,BEN ABDE NACER ABDELLAH,108 SAID HAMDINE BT A 13 / 01  Said Hamdine,16,,,,36.7339979,3.033837
362,BELGHERBI FARIDA,RESIDENCE DES ROSIERS BT A 1 Hydra,16,,,,36.1583095,-95.8382977
363,HASANI ABDELKADER,AVE DE L'ALN RTE D'EL MADJBARA Djelfa,17,,,,34.6703956,3.2503761
364,HAMZA ABDELKADER,ROUTE NATIONALE 1 Djelfa,17,,,,34.6703956,3.2503761
365,MOUHAD MOHAMMED,RUE 20 AOUT Djelfa,17,,,,34.6703956,3.2503761
366,HAMZA ABDELKABER,ROUTE D'EL DJELFA Djelfa,17,,,,34.6703956,3.2503761
367,RAACHE SLIMANE,RUE 20 AOUT 1956 BT 131/18 Djelfa,17,,,,34.6703956,3.2503761
368,BOUHANGUEL ACHOUAK,RUE 20 AOUT 1955 Jijel,18,,,,36.8195869,5.7688871
369,BOUMAHREZ RABEH,ANGLE RUE ABDELHAMID IBN BADIS PLACE BOURAOUI AMAR Jijel,18,,,,36.8205881,5.7517505
370,BIYOUT MOHAMED,1 CITE ZEHANI SMAIL BT 2P 4 Jijel,18,,,,36.7524885,6.2742753
371,MOHAMED LAATIOUI,CITE BOUCHERKA BT B 4 Taher,18,,,,36.7843567,5.9009836
372,MERADJI MAHMOUD,CITE KAOULA MOKHTAR Jijel,18,,,,36.8100086,5.759828
373,KORICHI AHMED,CITE DES RAMPARTS BT B/29 Setif,19,,,,36.1897593,5.4107984
374,GHARBI M'BAREK,2 RUE ROUABEH MOUSSA CITE 1ER NOVEMBER BT A Setif,19,,,,36.1897593,5.4107984
375,BELBAKHOUCHE KAMEL,1 CITE EL KHAHIRA BT 2 Setif,19,,,,36.1897593,5.4107984
376,BEN CHICKH EL HADJ,CITE M'SSALTI ABESS ASSAOUAR EL KADIMA Setif,19,,,,36.1897593,5.4107984
377,GUECHI KADOUR,4 RUE ABANE RAMDHANE Setif,19,,,,36.1893122,5.405046
378,AMIRA NADHIRA,5 RUE TOUHAMI SALEH CITE DES CHEMINAUX Setif,19,,,,36.190855,5.4209417
379,GARGOURI FARID,CITE YAHIAOUI RUE ZABAT REMDANE 45 Setif,19,,,,36.1987374,5.4240662
380,BELAID AHMED,47 CITE M'SALTI ABES ESOUAR KADIMA BT D5 Setif,19,,,,36.1897593,5.4107984
381,ABIREZ KHATHIR,CITE DES 583 LOGTS Ain Oulmane,19,,,,35.9197924,5.2972534
382,HADJIDJ AMER,51 RUE GUESSAB BACHIR El Eulma,19,,,,36.1505099,5.6999461
383,BOUZID AMAR,126 RUE DU 1er NOVEMBRE 1954 El Eulma,19,,,,36.151724,5.689403
384,AICHOUR LARBI,BOULEVARD BRAHIM ZEGHAR El Eulma,19,,,,36.1505099,5.6999461
385,KADRI MANSOUR,ZAOUIET LES DEUX RUEX LA REVOLUTION IBRAHIM ZEGAR El Eulma,19,,,,36.153098,5.6926809
386,MAHOUR BACHA SLIMANE,108 RUE MOHAMED KHMISTI El Eulma,19,,,,36.1505099,5.6999461
387,REZOUGUE LAKHDAR,RUE CHINOUNE MOHAMED Bougaa,19,,,,36.334064,5.0891805
388,ARABA AZOUZ,RUE CHENOUN MOHAMED Bougaa,19,,,,36.334064,5.0891805
389,KHOUALEF MABROUK,2 CITE 100 LOGTS BT A Ain El Kebira,19,,,,36.3695684,5.5075105
390,RAHEL ABEDELKADER,RUE DES FRERES CHETIOUI Amoucha,19,,,,36.3879438,5.4110623
391,FERIOUA DJAMEL,43 CITE ASSOUAR BT B BAKHOUCHE CHERIF Setif,19,,,,36.1897593,5.4107984
392,KHOUATHRIA MAHMOUD,147 RUE 1ER NOVEMBRE 54 El Eulma,19,,,,36.1529129,5.6797332
393,LAFET AMAR,23 CITE 80 LOGTS BT B Ain El Kebira,19,,,,36.3695684,5.5075105
394,BENCHEIKH EL HADJ,CITE MESSALTI ABBES Setif,19,,,,36.1790422,5.422392
395,EL KOLI TOUNSSI,1 RUE DU 1ER NOVEMBRE 54 Ain El Kebira,19,,,,36.3695684,5.5075105
396,BOUROUIS ZIDANE,36 AVENUE BACHIR BOUKADOUM Skikda,21,,,,36.8733403,6.9096742
397,BEN YAHIA RAMDHANE,62 AVENUE KADOUR BLIZIDIA Skikda,21,,,,36.8662658,6.9062556
398,SEMOUMA YAZID,7 CITE DES ALLEES 20 AOUT 55 TOUR 27 Skikda,21,,,,36.8646414,6.9137371
399,GUERIREM ABDELHAFIDH,4 RUE MOULOUD BOURAS Skikda,21,,,,36.8789224,6.9060053
400,BOUMESSAD MOHAMED,32 RUE ABDELLAH BENGHERFE ALLAH Skikda,21,,,,36.883152,6.9054596
401,BEN RADOUAN AISSA,CITE 24 LOGTS BT SONATIBA El Harrouch,21,,,,36.6545563,6.8329628
402,BELGHAZI MOULOUD,AVENUE L'AKHELE TAHER EL KOL Skikda,21,,,,36.8796509,6.9147479
403,OUADI ALI,CITE 1ER NOVEMBRE 28 LOGTS Azzaba,21,,,,36.7411032,7.1116629
404,NOUARI HOCINE,72 AVENUE DIDOUCHE MOURAD Skikda,21,,,,36.870155,6.9107549
405,AMIAR EDRISS,5 AVENUE ASSLA HOCINE Skikda,21,,,,36.870155,6.9107549
406,SAAD ELLAH MESSAOUD,6 AVENUE ALI BOUSEKINE CITE 60 LOGTS EL KOL Skikda,21,,,,36.8662658,6.9062556
407,MAAOUI ABED EL HAMID,2 CITE LES ALLEES 20 AOUT 1955 BT 5 Skikda,21,,,,36.8713246,6.9124453
408,BOUCHIBA MOHAMED,6 RUE LAURASSI Sfisef,22,,,,35.2351049,-0.242702
409,DELANI ALI,34 CITE EL BASATINE BT B BLOC 03 BP 53 Sfisef,22,,,,35.2351049,-0.242702
410,BOUTERFASS ABEDELKADER,BOULEVARD LARBI BEN M'HIDI TELAGHT Sidi Bel Abbes,22,,,,35.1882619,-0.6336665
411,BEN HEDDER MOHAMED,7 RUE BENALI BEKHALED Sidi Bel Abbes,22,,,,35.1920112,-0.63192
412,BIRECHE YAHIA,10 RUE BAIT EL QUODS Sidi Bel Abbes,22,,,,35.1897386,-0.635
413,MEHNANE DRISS,4 RUE KAISSER TAHER Sidi Bel Abbes,22,,,,35.2008838,-0.6308376
414,MAAMAR MOHAMED,22 RUE JEAN JACK ROUSSAU Sidi Bel Abbes,22,,,,35.2104646,-0.6297183
415,OFFICE PUBLIC NOTARIAL,6 RUE SORIA BENDIMERED Sidi Bel Abbes,22,,,,35.1917253,-0.6268135
416,BELMAMOUNE ABDELAZIZ,8 RUE EL MEDINA Sidi Bel Abbes,22,,,,35.1896977,-0.6347126
417,SELLAM LAMIA OFFICE D'ETUDE NOTARIAL,19 COMMANDANT FERRADJ Sidi Bel Abbes,22,,,,35.1916211,-0.6324026
418,KADI AHMED,6 RUE DE LA MECQUE Sidi Bel Abbes,22,,,,35.1904819,-0.6353187
419,BOUCHEMOUKHA AZEDDINE,IMMEUBLE SOUIDANI BOUDJEMAA Annaba Rp,23,,,,36.900401,7.753418
420,TELILI MABROUK,14 AVENUE EMIR ABDELKADER Annaba Rp,23,,,,36.8982602,7.7582576
421,DJEDI KHADIDJA,4 PLACE TAREK BEN ZIAD Annaba Rp,23,,,,36.8999186,7.7594858
422,DERBALI AMAR,1 PLACE DE LA REVOLUTION Annaba Rp,23,,,,36.9142081,7.7426673
423,DELMI HOURIA,23 COUR DE LA REVOLUTION Annaba Rp,23,,,,36.8992246,7.7601246
424,TAOUTAOU MOULOUD,1 RUE ZIGHOUD YOUCEF Annaba,23,,,,36.9142081,7.7426673
425,SAHKI HOCINE,22 RUE MOHAMED KHEMISTI Annaba,23,,,,36.8977204,7.758904
426,KERKOUB RACHID,6 PLACE TARIK IBN ZIAD Annaba Rp,23,,,,36.9142081,7.7426673
427,LAOUABDIA SALAMI ALI,BOULEVARD CHIKH EL ARBI TEBESSI N 05 Annaba,23,,,,36.8996699,7.7572435
428,MALKI RABAH,10 RUE BOUZEBIDE AHMED Annaba,23,,,,36.9142081,7.7426673
429,HAZERLI AMAR,6 RUE EMIR ABDELKADER Annaba,23,,,,36.8964114,7.758031
430,AMIRAT AMAR,2 RUE IBN KHALDOUNE PASSAGE BONISSIER Annaba,23,,,,36.8987031,7.7578972
431,AHCENE CHAOUCHE MOUNIR,14 RUE EL ARBI TEBESSI Annaba,23,,,,36.8996699,7.7572435
432,BOULEDOUA MOHAMMED,1 RUE KENITI ESSEBTI Annaba,23,,,,36.9142081,7.7426673
433,ZIANE LINDA CHENARE,3 RUE BEN HAWAZ IBRAHIM 1ER ET. Annaba,23,,,,36.9142081,7.7426673
434,MOURAD NAZIHA,8 RUE VAL MASCORTE Annaba,23,,,,36.9196943,7.7521132
435,DAAMACH IBRAHIM,4 RUE DE LA CNRA Annaba,23,,,,36.8996743,7.761347
436,NAAMANE SAID,9 RUE SAYOUD ACHOUR Annaba,23,,,,36.9082431,7.7592077
437,SENOUCI MOHAMED SALLEH,CITE 8 MAI 1945 Annaba,23,,,,36.9142081,7.7426673
438,ROUBACHE LAAMRI,CITE 502 LOGTS BATIMENT F El Hadjar,23,,,,36.8074707,7.7389134
439,KRAKRIA RAFIK,108 RUE LAARBI BEN M'HIDI El Hadjar,23,,,,36.8074707,7.7389134
440,MEGHENI ABDRAOUF,CITE 502 LOGTS BATIMENT 01 El Hadjar,23,,,,36.8074707,7.7389134
441,SID ALI ABDRAHMANE,4 RUE LA GLACIERE Annaba,23,,,,36.9012733,7.7572164
442,ABDESSAMED SALIM,13 RUE LAMARA  ABEDELKADER Annaba,23,,,,36.9006199,7.759374
443,KHARBOUDJ MOHAMED,27 RUE KHEMISTI PLACE DU THEATRE Annaba,23,,,,36.8977204,7.758904
444,BOULKRAH MOHAMED SALAH,46 BOULEVARD EMIR ABDELKADER Annaba Rp,23,,,,36.8999293,7.7580523
445,ARABA ABDELGHANI,CITE DES CHAMPS MANOEUVRES Guelma,24,,,,36.4587605,7.4301211
446,BELAATAR SAKINA,5 CITE EL MOUNAOUARAT BT 22 Guelma,24,,,,36.4627444,7.4330833
447,KIRATI MOHAMED,BT SOUGUAN 2 Guelma,24,,,,36.4627444,7.4330833
448,OURETH BOUGUERA,1 KAHDOUR TAHER BT 40 Guelma,24,,,,36.4627444,7.4330833
449,KASMI RABII,CITE 130 LOGTS BT 13 Oued Zenati,24,,,,36.3100347,7.1657362
450,REHAB ALI,AVENUE AMAR REGHIBA Oued Zenati,24,,,,36.3100347,7.1657362
451,HOUAMRIA MOHAMED LAKHDAR,CITE 550 LOGTS Bouchegouf,24,,,,36.4716931,7.7258575
452,ASSABAA ZIDANE,8 RUE 19 MAI 1956 Constantine,25,,,,36.3681164,6.61228
453,BOUTAKA AHMED,2 CITE MENTOURI BOSKI BT T4 Constantine Sidi Mabrouk,25,,,,36.3593882,6.6389031
454,TOUAM HASSEN,RUE BEN CHALAL SMAIL Constantine,25,,,,36.3570052,6.6390282
455,HAMEL MOHAMED,CITE FILALI BATIMENT D 22 Constantine,25,,,,36.3570052,6.6390282
456,AMAMRA BOUZID,CITE BOUSSOUF BT C8/94 Constantine,25,,,,36.330062,6.577004
457,GHIMOUZ MESSAOUD,32 RUE TATACHE BELKACEM Constantine,25,,,,36.3585703,6.63277
458,CHERAOUNA NOUREDDINE,12 AVENUE ZABANE Constantine,25,,,,36.3570052,6.6390282
459,BELHAMADI CHAABANE,909 CITE 1000 LOGTS BLOCS 88 El Khroub,25,,,,36.2593314,6.7014537
460,BOUCHOUL KAMEL,2 CITE EL DAKSI ABDELSALEM BLOC S BT K Constantine,25,,,,36.3560687,6.6440456
461,SEMAKDJI SALAH,CITE DAKSI BT C 216 Constantine,25,,,,36.3560687,6.6440456
462,NOURINE MESSAOUD,BP 119 HAMA BOUZIANE Constantine,25,,,,36.4220962,6.5988893
463,BOUDARESA ELAREBI,CITE EL DAKSI ABDELSALEM BATIMENT 22 ENTREE1 N 3 Constantine,25,,,,36.3570052,6.6390282
464,BENMAAOUCHE RACHID,5 BOULEVARD ELQODSE Constantine,25,,,,36.3570052,6.6390282
465,FERIH HOCINE,8 CITE DAKSI ABDELSALEM BT 3 BIS Constantine,25,,,,36.3560687,6.6440456
466,BEN HAMZA FAIZA,BOULEVARD SAIDANI ABDELMADJID JOLIE VUE Constantine,25,,,,36.3570052,6.6390282
467,LAOUR KHALISSA,2 BD ZIBOUCHE MOHAMED Constantine,25,,,,36.3570052,6.6390282
468,KHADOUCHE ELDARADJI,CITE 1039 LOGTS BATIMENT 77 N 03 El Khroub,25,,,,36.2595177,6.6951774
469,BOURIO MOURAD,CITE 1013 LOGTS BATIMENTS BATIMENT 54 N 2 El Khroub,25,,,,36.2567073,6.6952254
470,BEN OUISS MUSTAPHA,36 CITE 40 LOGTS BT C El Khroub,25,,,,36.2593314,6.7014537
471,BOULKRADACHE RAOUF,CITE 864 LOGTS BLOC 62/776 ALI MENDJELI El Khroub,25,,,,36.2570374,6.5831384
472,SAMIRA AICHA,UV 5 PROMOTION ZIANI BT 10 1ER ET. 11 ET 10 El Khroub,25,,,,36.2593314,6.7014537
473,BOUDCHICHA AHMED,1 RUE MADAOUI BOUDJEMAA BAB EL KANTARA Constantine,25,,,,36.3690234,6.6180745
474,BOUSSEKINE BOUDJEMAA,3 CITE DES 1013 LOGTS BT 61 El Khroub,25,,,,36.2593314,6.7014537
475,HADOURI AHMED,17 CITE 1039 BT 5 El Khroub,25,,,,36.2595177,6.6951774
476,DEROUICHE SIHEM,1 RUE SAIFI AISSA SAINT JEAN Constantine,25,,,,36.3570052,6.6390282
477,FILALI MALIKA,5 CITE 1000 LOGTS BT 89 El Khroub,25,,,,36.2593314,6.7014537
478,DJAAFAR SAAD,2 RUE  ABED EL KRIM BOUBERTAKH Constantine,25,,,,28.033886,1.659626
479,FILALI ABDERRAZAK,2 CITE DES MAGISTRATS Boussouf (cite),25,,,,44.8366432,-0.5790262
480,BAKHOUCHE MALIKA,CITE AFOUTENI EL AREBI HLM BATIMENT A6 N 201 Sidi Mabrouk,25,,,,36.35663,6.6330819
481,BEN ELMOUFAK ABDERRAOUF,19 BD CHAYDEKH MOHAMED Sidi Mabrouk,25,,,,36.3623629,6.6390931
482,FANTAZI HAMID,CITE EL DAKSI ABDELSALEM BT KQ BLOC 1 LOCAL 5 Constantine,25,,,,41.8411406,-85.6697188
483,KOUADRI YOUSEF,148 RUE ALI GHACHI Didouche Mourad,25,,,,48.8370792,2.3650429
484,KALI ABDELHAFID,CITE FERACHE AHMED BT A N°1 Medea,26,,,,36.2637078,2.7587857
485,BENTOUMI MUSTAPHA,ROUTE MOHAMED KHEMISTI Ksar El Boukhari,26,,,,35.8763773,2.7488447
486,ABDOUN MESSAOUD,RUE DE LA PALESTINE Tablat,26,,,,36.4131818,3.3110706
487,SAADEDDINE AHMED,CITE DU 8 MAI 45 Beni Slimane,26,,,,36.2272319,3.3071806
488,BAHOUT LAMIA,RTE D'ALGER EN FACE LABORATOIRE MEDECAL ZITTOUNI Medea,26,,,,36.2726578,2.7650096
489,TEBBAL ABDELLATIF,19 RUE DES FRERES ABDI Medea,26,,,,36.2637078,2.7587857
490,KERMEZLI MOHAMMED,CITE BOUZIANE Medea,26,,,,36.2637078,2.7587857
491,TESSOUH HAMMOU,LOT 55 39 VILLA 11 Berrouaghia,26,,,,36.1397978,2.9189942
492,OUAKED TAYEB,CITE BEN KHEROUBI TAYEB Medea,26,,,,36.2637078,2.7587857
493,BEN KRITLI SID AHMED,2 AVENUE MOHAMED KHEMISTI Mostaganem,27,,,,35.9339679,0.0897595
494,BOUZID EL GHALI,3 RUE SATAL EL DJELALI Mostaganem,27,,,,35.9311454,0.0909414
495,OUAZANI MOHAMED,19 RUE KHETTAB ABEDELKADER Mostaganem,27,,,,35.9311454,0.0909414
496,BEN TERIKI FETHI,172 CITE 200 LOGTS BLOC F Sidi Ali,27,,,,36.0997892,0.4281316
497,BOUAIBIB ADA,24 RUE BRAIS ABEDERRAHMENE Mostaganem,27,,,,35.9311454,0.0909414
498,HECINI FATMA ZOHRA,CITE DU 20 AOUT Sidi Aissa,28,,,,35.885157,3.774373
499,BOUKHELT ABDELKADER,CITE OUAOUA EL MADANI M'sila,28,,,,35.708979,4.5415378
500,DJIDJAA HOCINE,CITE OUAOUA EL MADANI M'sila,28,,,,35.708979,4.5415378
501,MOUSSAI MOUSSA,CITE BENYOUNES EL HADJ BP 242 M'sila,28,,,,35.7186646,4.5233423
502,ZITOUNI AMAR,NOUVELLE ZONE URBAINE M'sila,28,,,,35.7186646,4.5233423
503,DJEMIAP MOHAMED SALEH,CITE ADMINISTRATION BP 1315 M'sila,28,,,,35.7186646,4.5233423
504,MADANI MOHAMMED,CITE DE L'ANCIEN MARCHE Sidi Aissa,28,,,,35.885157,3.774373
505,ETTAHAR SALAH,RUE LARBI TEBESSI Bou Saada,28,,,,35.2113258,4.1817194
506,LEMOUENNES SAAD,CITE PLATEAU Bou Saada,28,,,,35.2163516,4.181463
507,MEKIRECHE IBRAHIM,1/433 RUE ANCIENNE D'ALGER  CITE MOUAMINE M'sila,28,,,,35.7186646,4.5233423
508,LESLET HAMDI,CITE DU 24 FEVRIER Ain El Melh,28,,,,34.8467202,4.1618039
509,DEBABI SAID,CITE BENYOUNES EL HADJ BP 403 M'sila,28,,,,35.7186646,4.5233423
510,DJARIDA HOCINE,RUE DE LA PALESTINE M'sila,28,,,,35.7186646,4.5233423
511,HASSANI HASSANE,RUE MOHAMED KHEMISTI Bou Saada,28,,,,35.2106575,4.1754982
512,EL HADJ MEHDI FODHIL,CITE BENYOUNES EL HADJ M'sila,28,,,,35.7186646,4.5233423
513,GUENDOUZ EL ARBI,CITE ADMINISTRATIVE RUE IBRAHIM KHOUDJA M'sila,28,,,,35.7186646,4.5233423
514,BEN KHADA YOUCEF,6 RUE NACEREDDINE Mascara,29,,,,35.4020988,0.1400257
515,ZEMOULI MOHAMED,19 RUE MAHMOUD Mascara,29,,,,35.385337,0.1265627
516,MASLA MOHAMED,RUE DOCTEUR KHALED Mascara,29,,,,35.3955233,0.1400142
517,KENICHE MOHAMED,ROUTE DE SAIDA RUE ABED MOKHTAR Ghriss,29,,,,35.3928494,0.1423193
518,BEN HAOUA ABED EL DJELIL,8 RUE MHOUR IDRISS Mascara,29,,,,35.0834324,-89.8073035
519,WALID MOHAMED,6 RUE MOHOR DRISS Mascara,29,,,,34.4341513,-119.9202039
520,AMOURI ABEDELKADER,9 RUE BAHLOUL BELDJELALI Mascara,29,,,,35.4020988,0.1400257
521,NAKROUF MOHAMED,CITE 23 LOGTS BT C/17 VILLE NOUVELLE Sig,29,,,,34.0230185,-4.9982704
522,BELMELIANI ABEDELKADER,23 RUE ZIGHOUD YOUCEF Sig,29,,,,35.5330201,-0.1986068
523,MOUADYH ABDELMONAAM,RUE BOUKHELIF BEN OUDA Mohammadia,29,,,,35.5919096,0.06542
525,CHAMBRE REGIONALE DES NOTAIRES DE L'OUEST,ZONE DES SIEGES 16 USTO Oran,31,,,chamber,35.6989253,-0.5996961
526,MAALOUFI ABDELHAMID,19 RUE BOUDJELLAL AHMED Oran El M'naouer Ctr,31,,,,35.7058968,-0.6336155
527,BEKHTAOUI SAID,BOULEVARD TRIPOLIE ANGLE DIF ALLAH DJILALI Oran,31,,,,35.7051525,-0.6365844
528,MEROUANE ABDELLAH,3 AVENUE DES JARDIN BT HBM BEAU MARCHE Arzew,31,,,,35.8577443,-0.3096606
529,ABED MILOUD,CITE LES OLIVIERS BT M 2 02 Oran,31,,,,35.6987388,-0.6349319
530,BEDJAOUI FATIMA,10 RUE COMMANDANT FERADJ Oran,31,,,,35.7047221,-0.6372929
531,HAZEB BRAHIM MOHAMED FELLAH,3 CITE 1245 LOGTS BT 445 ENTREE 2 CITE IBN ROCHD Oran Usto,31,,,,35.7043816,-0.6008798
532,NAAMENE MUSTAPHA,14 RUE AMAR IBRAHIM Oran,31,,,,35.67576,-0.654856
533,REBAH MOHAMED AISSA,75 RUE LARBI BEN M'HIDI Oran,31,,,,35.7031615,-0.6368335
534,MECHRAFI TAHER,21 RUE KHLIFA BEN SALEM Oran,31,,,,35.6862979,-0.6682545
535,SADEK BAROUDI,34 RUE SMAIL MOHAMED CITE ABED EL MOUMEN Oran,31,,,,35.6987388,-0.6349319
536,LABIOUDH MOHAMED,5 RUE DE LA MARTINE Oran El M'naouer Ctr,31,,,,35.6839831,-0.6030241
537,MASMI MOHAMED,CITE 500 LOGTS BT O BLOC 118 MARCHE 3 Oran Hlm Seddikia,31,,,,35.7091222,-0.6085749
538,ZEBAR KAHLI MERIEM,3 RUE JEAN KRAFT MIRAMAR Oran,31,,,,35.7037512,-0.6324466
539,BEN AMER RACHIDA,2 CITE ZABANA GROUPE 15 BT 3 ENTREE 2 Arzew,31,,,,35.8577443,-0.3096606
540,GEUN MILOUD,16 RUE ECHARK GDYEL Oran,31,,,,35.6951387,-0.6427937
541,MAFTAHI MOHAMED,CITE ABDELKADER OUELD AMER Oran,31,,,,35.6721197,-0.6334462
542,ALTAR ABEDELKADER,44 RUE ZITOUNI AHMED Oued Tlelat,31,,,,35.5522349,-0.4487997
543,BOUDHRAA BOUALEM,20 RUE MOHAMED KHEMISTI MARSA EL KBIR Oran El M'naouer Ctr,31,,,,35.7286847,-0.7069677
544,MOUFFOUKI YAMINA,34 RUE MEKKI KHELIFA MARAVAL Oran,31,,,,35.6759054,-0.651467
545,ETUDE NOTARIALE,10 RAMPE COMMANDANT FERADJ Oran El M'naouer Ctr,31,,,,35.6987388,-0.6349319
546,LATTOUF ABDELWAHAB,VILLA 98 COOPERATIVE 18 FEVRIER CITE SALEM EX SAINT HUBERT Oran,31,,,,35.6987388,-0.6349319
547,ARICHI ABDELLAH,37 BOULEVARD BENZERJEB PLATEAU Oran,31,,,,35.7062629,-0.6140773
548,ABDELKADER BEN HAMOUDA,RUE DES MARTYRS FARES EL HOUARI 790 LOGTS 4 Oran,31,,,,35.6987388,-0.6349319
549,LATOUF ZIAD,10 PLACE AUCHE Oran El M'naouer Ctr,31,,,,35.6786655,-0.6536763
550,HERNANE ABEDERRAHMENE,9 RUE CHINDER Oran El M'naouer Ctr,31,,,,35.7002039,-0.6493789
551,LAACHOUB MOHAMED,2 RUE DES MARTYRS Arzew,31,,,,35.8020205,-0.3706755
552,OUACHENE NOUREDDINE,26 RUE MOHAMED KHEMISTI GDYEL Oran,31,,,,35.6987388,-0.6349319
553,SOCIETE CIVILE PROFESSIONNELLE MAHI EL AMINE & LAHCEN NACER ZIN-EDDINE,35 RUE DU 20 AOUT 55 Oran El M'naouer Ctr,31,,,company,35.7045419,-0.6408513
554,OTHMANI ABED EL MADJID,2 RUE SERGENT HADHRI MOHAMED Oran El M'naouer Ctr,31,,,,35.6987388,-0.6349319
555,CHAIB DHRAA MOHAMED,11 RUE ZIDANE MILOUD Oran,31,,,,35.6925458,-0.6482091
556,BELBIOUDH BEN AISSA,11 RUE KHALFA BEN ABDESSLAM Oran,31,,,,35.6987388,-0.6349319
557,BOUAZA ABID AHMED,60 RUE CHARIT ALI CHERIF Oran El M'naouer Ctr,31,,,,42.7337073,-84.5351043
558,DJEBAR KOTBI,RUE SALAA EL HBIB El Bayadh,32,,,,33.6854149,1.0303543
559,ABED EL HAMID,RUE NAFAA KOUIFDER CITE RASS EL AIN El Bayadh,32,,,,33.6854149,1.0303543
560,HENDAOUI MADANI,CITE 44 LOGTS 19 LABIADH SIDI CHEIKH El Bayadh,32,,,,32.8970651,0.5457605
561,IDRISSI AHMED,42 LOGTS NOUVELLE ZONE URBAINE Illizi,33,,,,26.4775863,8.4776326
562,AYADHAT BOUDAOUD,45 RUE DU 24 AVRIL Bordj Bou Arreridj,34,,,,36.0739925,4.7630271
563,BEN DIB DJAMEL EDDINE,28 RUE MOHAMED ZEROUKI Bordj Bou Arreridj,34,,,,36.0691561,4.7627336
564,M'BARKI M'BAREK,13 RUE REMECHE AISSA PROMOTION INDIVEDEUL Bordj Bou Arreridj,34,,,,36.0739925,4.7630271
565,TAGIA RABEH,CITE 50 LOGTS BP 82 Ras El Oued,34,,,,35.9402582,5.0283213
566,BEN HIZIA ALI,8 CITE 1ER NOVEMBRE 54 Bordj Bou Arreridj,34,,,,36.0739925,4.7630271
567,SEMARA ILYES,RUE 1ER NOVEMBRE 1954 Ras El Oued,34,,,,35.9402582,5.0283213
568,AMMOUR ZOHEIR,RUE DE L'ALN Mansoura,34,,,,34.8742141,-1.3260841
569,BELGHERBI FARIDA,CITE 300 LOGTS VILLA 8 Boumerdes,35,,,,36.7551365,3.4562362
570,IGHIL GUITOUN OMAR,CITE 708 LOGTS BT A 4 Boumerdes,35,,,,36.7510697,3.4788905
571,BENAKILA ABBES,CITE DES 392 LOGTS BT A 19 Boumerdes,35,,,,36.7653826,3.4644695
572,FEKROUNE BOUBEKEUR,CITE 1406 LOGTS BT 24B 2 Boumerdes,35,,,,36.7510697,3.4788905
573,MEZIANE AMER,COOP EL HOURIA CITE BEN ADJAL Boudouaou,35,,,,36.7204759,3.396615
574,KHRAIMECHE DJAMEL,CITE 11 DECEMBRE 1960 Boumerdes,35,,,,36.7551365,3.4562362
575,OUSLIMANE NOURA,CITE 1406 BT 85 01 Boumerdes,35,,,,36.7510697,3.4788905
576,BOURAOUI MADJID,RUE TOUATI GHANEM Boudouaou,35,,,,36.7204759,3.396615
577,MEDELFEF REDOUANE,53 RUE ALI BENNOUR Bordj Menaiel,35,,,,36.7451529,3.7170988
578,SEBAB SIAB,CITE DE 18 LOGTS RTE NATIONALE 44 Ben M'hidi,36,,,,36.7666372,7.9055824
579,ACHOURI RABEH,RUE HAMDI ABDELLAH MADJID El Tarf,36,,,,36.7576678,8.3076343
580,BERHIHE ABDELGHANI,25 RUE ZEMOURI MOHAMMED Drean,36,,,,36.6865627,7.7208062
581,SEDDIK SOUAD,LA RTE NATIONALE CITE SAADA BATIMENT 01 Ben M'hidi,36,,,,36.7666372,7.9055824
582,MENACER ABD LAAZIZE,CITE 46 LOGTS 44 Drean,36,,,,36.6865627,7.7208062
583,KADRI MOHAMED,ROUTE BOUHADJAR El Tarf,36,,,,36.5075732,8.1058446
584,BOUKHARI NACIRA,BOULEVARD ARASSI ABD ELMADJID Dren,36,,,,42.58912,-71.15457
585,CHERAD MAHMOUD,RUE AISSAT IDIR GUASABI Tindouf,37,,,,27.6719159,-8.1398003
586,BEN ABEDELLAH M'HAMED,4 CITE KABOUL AHMED Lardjem,38,,,,35.7491541,1.5474579
587,TEFANDJAR SAID,CITE 100 LOGTS Tissemsilt,38,,,,35.6597215,1.5351457
588,RAHMANI FATIHA,CITE OUM SALMA El Oued,39,,,,33.367811,6.8516511
589,M'KARAB ABED EL HAMID,CITE DES ENSEIGNANTS BT 5 L'MAGHAIR El Oued,39,,,,33.367811,6.8516511
590,ZAHRI ABDERREZAK,16 AVENUE ABBES LAGHROUR Khenchela,40,,,,35.4269404,7.1460155
591,ALLALI AHMED,2 AVENUE DE LA PALESTINE Khenchela,40,,,,35.4269404,7.1460155
592,SIADI MOHAMED SADEK,118 CITE 700 LOGTS BT B Khenchela,40,,,,35.4242584,7.1453609
593,YAKHLEF MESSAOUD,31 RUE EMIR ABDELKADER Khenchela,40,,,,35.4355788,7.1482096
594,HAZIL EL AYACHI,1 RUE DU 1ER NOVEMBRE 54 Khenchela,40,,,,35.4269404,7.1460155
595,EL AIDI AHMED,CITE SALAH SOUFI BT 4/2 Sedrata,41,,,,36.1345249,7.5297476
596,LAAROUM MUSTAPHA,8 AVENUE MOULOUD FERAOUN Souk Ahras,41,,,,36.2855903,7.9613829
597,TALBI MUSTAPHA,PLACE DE L'INDEPENDANCE Souk Ahras,41,,,,36.2801062,7.9384033
598,SAHRAOUI MOHAMED TAHAR,9 RUE HADJ AHMED OUADI Cherchell,42,,,,36.5955738,2.2525015
599,GUECHOUT ABDELLATIF,36 AVENUE ALI BELHACEN Cherchell,42,,,,36.5955738,2.2525015
600,BERTIL MOHAMMED,RUE LES FRERES TAIL Hadjout,42,,,,36.5088655,2.4128469
601,MEBARKI SALAH,CITE 82 LOGTS RTE DU STADE 2 Hadjout,42,,,,36.5121841,2.4142994
602,BOUKEFFA MESSAOUD,RUE BOUCHOUNE MOHAMED Bou Ismail,42,,,,36.6392852,2.6962722
603,NASSRI MOHAND,2 CITE 150 LOGTS BT B22 Kolea,42,,,,36.6381616,2.7669757
604,ZIBOUCHE RIDHA,RUE DE LA GENDARMERIE NATIONALE Tipaza,42,,,,36.5901285,2.4513385
605,BOUKHALFA NASSIMA,RUE AYOUMA MOHAMMED 25 Tipaza,42,,,,36.5906719,2.4433723
606,MAAMAR HAROUN,32 RUE LAASSEL ABDELHAMID Hadjout,42,,,,36.5104252,2.4104798
607,HAMMOUDI SAAD,RUE DES FRERES DJARBOUA Ain Tagourait,42,,,,36.6027621,2.6091145
608,KEMOUCHE MOHAMED,7 RUE YOUCEF KHOUDJA Cherchell,42,,,,36.6079573,2.1890427
609,MEKHLOUFI MUSTAPHA,AVENUE 40 LOGTS BT S 22 Tipaza,42,,,,36.5906719,2.4433723
610,BOURAS RABEH,DAIRA DE TELAGHMA Oued Seguen,43,,,,36.1787191,6.3889194
611,BOUHLESSA AMAR,26 CITE OUSCOURT ABEDKRIM Chelghoum Laid,43,,,,36.1591597,6.1727342
612,LABIOD MOHAMED,33 CITE OUSKOURT ABEDELKRIM Chelghoum Laid,43,,,,36.1646701,6.1636356
613,BOUCHERMA DRISS,02 CITE DES 100 LOGTS BT 2 Zeghaia,43,,,,36.4692715,6.1755208
614,DRIDI THEBET HABIBA,14 RUE SAIGHI Mila,43,,,,36.4519049,6.2584338
615,FILALI ABEDREZAK,1 RUE BOULHARTH SALEH Mila,43,,,,36.4519049,6.2584338
616,KHALFA AMAR,CITE DES 500 LOGTS BT B 3 Ferdjioua,43,,,,36.4051142,5.94196
617,TORCHI HAMOU,CITE SOUMMAM Ferdjioua,43,,,,36.3928996,5.93253
618,DRIDI EL HADI,CITE SOUMMAM 200 LOGTS BT 2 C Ferdjioua,43,,,,36.4051142,5.94196
619,MKADEM AFFAF,CITE AHMED BOUSEKINE N 21 Ferdjioua,43,,,,36.4051142,5.94196
620,KEBI ABDELHAMID,167 CITE 500 LOGTS Mila,43,,,,36.4555626,6.2608287
621,TEBANI MOHAMED,01 RUE CHÂTEAU D' EAU Mila,43,,,,36.4519049,6.2584338
622,BEN ZAHRA SALAHEDDINE,38 RUE MAHMOUD BEN TOUNSI Mila,43,,,,36.4519049,6.2584338
623,BELMENAI YASER,03 RUE 1ER NOVEMBRE 1954 Mila,43,,,,36.4519049,6.2584338
624,YAKHLEF DJAMEL,142 CITE BOUTOUT BT 14 Mila,43,,,,36.455673,6.2651446
625,CHANIBE SAMIA,CITE 18 LOGTS Oued Endja,43,,,,36.5000205,6.0713274
626,MOKRANE SALIHA,44 RUE EL HOURIA Mila,43,,,,36.4519049,6.2584338
627,MAHNAOUI NABIL,84 CITE 150 LOGTS BT C5 Chelghoum Laid,43,,,,36.1635599,6.1837559
628,LABED CHERIF,CITE 20 AOUT 1955    Chelghoum Laid,43,,,,36.1591597,6.1727342
629,BOUNAMOUSE ABDELHAK,RUE ALI ZEGHDOUD 20 BIS Mila,43,,,,42.3836083,-87.9446972
630,ZIDOUK DJILLALI,CITE DES FRERES MENAD NUMERO 121 Ain Defla,44,,,,36.2509429,1.9393815
631,ACHOUR ALI,RUE ABESS MOHAMED Khemis Miliana,44,,,,36.2609828,2.2343578
632,EL MAIZI DJILLALI,RUE DJADI ABDELKADER Khemis Miliana,44,,,,36.2609828,2.2343578
633,MOULELOUED ABDELKADER,RUE MOHAMED KHEMISTI El Attaf,44,,,,36.2612536,1.9627311
634,BEN AIDA RACHIDA,194 CITE OPGI El Attaf,44,,,,36.2258291,1.6737113
635,YEMOUNI AHMED,RUE BEL SAADI ABDELKADER Khemis Miliana,44,,,,36.2612536,1.9627311
636,KELKOULI NADIA,CITE SIDI MAAMER BT 1/543 Khemis Miliana,44,,,,36.2609828,2.2343578
637,ABBADA NEZHA,4 RUE DU PALESTIN CITE NORD Miliana,44,,,,36.3080267,2.228407
638,ABDELBAKI SOUAD,18 CITE FRERES MENAD Ain Defla,44,,,,36.2612536,1.9627311
639,LABOUZI AMAR,RUE FRERES OULIDREN Ain Defla,44,,,,36.2612536,1.9627311
640,SLIMANI MOHAMED,RUE 1er NOVEMBRE Khemis Miliana,44,,,,36.2609828,2.2343578
641,ABDELBAKI SOUAD,5 RUE FRERES MENAD PROJET 18 LOGTS BT B Ain Defla,44,,,,36.2612536,1.9627311
642,NOMAIRI & SAAD POUR LES SERVICES AGRICOLES SNC,28 RUE KOUASMI DJILLALI Ain Defla,44,,,company,36.2509429,1.9393815
643,SADIKI MOKHTAR,RUE CHOUAKI TAYEB 8 LOGTS Mecheria,45,,,,33.5428376,-0.2751123
644,KACI NOUREDDINE,CITE KHEMISTI RUE BEN OUDA MOHAMED Mecheria,45,,,,33.5428376,-0.2751123
645,RAHMANI LAARADJ,RUE SOUMMAM Ain Sefra,45,,,,32.7591169,-0.5782621
646,RAHALI BAROUDI,12 RUE EMIR ABDELKADER El Malah,46,,,,35.3870327,-1.0976722
647,BAHLOUL YAHIA,16 RUE M'BAREK BOUCIF Ain Temouchent,46,,,,35.2914326,-1.1390807
648,BERACHED SAAD,91 RUE DE LA REPUBLIQUE Beni Saf,46,,,,35.2897861,-1.3768856
649,SOUABI MOHAMED,962 CITE 1000 LOGTS BT S1 BLOC B Ain Temouchent,46,,,,35.2992698,-1.1392792
650,BELKHCHI FATIHA,41 CITE ABOU BEKRE ESSEDIK Ain Temouchent,46,,,,35.2992698,-1.1392792
651,SIROUKANE OMAR,RUE LARBI BEN M'HIDI Bounoura,47,,,,32.4889043,3.6705385
652,DKHINISSA RABAH,RUE ACHAHMA MOUSSA CITE THENIET EL MAKHZEN Ghardaia,47,,,,32.4759277,3.6846906
653,BOUSSAAD SAID,RUE EMIR ABDELKADER GUERRARA Ghardaia,47,,,,32.48625,3.6757622
654,ALLAL BAHAZ,AVE EMIR ABDELKADER BP 321 Ghardaia,47,,,,32.48625,3.6757622
655,EL HADJ MOHAMMED BELAHMED,RUE CHEIKH BELAHMED Ghardaia,47,,,,32.4889043,3.6705385
656,SIROUKANE OMAR BEN MOUSSA,RUE CHEIKH ABDELAZIZ ETHAMNI BP 138 Beni Isguen,47,,,,32.4627718,3.6792719
657,ROGUI SLIMANE,BOULEVARD EMIR ABDELKADER Relizane,48,,,,35.7450263,0.5578837
658,BAHRI MOHAMED,9 AVENUE DOCTEUR BOUKHALOUA Relizane,48,,,,35.745465,0.5588659
659,DJILLALI ABEDELKADER,39 RUE DE LA REPUBLIQUE Relizane,48,,,,35.7450263,0.5578837
660,MESKINI AICHA,3 CITE DIAR EL WARDE BT L Relizane,48,,,,35.7450263,0.5578837
661,AZIZI KHATHIR,RUE BEN KAHLA MENOUER Oued Rhiou,48,,,,35.9770048,0.9247501
662,KOUDRLI MENNOUR,RUE CTRE COMMERCIAL Mazouna,48,,,,36.12647,0.8906102
663,KHATHIR ABEDELLAH,RUE BEN KOUDIA MAAMAR Oued Rhiou,48,,,,35.9770048,0.9247501
664,BEN SAADA MUSTAPHA,CITE ADMINISTRATIVE Mazouna,48,,,,36.12647,0.8906102
665,MELLAHI BEN YOUCEF,RUE KHALIFA EL HADJ Ammi Moussa,48,,,,35.8721265,1.1079316
