{
"type": "FeatureCollection",
"crs": { "type": "name", "properties": { "name": "urn:ogc:def:crs:OGC:1.3:CRS84" } },
"features": [
{ "type": "Feature", "properties": { "num": 1, "name": "BARIK BOUDJEMAA", "address": "CITE 103 LOGTS BP 575 Adrar", "code_wil": 1, "court": "Adrar", "tel": "049 96 53 89", "status": "physical", "lat": 28.0174403, "lon": -0.2642497, "to_check": false }, "geometry": { "type": "Point", "coordinates": [ -0.2642497, 28.0174403 ] } },
{ "type": "Feature", "properties": { "num": 2, "name": "BENHADJ AHMED", "address": "CITE DES 40 LOGTS LOCAL 25 Adrar", "code_wil": 1, "court": "Adrar", "tel": "049 96 67 26", "status": "physical", "lat": 28.0174403, "lon": -0.2642497, "to_check": false }, "geometry": { "type": "Point", "coordinates": [ -0.2642497, 28.0174403 ] } },
{ "type": "Feature", "properties": { "num": 3, "name": "AZZOU ABD ERRAHMANE", "address": "Rue Amrad Cité OULED ANKAL Adrar", "code_wil": 1, "court": "Adrar", "tel": "049 96 53 19", "status": "physical", "lat": 36.1020088, "lon": 2.7122871, "to_check": true }, "geometry": { "type": "Point", "coordinates": [ 2.7122871, 36.1020088 ] } },
{ "type": "Feature", "properties": { "num": 4, "name": "MIMOUNI ABDELKADER", "address": "Rue Mokadem El Arbi, lot 30 Group 191 Adrar", "code_wil": 1, "court": "Adrar", "tel": "0665 01 20 18", "status": "physical", "lat": 28.0174403, "lon": -0.2642497, "to_check": false }, "geometry": { "type": "Point", "coordinates": [ -0.2642497, 28.0174403 ] } },
{ "type": "Feature", "properties": { "num": 5, "name": "OULED ALI AHMED", "address": "Cité 60 Logements Timimoun Adrar", "code_wil": 1, "court": "Timimoun", "tel": "0555 40 62 94", "status": "physical", "lat": 35.261165, "lon": 6.368815, "to_check": true }, "geometry": { "type": "Point", "coordinates": [ 6.368815, 35.261165 ] } },
{ "type": "Feature", "properties": { "num": 6, "name": "AROUCHE HOCINE", "address": "CITE BEN HAMMADI ALLAL Timimoun Adrar", "code_wil": 1, "court": "Timimoun*", "tel": null, "status": "physical", "lat": 29.2616911, "lon": 0.2415964, "to_check": false }, "geometry": { "type": "Point", "coordinates": [ 0.2415964, 29.2616911 ] } },
{ "type": "Feature", "properties": { "num": 7, "name": "BELLAOUI ABDELKADER", "address": "Cité casbah Aoulef Adrar", "code_wil": 1, "court": "Aoulef", "tel": "0550 40 62 94", "status": "physical", "lat": 26.9728529, "lon": 1.0770355, "to_check": false }, "geometry": { "type": "Point", "coordinates": [ 1.0770355, 26.9728529 ] } },
{ "type": "Feature", "properties": { "num": 22, "name": "DAHMANE SBAIHIA M'HAMED", "address": "14 RUE IBN ROCHD Chlef", "code_wil": 2, "court": null, "tel": null, "status": null, "lat": 36.168687, "lon": 1.335816, "to_check": false }, "geometry": { "type": "Point", "coordinates": [ 1.335816, 36.168687 ] } },
{ "type": "Feature", "properties": { "num": 21, "name": "HAMADOUCHE ABDELKADER", "address": "4 RUE SI ALLAL Chlef", "code_wil": 2, "court": null, "tel": null, "status": null, "lat": 36.1579664, "lon": 1.3372823, "to_check": false }, "geometry": { "type": "Point", "coordinates": [ 1.3372823, 36.1579664 ] } },
{ "type": "Feature", "properties": { "num": 20, "name": "TEKIA ABDELHAMID", "address": "CITE DES FONCTIONNAIRES BT C\/1 EMIR ABDELKADER Chlef", "code_wil": 2, "court": null, "tel": null, "status": null, "lat": 36.1696316, "lon": 1.3410486, "to_check": false }, "geometry": { "type": "Point", "coordinates": [ 1.3410486, 36.1696316 ] } },
{ "type": "Feature", "properties": { "num": 19, "name": "BEN SAADA MOUSTAPHA", "address": "27 RUE DE LA RESISTANCE Chlef", "code_wil": 2, "court": null, "tel": null, "status": null, "lat": 36.1667634, "lon": 1.3361096, "to_check": false }, "geometry": { "type": "Point", "coordinates": [ 1.3361096, 36.1667634 ] } },
{ "type": "Feature", "properties": { "num": 18, "name": "MAKHFI MOKHTAR", "address": "RUE LES FRERES BEN SOULTAN BP 137 Tenes Chlef", "code_wil": 2, "court": null, "tel": null, "status": null, "lat": 36.5081163, "lon": 1.3078225, "to_check": false }, "geometry": { "type": "Point", "coordinates": [ 1.3078225, 36.5081163 ] } },
{ "type": "Feature", "properties": { "num": 17, "name": "HADJ SADOUK MALIKA", "address": "RUE EMIR ABDELKADER Chlef", "code_wil": 2, "court": null, "tel": null, "status": null, "lat": 35.7317713, "lon": -0.5772584, "to_check": true }, "geometry": { "type": "Point", "coordinates": [ -0.5772584, 35.7317713 ] } },
{ "type": "Feature", "properties": { "num": 16, "name": "TERBAK ABDELKADER", "address": "24 RUE EL KODS Tenes Chlef", "code_wil": 2, "court": null, "tel": null, "status": null, "lat": 36.5081163, "lon": 1.3078225, "to_check": false }, "geometry": { "type": "Point", "coordinates": [ 1.3078225, 36.5081163 ] } },
{ "type": "Feature", "properties": { "num": 15, "name": "BEN DAOUDIA DRISS", "address": "1 CITE 136 LOGTS BT I Chlef", "code_wil": 2, "court": null, "tel": null, "status": null, "lat": 36.1579664, "lon": 1.3372823, "to_check": false }, "geometry": { "type": "Point", "coordinates": [ 1.3372823, 36.1579664 ] } },
{ "type": "Feature", "properties": { "num": 14, "name": "KELLOUCHE ABDELKADER", "address": "RUE DES MARTYRS Chlef", "code_wil": 2, "court": null, "tel": null, "status": null, "lat": 36.1672147, "lon": 1.3375502, "to_check": false }, "geometry": { "type": "Point", "coordinates": [ 1.3375502, 36.1672147 ] } },
{ "type": "Feature", "properties": { "num": 13, "name": "SAMET BOUHAYEK DJILLALI", "address": "26 RUE EL MOUSSAAD AZZOUN Chlef", "code_wil": 2, "court": null, "tel": null, "status": null, "lat": 32.177101, "lon": 35.055957, "to_check": true }, "geometry": { "type": "Point", "coordinates": [ 35.055957, 32.177101 ] } },
{ "type": "Feature", "properties": { "num": 12, "name": "HAMADOUCHE ROKIA", "address": "4 RUE SI ALLEL Chlef", "code_wil": 2, "court": null, "tel": null, "status": null, "lat": 36.1579664, "lon": 1.3372823, "to_check": false }, "geometry": { "type": "Point", "coordinates": [ 1.3372823, 36.1579664 ] } },
{ "type": "Feature", "properties": { "num": 11, "name": "BENOUSSAR AHMED", "address": "2 RUE DE LA RESISTANCE Chlef", "code_wil": 2, "court": null, "tel": null, "status": null, "lat": 36.1667634, "lon": 1.3361096, "to_check": false }, "geometry": { "type": "Point", "coordinates": [ 1.3361096, 36.1667634 ] } },
{ "type": "Feature", "properties": { "num": 10, "name": "BEZIOU MOHAMED", "address": "CENTRE COMMERCIAL BOUKADIR Boukadir Chlef", "code_wil": 2, "court": null, "tel": null, "status": null, "lat": 36.1672147, "lon": 1.3375502, "to_check": false }, "geometry": { "type": "Point", "coordinates": [ 1.3375502, 36.1672147 ] } },
{ "type": "Feature", "properties": { "num": 9, "name": "BEN M'HAMED ABDELLAH", "address": "53 RUE DE LA REPUBLIQUE Chlef", "code_wil": 2, "court": null, "tel": null, "status": null, "lat": 36.1697843, "lon": 1.3436311, "to_check": false }, "geometry": { "type": "Point", "coordinates": [ 1.3436311, 36.1697843 ] } },
{ "type": "Feature", "properties": { "num": 8, "name": "BOUDJELTIA ABDELKADER", "address": "42 RUE DES MARTYRS Chlef", "code_wil": 2, "court": null, "tel": null, "status": null, "lat": 36.16777, "lon": 1.3372814, "to_check": false }, "geometry": { "type": "Point", "coordinates": [ 1.3372814, 36.16777 ] } },
{ "type": "Feature", "properties": { "num": 23, "name": "AMARI SIHEM", "address": "RUE MOSQUEE EL IMEM EL HOUSAIN CITE MAAMOURA Laghouat", "code_wil": 3, "court": null, "tel": null, "status": null, "lat": 33.7969044, "lon": 2.8657002, "to_check": false }, "geometry": { "type": "Point", "coordinates": [ 2.8657002, 33.7969044 ] } },
{ "type": "Feature", "properties": { "num": 24, "name": "DJERADI YOUCEF", "address": "RUE AMIR ABDELKADER CITE EL GHARBIA Laghouat", "code_wil": 3, "court": null, "tel": null, "status": null, "lat": 33.8041979, "lon": 2.8787076, "to_check": false }, "geometry": { "type": "Point", "coordinates": [ 2.8787076, 33.8041979 ] } },
{ "type": "Feature", "properties": { "num": 25, "name": "SLIMANI MOHAMED", "address": "CITE EL MAAMOURA Laghouat", "code_wil": 3, "court": null, "tel": null, "status": null, "lat": 33.7969044, "lon": 2.8657002, "to_check": false }, "geometry": { "type": "Point", "coordinates": [ 2.8657002, 33.7969044 ] } },
{ "type": "Feature", "properties": { "num": 26, "name": "EL TAHER MAHFOUD", "address": "RUE AKKARI BELKACEM Aflou Laghouat", "code_wil": 3, "court": null, "tel": null, "status": null, "lat": 50.27248, "lon": 1.667315, "to_check": true }, "geometry": { "type": "Point", "coordinates": [ 1.667315, 50.27248 ] } },
{ "type": "Feature", "properties": { "num": 34, "name": "KADEM ABDEREZAK", "address": "CITE BEN BOULAID 1150 Oum El Bouaghi", "code_wil": 4, "court": null, "tel": null, "status": null, "lat": 35.8688789, "lon": 7.1108266, "to_check": false }, "geometry": { "type": "Point", "coordinates": [ 7.1108266, 35.8688789 ] } },
{ "type": "Feature", "properties": { "num": 33, "name": "YEKHLEF AMAR", "address": "9 AVENUE RICHI Ain M'lila  Oum El Bouaghi", "code_wil": 4, "court": null, "tel": null, "status": null, "lat": 36.0370574, "lon": 6.5702778, "to_check": false }, "geometry": { "type": "Point", "coordinates": [ 6.5702778, 36.0370574 ] } },
{ "type": "Feature", "properties": { "num": 32, "name": "HILAL RACHID", "address": "CITE DES 30 LOGTS Ain Fakroun  Oum El Bouaghi", "code_wil": 4, "court": null, "tel": null, "status": null, "lat": 35.9772098, "lon": 6.8733714, "to_check": false }, "geometry": { "type": "Point", "coordinates": [ 6.8733714, 35.9772098 ] } },
{ "type": "Feature", "properties": { "num": 31, "name": "BOUDHRAA NADIR", "address": "23 RUE IDIR AISSAT Ain M'lila  Oum El Bouaghi", "code_wil": 4, "court": null, "tel": null, "status": null, "lat": 36.0370574, "lon": 6.5702778, "to_check": false }, "geometry": { "type": "Point", "coordinates": [ 6.5702778, 36.0370574 ] } },
{ "type": "Feature", "properties": { "num": 29, "name": "HAFID SEBTI", "address": "AVENUE ZIDOUNI AMARA Ain Beida  Oum El Bouaghi", "code_wil": 4, "court": null, "tel": null, "status": null, "lat": 35.7958379, "lon": 7.3902546, "to_check": false }, "geometry": { "type": "Point", "coordinates": [ 7.3902546, 35.7958379 ] } },
{ "type": "Feature", "properties": { "num": 28, "name": "BELILI MOHAMED", "address": "CITE HIHI EL MEKI BP 163 Oum El Bouaghi", "code_wil": 4, "court": null, "tel": null, "status": null, "lat": 35.8743221, "lon": 7.1229161, "to_check": false }, "geometry": { "type": "Point", "coordinates": [ 7.1229161, 35.8743221 ] } },
{ "type": "Feature", "properties": { "num": 27, "name": "SASSI HAMID", "address": "CITE 1ER NOVEMBRE 54 BT 01 ETAGE 21 Oum El Bouaghi", "code_wil": 4, "court": null, "tel": null, "status": null, "lat": 35.8688789, "lon": 7.1108266, "to_check": false }, "geometry": { "type": "Point", "coordinates": [ 7.1108266, 35.8688789 ] } },
{ "type": "Feature", "properties": { "num": 30, "name": "BOULKAYLA ALI", "address": "RUE ZAOUI ABEDELMADJID Ain Beida  Oum El Bouaghi", "code_wil": 4, "court": null, "tel": null, "status": null, "lat": 35.796101, "lon": 7.3903528, "to_check": false }, "geometry": { "type": "Point", "coordinates": [ 7.3903528, 35.796101 ] } },
{ "type": "Feature", "properties": { "num": 44, "name": "BEN HAFIDH AMAR", "address": "AVENUE SAID RAHMANI AIN TOUTA Ain Touta Batna", "code_wil": 5, "court": null, "tel": null, "status": null, "lat": 35.3808071, "lon": 5.9020128, "to_check": false }, "geometry": { "type": "Point", "coordinates": [ 5.9020128, 35.3808071 ] } },
{ "type": "Feature", "properties": { "num": 50, "name": "LEBRARA ABDERRAHMANE", "address": "RUE  1ER NOVEMBRE 1954 Barika Batna", "code_wil": 5, "court": null, "tel": null, "status": null, "lat": 35.5580484, "lon": 6.1876094, "to_check": false }, "geometry": { "type": "Point", "coordinates": [ 6.1876094, 35.5580484 ] } },
{ "type": "Feature", "properties": { "num": 49, "name": "BEKHOUCHE AHMED", "address": "RUE MOUSTAPHA BEN BOULAID Batna", "code_wil": 5, "court": null, "tel": null, "status": null, "lat": 35.553858, "lon": 6.177427, "to_check": false }, "geometry": { "type": "Point", "coordinates": [ 6.177427, 35.553858 ] } },
{ "type": "Feature", "properties": { "num": 48, "name": "ZEKRAOUI BELKACEM", "address": "01 ALLES SALAH NEZZAR Batna", "code_wil": 5, "court": null, "tel": null, "status": null, "lat": 35.5467747, "lon": 6.1716127, "to_check": false }, "geometry": { "type": "Point", "coordinates": [ 6.1716127, 35.5467747 ] } },
{ "type": "Feature", "properties": { "num": 47, "name": "YOUB KELTHOUM", "address": "30 RUE DES FRERES BOUADSA Batna", "code_wil": 5, "court": null, "tel": null, "status": null, "lat": 35.553858, "lon": 6.177427, "to_check": false }, "geometry": { "type": "Point", "coordinates": [ 6.177427, 35.553858 ] } },
{ "type": "Feature", "properties": { "num": 46, "name": "BARKAT TAHER", "address": "CITE 410 LOGTS BAT 36 Batna", "code_wil": 5, "court": null, "tel": null, "status": null, "lat": 35.6712876, "lon": 1.9692014, "to_check": true }, "geometry": { "type": "Point", "coordinates": [ 1.9692014, 35.6712876 ] } },
{ "type": "Feature", "properties": { "num": 45, "name": "MADJOUR AISSA", "address": "27 CITE FRERES DIBABI BOUAKAL 3EME Batna", "code_wil": 5, "court": null, "tel": null, "status": null, "lat": 35.5355017, "lon": 6.174758, "to_check": false }, "geometry": { "type": "Point", "coordinates": [ 6.174758, 35.5355017 ] } },
{ "type": "Feature", "properties": { "num": 43, "name": "BELKADHI KHALIFA", "address": "6 CITE 200 LOGTS BLOC A Merouana Batna", "code_wil": 5, "court": null, "tel": null, "status": null, "lat": 35.6320745, "lon": 5.9131539, "to_check": false }, "geometry": { "type": "Point", "coordinates": [ 5.9131539, 35.6320745 ] } },
{ "type": "Feature", "properties": { "num": 42, "name": "BELOUM ABEDELLAH", "address": "6 RUE KOUBABI ALI CITE EMIR ABDELKADER Barika Batna", "code_wil": 5, "court": null, "tel": null, "status": null, "lat": 35.3844754, "lon": 5.3713596, "to_check": false }, "geometry": { "type": "Point", "coordinates": [ 5.3713596, 35.3844754 ] } },
{ "type": "Feature", "properties": { "num": 41, "name": "MAARAF ABEDSSELEM", "address": "3 RUE LARBI TEBESSI Batna", "code_wil": 5, "court": null, "tel": null, "status": null, "lat": 35.5524755, "lon": 6.179129, "to_check": false }, "geometry": { "type": "Point", "coordinates": [ 6.179129, 35.5524755 ] } },
{ "type": "Feature", "properties": { "num": 40, "name": "DALINDA SAID", "address": "19 PROM IMMOBILIERE BOUZERIA LES ALLEES 19 MARS BLOC 19 1ER ETAGE Batna", "code_wil": 5, "court": null, "tel": null, "status": null, "lat": 35.5634192, "lon": 6.1889996, "to_check": false }, "geometry": { "type": "Point", "coordinates": [ 6.1889996, 35.5634192 ] } },
{ "type": "Feature", "properties": { "num": 39, "name": "DELINDA KAMEL", "address": "15 RUE CHENAF AMAR QUARTIER VERDURE Batna", "code_wil": 5, "court": null, "tel": null, "status": null, "lat": 35.5634192, "lon": 6.1889996, "to_check": false }, "geometry": { "type": "Point", "coordinates": [ 6.1889996, 35.5634192 ] } },
{ "type": "Feature", "properties": { "num": 38, "name": "BOUBGUIRA KAMEL", "address": "CITE 20 AOUT 1955 Batna", "code_wil": 5, "court": null, "tel": null, "status": null, "lat": 35.6320745, "lon": 5.9131539, "to_check": false }, "geometry": { "type": "Point", "coordinates": [ 5.9131539, 35.6320745 ] } },
{ "type": "Feature", "properties": { "num": 37, "name": "BOUHARA SAID", "address": "CITE DES 50 LOGTS BT B ETAGE 13 Batna", "code_wil": 5, "court": null, "tel": null, "status": null, "lat": 35.62856, "lon": 5.9140823, "to_check": false }, "geometry": { "type": "Point", "coordinates": [ 5.9140823, 35.62856 ] } },
{ "type": "Feature", "properties": { "num": 36, "name": "BENHOUDA BRAHIM", "address": "5 BD BENFLIS Batna", "code_wil": 5, "court": null, "tel": null, "status": null, "lat": 35.553858, "lon": 6.177427, "to_check": false }, "geometry": { "type": "Point", "coordinates": [ 6.177427, 35.553858 ] } },
{ "type": "Feature", "properties": { "num": 35, "name": "BOUTEGHRAR ALLAOUA", "address": "33 RUE DES FRERES BOUAABSSA Batna", "code_wil": 5, "court": null, "tel": null, "status": null, "lat": 35.553858, "lon": 6.177427, "to_check": false }, "geometry": { "type": "Point", "coordinates": [ 6.177427, 35.553858 ] } },
{ "type": "Feature", "properties": { "num": 61, "name": "CHAOU HAMOU", "address": "RUE DES FRERES HAFFIF SIDI AHMED Bejaia", "code_wil": 6, "court": null, "tel": null, "status": null, "lat": 36.7493649, "lon": 5.0592183, "to_check": false }, "geometry": { "type": "Point", "coordinates": [ 5.0592183, 36.7493649 ] } },
{ "type": "Feature", "properties": { "num": 62, "name": "KATI AHMED", "address": "CITE 300 LOGTS NACERIA BT 31 Bejaia", "code_wil": 6, "court": null, "tel": null, "status": null, "lat": 36.1895144, "lon": 5.3203801, "to_check": true }, "geometry": { "type": "Point", "coordinates": [ 5.3203801, 36.1895144 ] } },
{ "type": "Feature", "properties": { "num": 59, "name": "DAHMANI YOUCEF", "address": "RUE DE LA LIBERTE TOUR GENI SIDER 1ER ETAGE Bejaia", "code_wil": 6, "court": null, "tel": null, "status": null, "lat": 36.7539191, "lon": 5.0747046, "to_check": false }, "geometry": { "type": "Point", "coordinates": [ 5.0747046, 36.7539191 ] } },
{ "type": "Feature", "properties": { "num": 64, "name": "MOHAND CHERIF HASSINA", "address": "40 LOGTS BT B 05 RUE DES FRERES DOUAOUDIA Bejaia", "code_wil": 6, "court": null, "tel": null, "status": null, "lat": 36.7515258, "lon": 5.0556837, "to_check": false }, "geometry": { "type": "Point", "coordinates": [ 5.0556837, 36.7515258 ] } },
{ "type": "Feature", "properties": { "num": 65, "name": "BEN KADOUR LAKHAL", "address": "23 CITE 80 LOGTS BT B5 Sidi Aich Bejaia", "code_wil": 6, "court": null, "tel": null, "status": null, "lat": 36.6398095, "lon": 5.2415142, "to_check": false }, "geometry": { "type": "Point", "coordinates": [ 5.2415142, 36.6398095 ] } },
{ "type": "Feature", "properties": { "num": 63, "name": "IBERAKENE IDIR", "address": "CITE AGHZEZ AMOKRANE RN N 26 OUZELEKENE Bejaia", "code_wil": 6, "court": null, "tel": null, "status": null, "lat": 36.5450566, "lon": 4.6205497, "to_check": false }, "geometry": { "type": "Point", "coordinates": [ 4.6205497, 36.5450566 ] } },
{ "type": "Feature", "properties": { "num": 58, "name": "IDER BELAID", "address": "CITE FIGHOU Tazmalt Bejaia", "code_wil": 6, "court": null, "tel": null, "status": null, "lat": 36.3903818, "lon": 4.3954971, "to_check": false }, "geometry": { "type": "Point", "coordinates": [ 4.3954971, 36.3903818 ] } },
{ "type": "Feature", "properties": { "num": 60, "name": "CHEMROUK NADIA", "address": "QUAI DE LA GARE Sidi Aich Bejaia", "code_wil": 6, "court": null, "tel": null, "status": null, "lat": 36.7493649, "lon": 5.0592183, "to_check": false }, "geometry": { "type": "Point", "coordinates": [ 5.0592183, 36.7493649 ] } },
{ "type": "Feature", "properties": { "num": 56, "name": "TAZAMOUCHT NEDJIMA", "address": "CITE DES 24 LOGTS ZONE INDUSTRIELLE COMMERCIALE BT A Souk Eltenine Bejaia", "code_wil": 6, "court": null, "tel": null, "status": null, "lat": 36.6279732, "lon": 5.3351901, "to_check": false }, "geometry": { "type": "Point", "coordinates": [ 5.3351901, 36.6279732 ] } },
{ "type": "Feature", "properties": { "num": 57, "name": "KHABCHECHE EL HAFSSI", "address": "AVENUE DU 1ER NOVEMBRE 1954 Kherrata Bejaia", "code_wil": 6, "court": null, "tel": null, "status": null, "lat": 36.4618975, "lon": 4.5274267, "to_check": false }, "geometry": { "type": "Point", "coordinates": [ 4.5274267, 36.4618975 ] } },
{ "type": "Feature", "properties": { "num": 55, "name": "BOUGUERA ALI IBN KHEMISTI", "address": "CITE DU 1ER NOVEMBRE 54 Kherrata Bejaia", "code_wil": 6, "court": null, "tel": null, "status": null, "lat": 36.7521984, "lon": 5.0723761, "to_check": false }, "geometry": { "type": "Point", "coordinates": [ 5.0723761, 36.7521984 ] } },
{ "type": "Feature", "properties": { "num": 54, "name": "BOUKHARI ZAKIA", "address": "96 LOGTS BT A4 28 TOUBALE Bejaia", "code_wil": 6, "court": null, "tel": null, "status": null, "lat": 36.7515258, "lon": 5.0556837, "to_check": false }, "geometry": { "type": "Point", "coordinates": [ 5.0556837, 36.7515258 ] } },
{ "type": "Feature", "properties": { "num": 53, "name": "BOUFEDJAR LARBI", "address": "ROUTE DES AURESS BT C2 NACERIA Bejaia", "code_wil": 6, "court": null, "tel": null, "status": null, "lat": 36.7475804, "lon": 5.0648252, "to_check": false }, "geometry": { "type": "Point", "coordinates": [ 5.0648252, 36.7475804 ] } },
{ "type": "Feature", "properties": { "num": 52, "name": "KASSI HOCINE", "address": "RESIDENCE DE LA FORET SACREE AVENUE AMIROUCHE Bejaia", "code_wil": 6, "court": null, "tel": null, "status": null, "lat": 36.7541855, "lon": 5.0813739, "to_check": false }, "geometry": { "type": "Point", "coordinates": [ 5.0813739, 36.7541855 ] } },
{ "type": "Feature", "properties": { "num": 51, "name": "LAHDIRI AMAR", "address": "BOULEVARD DE LA REVOLUTION Bejaia", "code_wil": 6, "court": null, "tel": null, "status": null, "lat": 36.7493649, "lon": 5.0592183, "to_check": false }, "geometry": { "type": "Point", "coordinates": [ 5.0592183, 36.7493649 ] } },
{ "type": "Feature", "properties": { "num": 74, "name": "ABED EL BAKI BEN OMAR", "address": "141 CITE ESSADA Tolga Biskra", "code_wil": 7, "court": null, "tel": null, "status": null, "lat": 34.9346106, "lon": 5.1305127, "to_check": false }, "geometry": { "type": "Point", "coordinates": [ 5.1305127, 34.9346106 ] } },
{ "type": "Feature", "properties": { "num": 73, "name": "MANSOURE ABD NACER", "address": "35 RUE MOHAMED EL ARBI BAARIR Biskra", "code_wil": 7, "court": null, "tel": null, "status": null, "lat": 34.8458801, "lon": 5.7122995, "to_check": false }, "geometry": { "type": "Point", "coordinates": [ 5.7122995, 34.8458801 ] } },
{ "type": "Feature", "properties": { "num": 72, "name": "BEN HOURIA BRAHIM", "address": "RUE 1er NOVEMBRE 1954 Ouled Djellal Biskra", "code_wil": 7, "court": null, "tel": null, "status": null, "lat": 34.4294289, "lon": 5.0681159, "to_check": false }, "geometry": { "type": "Point", "coordinates": [ 5.0681159, 34.4294289 ] } },
{ "type": "Feature", "properties": { "num": 71, "name": "BOUSTTA MOHAMED", "address": "1 RUE MOHAMED NEDJAR Biskra", "code_wil": 7, "court": null, "tel": null, "status": null, "lat": 36.736355, "lon": 3.1817678, "to_check": true }, "geometry": { "type": "Point", "coordinates": [ 3.1817678, 36.736355 ] } },
{ "type": "Feature", "properties": { "num": 68, "name": "SAADAOUI ABED EL HAMID", "address": "19 RUE EMIR ABDELKADER Biskra", "code_wil": 7, "court": null, "tel": null, "status": null, "lat": 35.2914326, "lon": -1.1390807, "to_check": true }, "geometry": { "type": "Point", "coordinates": [ -1.1390807, 35.2914326 ] } },
{ "type": "Feature", "properties": { "num": 69, "name": "SEKOUR MOHAMED", "address": "RUE 24 AVRIL Biskra", "code_wil": 7, "court": null, "tel": null, "status": null, "lat": 34.8449437, "lon": 5.7248567, "to_check": false }, "geometry": { "type": "Point", "coordinates": [ 5.7248567, 34.8449437 ] } },
{ "type": "Feature", "properties": { "num": 67, "name": "TOUTI FERHAT", "address": "2 AVE BELLILI ABOUBAKER SEDDIK Biskra", "code_wil": 7, "court": null, "tel": null, "status": null, "lat": 34.8449437, "lon": 5.7248567, "to_check": false }, "geometry": { "type": "Point", "coordinates": [ 5.7248567, 34.8449437 ] } },
{ "type": "Feature", "properties": { "num": 66, "name": "AZOUI SALAH", "address": "RUE ABDAOUI ABDERAHMANE Biskra", "code_wil": 7, "court": null, "tel": null, "status": null, "lat": 34.8544475, "lon": 5.7310443, "to_check": false }, "geometry": { "type": "Point", "coordinates": [ 5.7310443, 34.8544475 ] } },
{ "type": "Feature", "properties": { "num": 70, "name": "BEN MECHICHE ABED EL AZIZ", "address": "RUE DES FRERES MENANI Biskra", "code_wil": 7, "court": null, "tel": null, "status": null, "lat": 36.7520272, "lon": 2.9841482, "to_check": true }, "geometry": { "type": "Point", "coordinates": [ 2.9841482, 36.7520272 ] } },
{ "type": "Feature", "properties": { "num": 80, "name": "SENBA YOUCEF", "address": "06 Rue Amir Abd El Kader Debdaba Bechar", "code_wil": 8, "court": "Bechar", "tel": "049 22 72 37", "status": "physical", "lat": 31.6238098, "lon": -2.2162443, "to_check": false }, "geometry": { "type": "Point", "coordinates": [ -2.2162443, 31.6238098 ] } },
{ "type": "Feature", "properties": { "num": 82, "name": "CHEBAH CHERIF", "address": "5 CITE 703 LOGTS Beni Abbes Bechar", "code_wil": 8, "court": "Beni Abbes", "tel": "049 22 72 37", "status": "physical", "lat": 30.1312217, "lon": -2.1662258, "to_check": false }, "geometry": { "type": "Point", "coordinates": [ -2.1662258, 30.1312217 ] } },
{ "type": "Feature", "properties": { "num": 81, "name": "LAABABI HAFIDHA", "address": "CITE EL EMIR ABDELKADER 129 BT 1 CTRE VILLE Bechar", "code_wil": 8, "court": "Bechar*", "tel": null, "status": null, "lat": 31.6238098, "lon": -2.2162443, "to_check": false }, "geometry": { "type": "Point", "coordinates": [ -2.2162443, 31.6238098 ] } },
{ "type": "Feature", "properties": { "num": 79, "name": "BIA RBIHA", "address": "Bloc 04 Cité 68 Logements Centre ville Bechar", "code_wil": 8, "court": "Bechar", "tel": "049 22 12 00 \/ 0660 74 93 44", "status": "physical", "lat": 31.6238098, "lon": -2.2162443, "to_check": false }, "geometry": { "type": "Point", "coordinates": [ -2.2162443, 31.6238098 ] } },
{ "type": "Feature", "properties": { "num": 78, "name": "KESSOUL MOHAMED", "address": "74 Rue Ezaoui Diab Bechar", "code_wil": 8, "court": "Bechar", "tel": "049 22 10 25", "status": "physical", "lat": 31.6238098, "lon": -2.2162443, "to_check": false }, "geometry": { "type": "Point", "coordinates": [ -2.2162443, 31.6238098 ] } },
{ "type": "Feature", "properties": { "num": 77, "name": "AMRI BACHIR", "address": "531 CITE EL BADR Bechar", "code_wil": 8, "court": "Bechar", "tel": "049 81 12 55 \/ 0662 12 57 87", "status": "physical", "lat": 36.3763516, "lon": 3.8900332, "to_check": true }, "geometry": { "type": "Point", "coordinates": [ 3.8900332, 36.3763516 ] } },
{ "type": "Feature", "properties": { "num": 76, "name": "RAHMANI MOHAMED", "address": "129 Batiment A Rue Meddouni Rachid Bechar", "code_wil": 8, "court": "Bechar", "tel": "049 21 18 47", "status": "physical", "lat": 31.6238098, "lon": -2.2162443, "to_check": false }, "geometry": { "type": "Point", "coordinates": [ -2.2162443, 31.6238098 ] } },
{ "type": "Feature", "properties": { "num": 75, "name": "DJABRI EL BACHIR", "address": "CITE 62 LOGTS 55 CTRE VILLE Bechar", "code_wil": 8, "court": "Bechar", "tel": "049 21 67 50 \/ 0560 02 14 29", "status": "physical", "lat": 31.6238098, "lon": -2.2162443, "to_check": false }, "geometry": { "type": "Point", "coordinates": [ -2.2162443, 31.6238098 ] } },
{ "type": "Feature", "properties": { "num": 100, "name": "TRAD KARIMA", "address": "RUE DU 11 DECEMBRE 1960 CITE PIMA BT E N 5 Blida", "code_wil": 9, "court": null, "tel": null, "status": null, "lat": 36.4887391, "lon": 2.8213773, "to_check": false }, "geometry": { "type": "Point", "coordinates": [ 2.8213773, 36.4887391 ] } },
{ "type": "Feature", "properties": { "num": 101, "name": "MESSAOUDI MOHAMED", "address": "CITE ALILI AHMED Boufarik Blida", "code_wil": 9, "court": null, "tel": null, "status": null, "lat": 36.4735715, "lon": 2.8323153, "to_check": false }, "geometry": { "type": "Point", "coordinates": [ 2.8323153, 36.4735715 ] } },
{ "type": "Feature", "properties": { "num": 102, "name": "ZGHIDI SOUAD", "address": "2 RUE ZAGHOUANI ABDELKADER Ouled Yaich Blida", "code_wil": 9, "court": null, "tel": null, "status": null, "lat": 36.4982371, "lon": 2.8640987, "to_check": false }, "geometry": { "type": "Point", "coordinates": [ 2.8640987, 36.4982371 ] } },
{ "type": "Feature", "properties": { "num": 103, "name": "RAHOU ASMA", "address": "TRANCHE SLIMANI Chiffa Blida", "code_wil": 9, "court": null, "tel": null, "status": null, "lat": 45.5318097, "lon": -73.6604025, "to_check": true }, "geometry": { "type": "Point", "coordinates": [ -73.6604025, 45.5318097 ] } },
{ "type": "Feature", "properties": { "num": 104, "name": "HADJI ASSIA", "address": "CITE 1240 LOGTS  Ouled Yaich Blida", "code_wil": 9, "court": null, "tel": null, "status": null, "lat": 36.4953912, "lon": 2.8471672, "to_check": false }, "geometry": { "type": "Point", "coordinates": [ 2.8471672, 36.4953912 ] } },
{ "type": "Feature", "properties": { "num": 105, "name": "CHIKER MOUSTAPHA", "address": "CITE 250 LOGTS El Affroun Blida", "code_wil": 9, "court": null, "tel": null, "status": null, "lat": 36.4701592, "lon": 2.625741, "to_check": false }, "geometry": { "type": "Point", "coordinates": [ 2.625741, 36.4701592 ] } },
{ "type": "Feature", "properties": { "num": 106, "name": "AMEUR ZAKARIA", "address": "20 RUE DOUISSI ABDELKADER El Affroun Blida", "code_wil": 9, "court": null, "tel": null, "status": null, "lat": 36.4695296, "lon": 2.6290684, "to_check": false }, "geometry": { "type": "Point", "coordinates": [ 2.6290684, 36.4695296 ] } },
{ "type": "Feature", "properties": { "num": 99, "name": "MEHAFDI ABDELAZIZ", "address": "CITE DES 128 LOGTS BT B4\/4 Meftah Blida", "code_wil": 9, "court": null, "tel": null, "status": null, "lat": 36.6223869, "lon": 3.2261299, "to_check": false }, "geometry": { "type": "Point", "coordinates": [ 3.2261299, 36.6223869 ] } },
{ "type": "Feature", "properties": { "num": 107, "name": "OUSSALEM ARAB", "address": "8 AVENUE TAKARLI ABDERREZAK Blida", "code_wil": 9, "court": null, "tel": null, "status": null, "lat": 36.468349, "lon": 2.832168, "to_check": false }, "geometry": { "type": "Point", "coordinates": [ 2.832168, 36.468349 ] } },
{ "type": "Feature", "properties": { "num": 108, "name": "IKHLEF MAHFOUD", "address": "CITE 30 LOGTS BT 1 BEN BOULAID Blida", "code_wil": 9, "court": null, "tel": null, "status": null, "lat": 36.4880838, "lon": 2.8340269, "to_check": false }, "geometry": { "type": "Point", "coordinates": [ 2.8340269, 36.4880838 ] } },
{ "type": "Feature", "properties": { "num": 109, "name": "KHALED KOUIDER", "address": "RUE DIDOUCHE MOURAD 11 Blida", "code_wil": 9, "court": null, "tel": null, "status": null, "lat": 36.4860147, "lon": 2.8263335, "to_check": false }, "geometry": { "type": "Point", "coordinates": [ 2.8263335, 36.4860147 ] } },
{ "type": "Feature", "properties": { "num": 110, "name": "SEBIHI SADEK", "address": "RUE 11 DECEMBRE 1960 127 Blida", "code_wil": 9, "court": null, "tel": null, "status": null, "lat": 36.484604, "lon": 2.826627, "to_check": false }, "geometry": { "type": "Point", "coordinates": [ 2.826627, 36.484604 ] } },
{ "type": "Feature", "properties": { "num": 111, "name": "KHELFI LYNDA", "address": "CITE 5 JUILLET B 39  Beni Merad", "code_wil": 9, "court": null, "tel": null, "status": null, "lat": 36.5207695, "lon": 2.8602746, "to_check": false }, "geometry": { "type": "Point", "coordinates": [ 2.8602746, 36.5207695 ] } },
{ "type": "Feature", "properties": { "num": 112, "name": "DRAFLI HOURIA", "address": "RUE MOHAMED BOURAS Boufarik Blida", "code_wil": 9, "court": null, "tel": null, "status": null, "lat": null, "lon": null, "to_check": true }, "geometry": { "type": "Point", "coordinates": [ 2.919618928158954, 36.492173826868594 ] } },
{ "type": "Feature", "properties": { "num": 98, "name": "ARACHE NOUREDDINE", "address": "17 AVE SI SMAIL OUA SOUIDANI BOUDJEMAA Boufarik Blida", "code_wil": 9, "court": null, "tel": null, "status": null, "lat": 36.5709339, "lon": 2.9112103, "to_check": false }, "geometry": { "type": "Point", "coordinates": [ 2.9112103, 36.5709339 ] } },
{ "type": "Feature", "properties": { "num": 89, "name": "BOUAMRA KHORIS", "address": "RUE MUSTAPHA BEN BOUALI Blida", "code_wil": 9, "court": null, "tel": null, "status": null, "lat": 36.4711582, "lon": 2.8305238, "to_check": false }, "geometry": { "type": "Point", "coordinates": [ 2.8305238, 36.4711582 ] } },
{ "type": "Feature", "properties": { "num": 96, "name": "SOUALMI ABDERAHMAN", "address": "19 CTRE ZABANA RUE D Blida", "code_wil": 9, "court": null, "tel": null, "status": null, "lat": 36.4799716, "lon": 2.8063907, "to_check": false }, "geometry": { "type": "Point", "coordinates": [ 2.8063907, 36.4799716 ] } },
{ "type": "Feature", "properties": { "num": 83, "name": "HAMMOUDA MOHAMED", "address": "RUE SBIHI MEHDI Larbaa Blida", "code_wil": 9, "court": null, "tel": null, "status": null, "lat": 36.7273022, "lon": 3.0673808, "to_check": true }, "geometry": { "type": "Point", "coordinates": [ 3.0673808, 36.7273022 ] } },
{ "type": "Feature", "properties": { "num": 84, "name": "KECHOUT ABDELLATIF", "address": "36 RUE MOHAMED BOUDIAF Blida", "code_wil": 9, "court": null, "tel": null, "status": null, "lat": 36.4818823, "lon": 2.836974, "to_check": false }, "geometry": { "type": "Point", "coordinates": [ 2.836974, 36.4818823 ] } },
{ "type": "Feature", "properties": { "num": 97, "name": "ATMANI MUSTAPHA", "address": "27 RUE BELKACEM  LOUZERI Blida", "code_wil": 9, "court": null, "tel": null, "status": null, "lat": 36.4860147, "lon": 2.8263335, "to_check": false }, "geometry": { "type": "Point", "coordinates": [ 2.8263335, 36.4860147 ] } },
{ "type": "Feature", "properties": { "num": 86, "name": "LARBI ESSEGHIR", "address": "63 AVE AMARA YOUCEF Blida", "code_wil": 9, "court": null, "tel": null, "status": null, "lat": 36.4860147, "lon": 2.8263335, "to_check": false }, "geometry": { "type": "Point", "coordinates": [ 2.8263335, 36.4860147 ] } },
{ "type": "Feature", "properties": { "num": 87, "name": "CHABANE MOHAMMED", "address": "22 RUE BEN ALI Oued El Alleug", "code_wil": 9, "court": null, "tel": null, "status": null, "lat": 36.558265, "lon": 2.793251, "to_check": false }, "geometry": { "type": "Point", "coordinates": [ 2.793251, 36.558265 ] } },
{ "type": "Feature", "properties": { "num": 88, "name": "ARAB CHABANE", "address": "CITE SIDI YAKHLEF BT A Blida", "code_wil": 9, "court": null, "tel": null, "status": null, "lat": 36.484604, "lon": 2.826627, "to_check": false }, "geometry": { "type": "Point", "coordinates": [ 2.826627, 36.484604 ] } },
{ "type": "Feature", "properties": { "num": 85, "name": "MEDJRAB EL HADI", "address": "CITE 110 LOGTS BT E5 30 Blida", "code_wil": 9, "court": null, "tel": null, "status": null, "lat": 36.4933447, "lon": 2.8612952, "to_check": false }, "geometry": { "type": "Point", "coordinates": [ 2.8612952, 36.4933447 ] } },
{ "type": "Feature", "properties": { "num": 91, "name": "SALHI MUSTAPHA", "address": "CITE BEN BOULAID BT R 3 Blida", "code_wil": 9, "court": null, "tel": null, "status": null, "lat": 36.4880838, "lon": 2.8340269, "to_check": false }, "geometry": { "type": "Point", "coordinates": [ 2.8340269, 36.4880838 ] } },
{ "type": "Feature", "properties": { "num": 92, "name": "BOUTINE HOUCINE", "address": "RUE DES FRERES ALILI AHMED 26 Blida", "code_wil": 9, "court": null, "tel": null, "status": null, "lat": 36.4735715, "lon": 2.8323153, "to_check": false }, "geometry": { "type": "Point", "coordinates": [ 2.8323153, 36.4735715 ] } },
{ "type": "Feature", "properties": { "num": 93, "name": "TOUMI BEN ALI NAIMA", "address": "RUE AYOUNA MOHAMED Blida", "code_wil": 9, "court": null, "tel": null, "status": null, "lat": 36.484604, "lon": 2.826627, "to_check": false }, "geometry": { "type": "Point", "coordinates": [ 2.826627, 36.484604 ] } },
{ "type": "Feature", "properties": { "num": 94, "name": "TIGHERSI AHMED", "address": "CITE NOUVELLE MEFTAH BLOC 11 RDC Blida", "code_wil": 9, "court": null, "tel": null, "status": null, "lat": 36.5210052, "lon": 3.0730945, "to_check": false }, "geometry": { "type": "Point", "coordinates": [ 3.0730945, 36.5210052 ] } },
{ "type": "Feature", "properties": { "num": 95, "name": "KHIARI ABDELMALEK", "address": "RUE DES FRERES DJARBOUA Blida", "code_wil": 9, "court": null, "tel": null, "status": null, "lat": 36.4735715, "lon": 2.8323153, "to_check": false }, "geometry": { "type": "Point", "coordinates": [ 2.8323153, 36.4735715 ] } },
{ "type": "Feature", "properties": { "num": 90, "name": "CHIKER MUSTAPHA", "address": "CITE DES 72 LOGTS El Affroun Blida", "code_wil": 9, "court": null, "tel": null, "status": null, "lat": 36.4701592, "lon": 2.625741, "to_check": false }, "geometry": { "type": "Point", "coordinates": [ 2.625741, 36.4701592 ] } },
{ "type": "Feature", "properties": { "num": 122, "name": "KAOUANE MESSAOUD", "address": "6 CITE ARADH SALAH Ain Bessem Bouira", "code_wil": 10, "court": null, "tel": null, "status": null, "lat": 36.3337514, "lon": 3.687402, "to_check": false }, "geometry": { "type": "Point", "coordinates": [ 3.687402, 36.3337514 ] } },
{ "type": "Feature", "properties": { "num": 127, "name": "NIAR IBRAHIM MOHAMMED", "address": "CITE 65 LOGTS RUE ABANE RAMDANE Lakhdaria Bouira", "code_wil": 10, "court": null, "tel": null, "status": null, "lat": 36.3712008, "lon": 3.9013973, "to_check": false }, "geometry": { "type": "Point", "coordinates": [ 3.9013973, 36.3712008 ] } },
{ "type": "Feature", "properties": { "num": 126, "name": "HAMIDI AISSA", "address": "CITE BOUTARMAS 126 LOGTS BT 4 1 Bouira", "code_wil": 10, "court": null, "tel": null, "status": null, "lat": 36.3691846, "lon": 3.9006194, "to_check": false }, "geometry": { "type": "Point", "coordinates": [ 3.9006194, 36.3691846 ] } },
{ "type": "Feature", "properties": { "num": 125, "name": "DJEMAA MOUHOUCHE", "address": "CITE 56 LGTS RUE ABANE RAMDANE Bouira", "code_wil": 10, "court": null, "tel": null, "status": null, "lat": 36.3712008, "lon": 3.9013973, "to_check": false }, "geometry": { "type": "Point", "coordinates": [ 3.9013973, 36.3712008 ] } },
{ "type": "Feature", "properties": { "num": 124, "name": "BERNOU HAMID", "address": "9 RUE SAAD M'SILI Ain Bessem Bouira", "code_wil": 10, "court": null, "tel": null, "status": null, "lat": 36.3337514, "lon": 3.687402, "to_check": false }, "geometry": { "type": "Point", "coordinates": [ 3.687402, 36.3337514 ] } },
{ "type": "Feature", "properties": { "num": 123, "name": "TAIB MOHAMED RACHID", "address": "CITE BOUTRIK M'BAREK Sour El Ghozlane Bouira", "code_wil": 10, "court": null, "tel": null, "status": null, "lat": 36.1508804, "lon": 3.7074189, "to_check": false }, "geometry": { "type": "Point", "coordinates": [ 3.7074189, 36.1508804 ] } },
{ "type": "Feature", "properties": { "num": 121, "name": "KARI NAIMA", "address": "CITE DES 126 LOGTS BOUTERMAS MESSAOUD BT 1 1 ER ETAGE Bouira", "code_wil": 10, "court": null, "tel": null, "status": null, "lat": 36.3691846, "lon": 3.9006194, "to_check": false }, "geometry": { "type": "Point", "coordinates": [ 3.9006194, 36.3691846 ] } },
{ "type": "Feature", "properties": { "num": 118, "name": "BOUCHOUANE MESSAOUD", "address": "5 RUE SI LAKHDER Lakhdaria Bouira", "code_wil": 10, "court": null, "tel": null, "status": null, "lat": 36.3879398, "lon": 3.9010477, "to_check": false }, "geometry": { "type": "Point", "coordinates": [ 3.9010477, 36.3879398 ] } },
{ "type": "Feature", "properties": { "num": 119, "name": "TOUNSI YAHIA", "address": "R.N. 5 RUE COLONEL SI LAKHDER Bouira", "code_wil": 10, "court": null, "tel": null, "status": null, "lat": 36.372297, "lon": 3.892094, "to_check": false }, "geometry": { "type": "Point", "coordinates": [ 3.892094, 36.372297 ] } },
{ "type": "Feature", "properties": { "num": 113, "name": "BECHE AHMED", "address": "CITE HADJ MERZOUK BT A 1 Bouira", "code_wil": 10, "court": null, "tel": null, "status": null, "lat": 36.3627656, "lon": 3.8980721, "to_check": false }, "geometry": { "type": "Point", "coordinates": [ 3.8980721, 36.3627656 ] } },
{ "type": "Feature", "properties": { "num": 117, "name": "HARKAT AMAR", "address": "CITE DES 280 LOGTS BT 9 1 Bouira", "code_wil": 10, "court": null, "tel": null, "status": null, "lat": 36.3691846, "lon": 3.9006194, "to_check": false }, "geometry": { "type": "Point", "coordinates": [ 3.9006194, 36.3691846 ] } },
{ "type": "Feature", "properties": { "num": 116, "name": "BOUSAAD GUEMMAZ", "address": "BT ZEMMOUR MOHAMMED IRAB 69 Bouira", "code_wil": 10, "court": null, "tel": null, "status": null, "lat": 36.3691846, "lon": 3.9006194, "to_check": false }, "geometry": { "type": "Point", "coordinates": [ 3.9006194, 36.3691846 ] } },
{ "type": "Feature", "properties": { "num": 115, "name": "BOUDAR YOUCEF", "address": "CITE TAZGHARAT ACHOUR BT A 1 Bouira", "code_wil": 10, "court": null, "tel": null, "status": null, "lat": 36.3627656, "lon": 3.8980721, "to_check": false }, "geometry": { "type": "Point", "coordinates": [ 3.8980721, 36.3627656 ] } },
{ "type": "Feature", "properties": { "num": 114, "name": "AMROUNE MAAMAR", "address": "RUE EMIR ABDELKADER Sour El Ghozlane Bouira", "code_wil": 10, "court": null, "tel": null, "status": null, "lat": 36.3879398, "lon": 3.9010477, "to_check": false }, "geometry": { "type": "Point", "coordinates": [ 3.9010477, 36.3879398 ] } },
{ "type": "Feature", "properties": { "num": 120, "name": "ABDELAOUI ZOULIKHA", "address": "CITE DES 120 LOGTS BT 1 APPT 3 Bouira", "code_wil": 10, "court": null, "tel": null, "status": null, "lat": 36.5389502, "lon": 3.675159, "to_check": false }, "geometry": { "type": "Point", "coordinates": [ 3.675159, 36.5389502 ] } },
{ "type": "Feature", "properties": { "num": 128, "name": "ABDELBAKI MADANI", "address": "AVENUE DU 5 JUILLET SERSOUF Tamanrasset", "code_wil": 11, "court": null, "tel": null, "status": null, "lat": 22.8003817, "lon": 5.5276046, "to_check": false }, "geometry": { "type": "Point", "coordinates": [ 5.5276046, 22.8003817 ] } },
{ "type": "Feature", "properties": { "num": 129, "name": "REKANI NADJEM", "address": "BOULEVARD MOKRANI SAID Tamanrasset", "code_wil": 11, "court": null, "tel": null, "status": null, "lat": 45.5318097, "lon": -73.6604025, "to_check": true }, "geometry": { "type": "Point", "coordinates": [ -73.6604025, 45.5318097 ] } },
{ "type": "Feature", "properties": { "num": 130, "name": "MOULAY SLIMANE", "address": "BP 315 In Salah Tamanrasset", "code_wil": 11, "court": null, "tel": null, "status": null, "lat": 27.1997512, "lon": 2.4891292, "to_check": false }, "geometry": { "type": "Point", "coordinates": [ 2.4891292, 27.1997512 ] } },
{ "type": "Feature", "properties": { "num": 138, "name": "BEN FADHA MOHAMED TAHER", "address": "CITE 08 MAI 1945 El Aouinet Tebessa", "code_wil": 12, "court": null, "tel": null, "status": null, "lat": 36.7366449, "lon": 3.1905192, "to_check": true }, "geometry": { "type": "Point", "coordinates": [ 3.1905192, 36.7366449 ] } },
{ "type": "Feature", "properties": { "num": 137, "name": "REBII RAFIK", "address": "43 CITE 84 LOGTS Bir El Ater Tebessa", "code_wil": 12, "court": null, "tel": null, "status": null, "lat": 35.5511843, "lon": 6.176398, "to_check": true }, "geometry": { "type": "Point", "coordinates": [ 6.176398, 35.5511843 ] } },
{ "type": "Feature", "properties": { "num": 135, "name": "AHMED CHAOUCHE LARBI", "address": "1 CITE DERBASSI KHELIL Tebessa", "code_wil": 12, "court": null, "tel": null, "status": null, "lat": 35.407714, "lon": 8.113021, "to_check": false }, "geometry": { "type": "Point", "coordinates": [ 8.113021, 35.407714 ] } },
{ "type": "Feature", "properties": { "num": 136, "name": "BOUTERAA ABEDERRAHMENE", "address": "RUE DE TEBESSA Cheria Tebessa", "code_wil": 12, "court": null, "tel": null, "status": null, "lat": 35.402131, "lon": 8.120509, "to_check": false }, "geometry": { "type": "Point", "coordinates": [ 8.120509, 35.402131 ] } },
{ "type": "Feature", "properties": { "num": 133, "name": "MOUISSI ABEDELLAH", "address": "RUE DE LA BASILIC ROMAINE Tebessa", "code_wil": 12, "court": null, "tel": null, "status": null, "lat": 35.3879968, "lon": 8.1065235, "to_check": false }, "geometry": { "type": "Point", "coordinates": [ 8.1065235, 35.3879968 ] } },
{ "type": "Feature", "properties": { "num": 132, "name": "ABANE SAAD", "address": "269 RUE SI ALI BEN LAMANI MAISON ROMAINE Tebessa", "code_wil": 12, "court": null, "tel": null, "status": null, "lat": 35.4010797, "lon": 8.1172958, "to_check": false }, "geometry": { "type": "Point", "coordinates": [ 8.1172958, 35.4010797 ] } },
{ "type": "Feature", "properties": { "num": 131, "name": "BEN SAAD ELLAH BRAHIM", "address": "RUE EL EMIR ABEDELKADER Tebessa", "code_wil": 12, "court": null, "tel": null, "status": null, "lat": 35.402131, "lon": 8.120509, "to_check": false }, "geometry": { "type": "Point", "coordinates": [ 8.120509, 35.402131 ] } },
{ "type": "Feature", "properties": { "num": 134, "name": "GHRIB RACHID", "address": "6 QUARTIER DE LA ROMONTE ILOT 224 Tebessa", "code_wil": 12, "court": null, "tel": null, "status": null, "lat": 35.4010797, "lon": 8.1172958, "to_check": false }, "geometry": { "type": "Point", "coordinates": [ 8.1172958, 35.4010797 ] } },
{ "type": "Feature", "properties": { "num": 181, "name": "KHALID ABD EL KRIM", "address": "Cité Essayeh Missoum Batiment A Ghazaouet Tlemcen", "code_wil": 13, "court": "Ghazaouet", "tel": "043 46 72 51 \/ 0560 08 82 22", "status": "physical", "lat": 35.094069, "lon": -1.859436, "to_check": false }, "geometry": { "type": "Point", "coordinates": [ -1.859436, 35.094069 ] } },
{ "type": "Feature", "properties": { "num": 170, "name": "BOUSTAOUI FATIHA", "address": "22 Rue Azar Ahmed El Henaia Remchi Tlemcen", "code_wil": 13, "court": "Remchi", "tel": "043 27 98 60", "status": "physical", "lat": 35.35, "lon": 4.733333, "to_check": true }, "geometry": { "type": "Point", "coordinates": [ 4.733333, 35.35 ] } },
{ "type": "Feature", "properties": { "num": 171, "name": "SALI HOURIA", "address": "Rue Ben Said Abd Allah Remchi Tlemcen", "code_wil": 13, "court": "Remchi", "tel": "043 57 52 57 \/ 0790 35 37 13", "status": "physical", "lat": 34.8831751, "lon": -1.31197, "to_check": false }, "geometry": { "type": "Point", "coordinates": [ -1.31197, 34.8831751 ] } },
{ "type": "Feature", "properties": { "num": 172, "name": "SEHOULI MOUSSA", "address": "15 BIS Rue Si Merbah Remchi Tlemcen", "code_wil": 13, "court": "Remchi", "tel": "043 43 79 18", "status": "physical", "lat": 35.064069, "lon": -1.42638, "to_check": false }, "geometry": { "type": "Point", "coordinates": [ -1.42638, 35.064069 ] } },
{ "type": "Feature", "properties": { "num": 173, "name": "BEN SALAH MOHAMED REDA", "address": "120 Logements Premier étage Remchi Tlemcen", "code_wil": 13, "court": "Remchi", "tel": "043 53 50 93", "status": "physical", "lat": 35.064069, "lon": -1.42638, "to_check": false }, "geometry": { "type": "Point", "coordinates": [ -1.42638, 35.064069 ] } },
{ "type": "Feature", "properties": { "num": 174, "name": "AZMANI ABDERREZAK", "address": "45 RUE EL MAGHREB DEGNAOUA Nedroma Tlemcen", "code_wil": 13, "court": "Nedroma", "tel": "043 45 74 18 \/ 043 45 74 72", "status": "physical", "lat": 35.0292918, "lon": -1.7666936, "to_check": false }, "geometry": { "type": "Point", "coordinates": [ -1.7666936, 35.0292918 ] } },
{ "type": "Feature", "properties": { "num": 175, "name": "RAHMOUN MOHAMED", "address": "El Minia Premier 2tage Nedroma Tlemcen", "code_wil": 13, "court": "Nedroma", "tel": "043 45 50 14", "status": "physical", "lat": 35.0292918, "lon": -1.7666936, "to_check": false }, "geometry": { "type": "Point", "coordinates": [ -1.7666936, 35.0292918 ] } },
{ "type": "Feature", "properties": { "num": 176, "name": "BALOUT TOUHAMI", "address": "116 CITE KASMI ABDELKADER RTE BELABES Ouled Mimoun Tlemcen", "code_wil": 13, "court": "Ouled Mimoun", "tel": "043 36 29 51 \/ 0665 69 35 07", "status": "physical", "lat": 35.2105876, "lon": -0.629983, "to_check": true }, "geometry": { "type": "Point", "coordinates": [ -0.629983, 35.2105876 ] } },
{ "type": "Feature", "properties": { "num": 177, "name": "KHELIFI ABD EL AZZIZ", "address": "18 Rue Meddoun Lakhdar Oueld Mimoun Tlemcen", "code_wil": 13, "court": "Ouled Mimoun", "tel": "043 36 28 75", "status": "physical", "lat": 34.9044116, "lon": -1.0342358, "to_check": false }, "geometry": { "type": "Point", "coordinates": [ -1.0342358, 34.9044116 ] } },
{ "type": "Feature", "properties": { "num": 179, "name": "HAMDAOUI EL HABRI", "address": "CENTRE COMMERCIAL CITE DES SABLE Ghazaouet Tlemcen", "code_wil": 13, "court": "Ghazaouet", "tel": "043 47 13 48 \/ 0663 74 81 33", "status": "physical", "lat": 34.8831751, "lon": -1.31197, "to_check": false }, "geometry": { "type": "Point", "coordinates": [ -1.31197, 34.8831751 ] } },
{ "type": "Feature", "properties": { "num": 180, "name": "BEN CHAA KHALED", "address": "Rue de la Republique Ghazaouet Tlemcen", "code_wil": 13, "court": "Ghazaouet", "tel": "043 32 69 65", "status": "physical", "lat": 35.094069, "lon": -1.859436, "to_check": false }, "geometry": { "type": "Point", "coordinates": [ -1.859436, 35.094069 ] } },
{ "type": "Feature", "properties": { "num": 182, "name": "SALAH CHAKIB", "address": "Route nationale 07 Maison 110 Tounane Ghazaouet Tlemcen", "code_wil": 13, "court": "Ghazaouet", "tel": "043 47 90 40 \/ 0559 41 99 99", "status": "physical", "lat": 35.0408664, "lon": -1.8912952, "to_check": false }, "geometry": { "type": "Point", "coordinates": [ -1.8912952, 35.0408664 ] } },
{ "type": "Feature", "properties": { "num": 191, "name": "RAHOUI NAWAL", "address": "45 Rue Zighout Youcef Maghnia Tlemcen", "code_wil": 13, "court": "Maghnia", "tel": "043 43 69 10 \/ 043 50 25 30", "status": "physical", "lat": 36.532254, "lon": 6.710245, "to_check": true }, "geometry": { "type": "Point", "coordinates": [ 6.710245, 36.532254 ] } },
{ "type": "Feature", "properties": { "num": 184, "name": "SAADAOUI SALEH", "address": "RUE DE LA PALESTINE Sebdou Tlemcen", "code_wil": 13, "court": "Sebdou", "tel": "043 54 42 63", "status": "physical", "lat": 34.8831751, "lon": -1.31197, "to_check": false }, "geometry": { "type": "Point", "coordinates": [ -1.31197, 34.8831751 ] } },
{ "type": "Feature", "properties": { "num": 185, "name": "BELBACHIR ZOHEIR", "address": "Rue Abd El Hamid Ibn Badis Sebdou Tlemcen", "code_wil": 13, "court": "Sebdou", "tel": "043 54 77 40", "status": "physical", "lat": 34.6376648, "lon": -1.3329676, "to_check": false }, "geometry": { "type": "Point", "coordinates": [ -1.3329676, 34.6376648 ] } },
{ "type": "Feature", "properties": { "num": 186, "name": "TAHAR SIDI MOHAMED", "address": "Cité 148 Logements Batiment B n 51 étage 01 Sebdou Tlemcen", "code_wil": 13, "court": "Sebdou", "tel": "043 54 67 15 \/ 0771 57 46 42", "status": "physical", "lat": 34.6376648, "lon": -1.3329676, "to_check": false }, "geometry": { "type": "Point", "coordinates": [ -1.3329676, 34.6376648 ] } },
{ "type": "Feature", "properties": { "num": 187, "name": "ASSMI AHCEN", "address": "66 RUE 1ER NOVEMBRE 54 Maghnia Tlemcen", "code_wil": 13, "court": "Maghnia*", "tel": null, "status": "physical", "lat": 34.8831751, "lon": -1.31197, "to_check": false }, "geometry": { "type": "Point", "coordinates": [ -1.31197, 34.8831751 ] } },
{ "type": "Feature", "properties": { "num": 188, "name": "KIHEL ABED EL AZIZ", "address": "52 Rue Ben Badis Maghnia Tlemcen", "code_wil": 13, "court": "Maghnia", "tel": "043 31 56 02", "status": "physical", "lat": 33.6075714, "lon": -7.5368022, "to_check": true }, "geometry": { "type": "Point", "coordinates": [ -7.5368022, 33.6075714 ] } },
{ "type": "Feature", "properties": { "num": 189, "name": "BERBER MOHAMED", "address": "08 Rue Mustapha Ben Boulaid Maghnia Tlemcen", "code_wil": 13, "court": "Maghnia", "tel": "043 50 22 28", "status": "physical", "lat": 34.8486597, "lon": -1.7293536, "to_check": false }, "geometry": { "type": "Point", "coordinates": [ -1.7293536, 34.8486597 ] } },
{ "type": "Feature", "properties": { "num": 190, "name": "LEHBAB MOUSSA", "address": "61 Rue Akid Amirouche Maghnia Tlemcen", "code_wil": 13, "court": "Maghnia", "tel": "043 49 57 84 \/ 043 49 52 74", "status": "physical", "lat": 34.8486597, "lon": -1.7293536, "to_check": false }, "geometry": { "type": "Point", "coordinates": [ -1.7293536, 34.8486597 ] } },
{ "type": "Feature", "properties": { "num": 169, "name": "DJENANE MOHAMED", "address": "Rue Akid Amirouche Remchi Tlemcen", "code_wil": 13, "court": "Remchi", "tel": "043 43 80 30 \/ 043 43 72 89 \/ 0771 72 69 23", "status": "physical", "lat": 35.064069, "lon": -1.42638, "to_check": false }, "geometry": { "type": "Point", "coordinates": [ -1.42638, 35.064069 ] } },
{ "type": "Feature", "properties": { "num": 192, "name": "CHERIFI AMAR", "address": "09 Rue El Arbi Tebessi Centre ville Maghnia Tlemcen", "code_wil": 13, "court": "Maghnia", "tel": "043 49 55 66 \/ 0792 97 47 31", "status": "physical", "lat": 34.8486597, "lon": -1.7293536, "to_check": false }, "geometry": { "type": "Point", "coordinates": [ -1.7293536, 34.8486597 ] } },
{ "type": "Feature", "properties": { "num": 193, "name": "MIRAOUI KAMAL", "address": "87 rue Akid Lotfi Maghnia Tlemcen", "code_wil": 13, "court": "Maghnia", "tel": "043 49 57 28 \/ 0550 45 49 98", "status": "physical", "lat": 34.8486597, "lon": -1.7293536, "to_check": false }, "geometry": { "type": "Point", "coordinates": [ -1.7293536, 34.8486597 ] } },
{ "type": "Feature", "properties": { "num": 194, "name": "TARAD ISMAIL", "address": "18 Rue Ben Rached Maghnia Tlemcen", "code_wil": 13, "court": "Maghnia", "tel": "043 49 10 64 \/ 0552 35 60 51", "status": "physical", "lat": 34.8827754, "lon": -1.3101207, "to_check": false }, "geometry": { "type": "Point", "coordinates": [ -1.3101207, 34.8827754 ] } },
{ "type": "Feature", "properties": { "num": 195, "name": "HASNAOUI MOHAMED SALIM FAICAL", "address": "06 Rue Ben Rached Maghnia Tlemcen", "code_wil": 13, "court": "Maghnia", "tel": "043 51 56 05 \/ 043 51 51 54 \/ 0656 69 44 72", "status": "physical", "lat": 34.8827754, "lon": -1.3101207, "to_check": false }, "geometry": { "type": "Point", "coordinates": [ -1.3101207, 34.8827754 ] } },
{ "type": "Feature", "properties": { "num": 196, "name": "EL ARBI CHERIF MILOUD", "address": "Rue Sud Batiement B Centre ville Maghnia Tlemcen", "code_wil": 13, "court": "Maghnia", "tel": "043 49 10 41 \/ 0661 31 44 16", "status": "physical", "lat": 34.8459659, "lon": -1.7410186, "to_check": false }, "geometry": { "type": "Point", "coordinates": [ -1.7410186, 34.8459659 ] } },
{ "type": "Feature", "properties": { "num": 183, "name": "SALAH NEZILA", "address": "Coin Rue des martyres et Rue Salah Abd El Kader Ghazaouet Tlemcen", "code_wil": 13, "court": "Ghazaouet", "tel": "043 47 22 19", "status": "physical", "lat": 35.0936543, "lon": -1.861861, "to_check": false }, "geometry": { "type": "Point", "coordinates": [ -1.861861, 35.0936543 ] } },
{ "type": "Feature", "properties": { "num": 168, "name": "ASMI LAHCEN", "address": "Rue Les Castors El Henaia Remchi Tlemcen", "code_wil": 13, "court": "Remchi", "tel": "040 91 78 43 \/ 0554 69 16 69", "status": "physical", "lat": 34.8831751, "lon": -1.31197, "to_check": false }, "geometry": { "type": "Point", "coordinates": [ -1.31197, 34.8831751 ] } },
{ "type": "Feature", "properties": { "num": 178, "name": "SENOUSSAOUI KARIMA", "address": "114 Rue Merahi Miloud Ouled Mimoun Tlemcen", "code_wil": 13, "court": "Ouled Mimoun", "tel": "043 36 33 16", "status": "physical", "lat": 34.9047798, "lon": -1.0349863, "to_check": false }, "geometry": { "type": "Point", "coordinates": [ -1.0349863, 34.9047798 ] } },
{ "type": "Feature", "properties": { "num": 166, "name": "BEN SNOUSSI BOUZIANE", "address": "4 TRANCHE KARA SLIMEN EL KIFFEN Tlemcen", "code_wil": 13, "court": "Tlemcen*", "tel": null, "status": "physical", "lat": 34.8828864, "lon": -1.3166815, "to_check": false }, "geometry": { "type": "Point", "coordinates": [ -1.3166815, 34.8828864 ] } },
{ "type": "Feature", "properties": { "num": 167, "name": "MEDJAOUI ABDELKRIM", "address": "RUE DES FRERES SEDDIKI Remchi Tlemcen", "code_wil": 13, "court": "Remchi", "tel": "043 43 72 27", "status": "physical", "lat": 35.0609828, "lon": -1.4304801, "to_check": false }, "geometry": { "type": "Point", "coordinates": [ -1.4304801, 35.0609828 ] } },
{ "type": "Feature", "properties": { "num": 139, "name": "BEN DIHDJI THOURIA", "address": "18 Boulevard de l’indépendance Tlemcen", "code_wil": 13, "court": "Tlemcen", "tel": "043 26 31 32", "status": "physical", "lat": 34.8828864, "lon": -1.3166815, "to_check": false }, "geometry": { "type": "Point", "coordinates": [ -1.3166815, 34.8828864 ] } },
{ "type": "Feature", "properties": { "num": 140, "name": "SEBAGH MOHAMED", "address": "Cité ennahda 1079, 322 logements Tlemcen", "code_wil": 13, "court": "Tlemcen", "tel": "043 21 47 51 \/ 043 21 44 92", "status": "physical", "lat": 34.8831751, "lon": -1.31197, "to_check": false }, "geometry": { "type": "Point", "coordinates": [ -1.31197, 34.8831751 ] } },
{ "type": "Feature", "properties": { "num": 141, "name": "BEN KEDDA FETH ALLAH", "address": "02 Cité des Amendiers Tlemcen", "code_wil": 13, "court": "Tlemcen", "tel": "043 26 70 97 \/ 043 26 70 95", "status": "physical", "lat": 34.8831751, "lon": -1.31197, "to_check": false }, "geometry": { "type": "Point", "coordinates": [ -1.31197, 34.8831751 ] } },
{ "type": "Feature", "properties": { "num": 142, "name": "FERHAT HASSINA", "address": "Résidence Pomaria Boulevard Drar Abd errahmane Batiment B1 n1 El Kiffane Tlemcen", "code_wil": 13, "court": "Tlemcen", "tel": "043 56 40 61 \/ 0560 59 51 18", "status": "physical", "lat": 34.8641137, "lon": -1.3571037, "to_check": false }, "geometry": { "type": "Point", "coordinates": [ -1.3571037, 34.8641137 ] } },
{ "type": "Feature", "properties": { "num": 143, "name": "YAKOUBI ABDELHAFID", "address": "04 Rue Drar Abderrahmane Tlemcen", "code_wil": 13, "court": "Tlemcen", "tel": "043 41 30 96", "status": "physical", "lat": 34.8854649, "lon": -1.3202326, "to_check": false }, "geometry": { "type": "Point", "coordinates": [ -1.3202326, 34.8854649 ] } },
{ "type": "Feature", "properties": { "num": 144, "name": "MOHAMMEDI NOUREDDINE", "address": "16 RUE DE LA PAIX Tlemcen", "code_wil": 13, "court": "Tlemcen", "tel": "043 26 18 54", "status": "physical", "lat": 34.8831751, "lon": -1.31197, "to_check": false }, "geometry": { "type": "Point", "coordinates": [ -1.31197, 34.8831751 ] } },
{ "type": "Feature", "properties": { "num": 145, "name": "GHAYAT ABEDELKRIM", "address": "2 AVE COMMANDANT DJABER Tlemcen", "code_wil": 13, "court": "Tlemcen", "tel": "043 26 27 86", "status": "physical", "lat": 34.8831751, "lon": -1.31197, "to_check": false }, "geometry": { "type": "Point", "coordinates": [ -1.31197, 34.8831751 ] } },
{ "type": "Feature", "properties": { "num": 147, "name": "BOUKLI HACEN ABED EL GHANI", "address": "12 RUE SIDI LAHCEN BAB SIDI BOUMEDIENNE Tlemcen", "code_wil": 13, "court": "Tlemcen", "tel": "043 26 47 77", "status": "physical", "lat": 34.8851606, "lon": -1.3058288, "to_check": false }, "geometry": { "type": "Point", "coordinates": [ -1.3058288, 34.8851606 ] } },
{ "type": "Feature", "properties": { "num": 148, "name": "HADJ SAID MOUSSA", "address": "4 RUE COMMANDANT DJABER Tlemcen", "code_wil": 13, "court": "Tlemcen", "tel": "043 26 56 39", "status": "physical", "lat": 34.8831751, "lon": -1.31197, "to_check": false }, "geometry": { "type": "Point", "coordinates": [ -1.31197, 34.8831751 ] } },
{ "type": "Feature", "properties": { "num": 149, "name": "HACHEMAOUI AHMED", "address": "Cité El Kiffane n 03 Drar Abderrahmane Kara Slimane Tlemcen", "code_wil": 13, "court": "Tlemcen", "tel": "043 56 40 17", "status": "physical", "lat": 34.8828864, "lon": -1.3166815, "to_check": false }, "geometry": { "type": "Point", "coordinates": [ -1.3166815, 34.8828864 ] } },
{ "type": "Feature", "properties": { "num": 150, "name": "Société Civile AIN SEBAA BOUZIANE & FAIZA", "address": "Cité menuisier batiment E n 02 Tlemcen", "code_wil": 13, "court": "Tlemcen", "tel": "043 56 41 45 \/ 043 56 41 44", "status": "company", "lat": 34.8831751, "lon": -1.31197, "to_check": false }, "geometry": { "type": "Point", "coordinates": [ -1.31197, 34.8831751 ] } },
{ "type": "Feature", "properties": { "num": 151, "name": "DALI YOUCEF AMAR", "address": "45 Rue Docteur Tidjani Damerji Tlemcen", "code_wil": 13, "court": "Tlemcen", "tel": "043 20 43 38", "status": "physical", "lat": 34.8777168, "lon": -1.3225971, "to_check": false }, "geometry": { "type": "Point", "coordinates": [ -1.3225971, 34.8777168 ] } },
{ "type": "Feature", "properties": { "num": 146, "name": "AZZOUNI ABDELLATIF", "address": "13 RUE COMMANDANT MOKHTAR BOUZIDI Tlemcen", "code_wil": 13, "court": "Tlemcen", "tel": "043 26 13 41", "status": "physical", "lat": 34.8831751, "lon": -1.31197, "to_check": false }, "geometry": { "type": "Point", "coordinates": [ -1.31197, 34.8831751 ] } },
{ "type": "Feature", "properties": { "num": 153, "name": "AMAR ZENATI ABD EL HALIM", "address": "02 Rue Belgaid sid Ahmed Tlemcen", "code_wil": 13, "court": "Tlemcen", "tel": "043 27 82 40 \/ 0553 69 63 03", "status": "physical", "lat": 34.8831751, "lon": -1.31197, "to_check": false }, "geometry": { "type": "Point", "coordinates": [ -1.31197, 34.8831751 ] } },
{ "type": "Feature", "properties": { "num": 165, "name": "MOHAMMEDI NOUREDDINE", "address": "16 RUE DE LA PAIX Tlemcen", "code_wil": 13, "court": "Tlemcen*", "tel": null, "status": "physical", "lat": 34.8831751, "lon": -1.31197, "to_check": false }, "geometry": { "type": "Point", "coordinates": [ -1.31197, 34.8831751 ] } },
{ "type": "Feature", "properties": { "num": 152, "name": "BELYAKOUBI BELKHIR", "address": "Cité Enassim 1079 logements Batiment M n° 02 El Imama Tlemcen", "code_wil": 13, "court": "Tlemcen", "tel": "043 21 37 50", "status": "physical", "lat": 34.8817373, "lon": -1.3130355, "to_check": false }, "geometry": { "type": "Point", "coordinates": [ -1.3130355, 34.8817373 ] } },
{ "type": "Feature", "properties": { "num": 163, "name": "BOUMADANI AMMARA", "address": "05 Rue Frère Abd El Djebbar Tlemcen", "code_wil": 13, "court": "Tlemcen", "tel": "043 56 35 96", "status": "physical", "lat": 44.8431977, "lon": -0.576306, "to_check": true }, "geometry": { "type": "Point", "coordinates": [ -0.576306, 44.8431977 ] } },
{ "type": "Feature", "properties": { "num": 162, "name": "ESSENOUBAR AHMED", "address": "Rue Ain Sebaa Ali Batiement Hamza Echerrif Ain Nedjar Tlemcen", "code_wil": 13, "court": "Tlemcen", "tel": "043 56 44 60 \/ 0660 44 56 43", "status": "physical", "lat": 34.8828949, "lon": -1.3263202, "to_check": false }, "geometry": { "type": "Point", "coordinates": [ -1.3263202, 34.8828949 ] } },
{ "type": "Feature", "properties": { "num": 161, "name": "ABBAD ABD EL MADJID", "address": "Rue Kaouar Houcine 112 Logements Batiment B Tlemcen", "code_wil": 13, "court": "Tlemcen", "tel": "043 27 21 79", "status": "physical", "lat": 34.8831751, "lon": -1.31197, "to_check": false }, "geometry": { "type": "Point", "coordinates": [ -1.31197, 34.8831751 ] } },
{ "type": "Feature", "properties": { "num": 160, "name": "GHITRI ZINE EL ABIDINE", "address": "19 Rue de la paie Tlemcen", "code_wil": 13, "court": "Tlemcen", "tel": "043 26 24 56 \/ 0661 22 21 14", "status": "physical", "lat": 34.8828864, "lon": -1.3166815, "to_check": false }, "geometry": { "type": "Point", "coordinates": [ -1.3166815, 34.8828864 ] } },
{ "type": "Feature", "properties": { "num": 164, "name": "DJELAILIA AHMED", "address": "Cité Ennasim 1079 Logements Tlemcen", "code_wil": 13, "court": "Tlemcen", "tel": "043 21 00 02", "status": "physical", "lat": 36.7964218, "lon": 2.9997477, "to_check": true }, "geometry": { "type": "Point", "coordinates": [ 2.9997477, 36.7964218 ] } },
{ "type": "Feature", "properties": { "num": 158, "name": "MEDJATI ABDERREZAK", "address": "Cité 1060 Logements Imama Tlemcen", "code_wil": 13, "court": "Tlemcen", "tel": "0776 35 57 80 \/ 043 41 42 62", "status": "physical", "lat": 34.8796871, "lon": -1.3439822, "to_check": false }, "geometry": { "type": "Point", "coordinates": [ -1.3439822, 34.8796871 ] } },
{ "type": "Feature", "properties": { "num": 157, "name": "MAHI ABDEREZZAK", "address": "05 Rue Ain Sebaa Ali Bel Horizon Tlemcen", "code_wil": 13, "court": "Tlemcen", "tel": "043 41 54 42 \/ 043 38 22 21", "status": "physical", "lat": 34.8896609, "lon": -1.3305582, "to_check": false }, "geometry": { "type": "Point", "coordinates": [ -1.3305582, 34.8896609 ] } },
{ "type": "Feature", "properties": { "num": 156, "name": "BEMOUSSAT ABIR SANAA", "address": "08.03 Boulevard Commandant Mokhtar Tlemcen", "code_wil": 13, "court": "Tlemcen", "tel": "0770 93 69 18 \/ 043 26 25 53", "status": "physical", "lat": 34.8831751, "lon": -1.31197, "to_check": false }, "geometry": { "type": "Point", "coordinates": [ -1.31197, 34.8831751 ] } },
{ "type": "Feature", "properties": { "num": 155, "name": "BELKAID KAMILA", "address": "Rue Ali Ain Nedjar n 04 cité Ain Nedjar Tlemcen", "code_wil": 13, "court": "Tlemcen", "tel": "043 41 11 11 \/ 0770 28 58 11", "status": "physical", "lat": 34.8831751, "lon": -1.31197, "to_check": false }, "geometry": { "type": "Point", "coordinates": [ -1.31197, 34.8831751 ] } },
{ "type": "Feature", "properties": { "num": 159, "name": "ALI EL ARBI KHEIR EDDINE", "address": "05 Rue Frère Abd El Djebbar Tlemcen", "code_wil": 13, "court": "Tlemcen", "tel": "0774 00 90 65", "status": "physical", "lat": 44.8431977, "lon": -0.576306, "to_check": true }, "geometry": { "type": "Point", "coordinates": [ -0.576306, 44.8431977 ] } },
{ "type": "Feature", "properties": { "num": 154, "name": "ABED BERRACHED BOUCIF", "address": "26 Rue Ibn Khamis Tlemcen", "code_wil": 13, "court": "Tlemcen", "tel": "043 27 30 25 \/ 0559 06 07 42", "status": "physical", "lat": 34.8862145, "lon": -1.3035076, "to_check": false }, "geometry": { "type": "Point", "coordinates": [ -1.3035076, 34.8862145 ] } },
{ "type": "Feature", "properties": { "num": 212, "name": "BELHAOUAA ALI", "address": "Rue Bouchareb Nacer Sougueur Tiaret", "code_wil": 14, "court": "Sougueur", "tel": "046 43 88 28", "status": "physical", "lat": 35.1842421, "lon": 1.496215, "to_check": false }, "geometry": { "type": "Point", "coordinates": [ 1.496215, 35.1842421 ] } },
{ "type": "Feature", "properties": { "num": 213, "name": "CHEBHA ABDALLAH", "address": "Rue Si Abd Ghani Sougueur Tiaret", "code_wil": 14, "court": "Sougueur", "tel": "046 43 04 59", "status": "physical", "lat": 35.1858629, "lon": 1.4978377, "to_check": false }, "geometry": { "type": "Point", "coordinates": [ 1.4978377, 35.1858629 ] } },
{ "type": "Feature", "properties": { "num": 214, "name": "BEKHTIL ABD ERRAHMANE", "address": "08 Rue Premier Novembre Sougueur Tiaret", "code_wil": 14, "court": "Sougueur", "tel": "046 43 66 85 \/ 0550 32 78 34", "status": "physical", "lat": 49.7019205, "lon": 5.3013189, "to_check": true }, "geometry": { "type": "Point", "coordinates": [ 5.3013189, 49.7019205 ] } },
{ "type": "Feature", "properties": { "num": 215, "name": "CHAALAL ABDELKADER", "address": "27 Boulevard Maamri Missoum Sougueur Tiaret", "code_wil": 14, "court": "Sougueur", "tel": "0793 20 03 22", "status": "physical", "lat": 35.1857422, "lon": 1.4935025, "to_check": false }, "geometry": { "type": "Point", "coordinates": [ 1.4935025, 35.1857422 ] } },
{ "type": "Feature", "properties": { "num": 216, "name": "CHIBOUT BOUMEDIENNE", "address": "Rue Lieutenant Noureddine Frenda Tiaret", "code_wil": 14, "court": "Frenda", "tel": "046 40 68 42", "status": "physical", "lat": 35.0638421, "lon": 1.0572065, "to_check": false }, "geometry": { "type": "Point", "coordinates": [ 1.0572065, 35.0638421 ] } },
{ "type": "Feature", "properties": { "num": 218, "name": "BOUCHENTOUF ABD EL KADER", "address": "Hai el Badr Kasr Chellala Tiaret", "code_wil": 14, "court": "Kasr Chellala", "tel": "046 36 03 27", "status": "physical", "lat": 35.2088757, "lon": 2.3190755, "to_check": false }, "geometry": { "type": "Point", "coordinates": [ 2.3190755, 35.2088757 ] } },
{ "type": "Feature", "properties": { "num": 219, "name": "ZITOUNI FADILA", "address": "Boulevard Akid Si Cherif  Kasr Chellala Tiaret", "code_wil": 14, "court": "Kasr Chellala", "tel": "046 46 72 09", "status": "physical", "lat": 35.2181066, "lon": 2.3153581, "to_check": false }, "geometry": { "type": "Point", "coordinates": [ 2.3153581, 35.2181066 ] } },
{ "type": "Feature", "properties": { "num": 220, "name": "HABIB AHMED", "address": "Cité 18 Avril  Kasr Chellala Tiaret", "code_wil": 14, "court": "Kasr Chellala", "tel": "046 36 45 27 \/ 0658 37 13 19 \/ 0772 71 06 54", "status": "physical", "lat": 35.2181066, "lon": 2.3153581, "to_check": false }, "geometry": { "type": "Point", "coordinates": [ 2.3153581, 35.2181066 ] } },
{ "type": "Feature", "properties": { "num": 221, "name": "OUAZINE MOUSSA", "address": "RUE SI M'HAMED BOUGERA Ksar Chellala Tiaret", "code_wil": 14, "court": "Kasr Chellala*", "tel": null, "status": null, "lat": 35.2181066, "lon": 2.3153581, "to_check": false }, "geometry": { "type": "Point", "coordinates": [ 2.3153581, 35.2181066 ] } },
{ "type": "Feature", "properties": { "num": 211, "name": "BOUZEKRI ABD EL KADER", "address": "17 Rue de l’indépendance Tiaret", "code_wil": 14, "court": "Tiaret", "tel": "046 20 55 63", "status": "physical", "lat": 35.3728497, "lon": 1.3201182, "to_check": false }, "geometry": { "type": "Point", "coordinates": [ 1.3201182, 35.3728497 ] } },
{ "type": "Feature", "properties": { "num": 217, "name": "BELFEDEL RABIE ETAHAR", "address": "Centre ville Frenda Tiaret", "code_wil": 14, "court": "Frenda", "tel": "0774 64 41 04", "status": "physical", "lat": 35.0603474, "lon": 1.0492146, "to_check": false }, "geometry": { "type": "Point", "coordinates": [ 1.0492146, 35.0603474 ] } },
{ "type": "Feature", "properties": { "num": 210, "name": "TARCHOUN FIROUZ", "address": "Ilot 82 logements Route d’el Asima n 14 42 43 Tiaret", "code_wil": 14, "court": "Tiaret", "tel": "046 41 61 44", "status": "physical", "lat": 35.3708689, "lon": 1.3217852, "to_check": false }, "geometry": { "type": "Point", "coordinates": [ 1.3217852, 35.3708689 ] } },
{ "type": "Feature", "properties": { "num": 201, "name": "CHERFI MOHAMED", "address": "02 Rue Ali Bekhtou Tiaret", "code_wil": 14, "court": "Tiaret", "tel": "046 41 56 33", "status": "physical", "lat": 36.711348, "lon": 2.8380608, "to_check": true }, "geometry": { "type": "Point", "coordinates": [ 2.8380608, 36.711348 ] } },
{ "type": "Feature", "properties": { "num": 208, "name": "BEN MAGHNIA MOHAMED", "address": "28.08 Rue Amir Abdelkader Tiaret", "code_wil": 14, "court": "Tiaret", "tel": "046 41 24 39", "status": "physical", "lat": 35.3746116, "lon": 1.3146613, "to_check": false }, "geometry": { "type": "Point", "coordinates": [ 1.3146613, 35.3746116 ] } },
{ "type": "Feature", "properties": { "num": 209, "name": "ZEMAM KHALIL", "address": "06 Rue Belhadj Hachemi Tiaret", "code_wil": 14, "court": "Tiaret", "tel": "046 41 56 00", "status": "physical", "lat": 35.3745611, "lon": 1.3184097, "to_check": false }, "geometry": { "type": "Point", "coordinates": [ 1.3184097, 35.3745611 ] } },
{ "type": "Feature", "properties": { "num": 197, "name": "LOUNES ALI", "address": "24 RUE EMIR ABDELKADER Tiaret", "code_wil": 14, "court": "Tiaret*", "tel": null, "status": "physical", "lat": 35.2914326, "lon": -1.1390807, "to_check": true }, "geometry": { "type": "Point", "coordinates": [ -1.1390807, 35.2914326 ] } },
{ "type": "Feature", "properties": { "num": 198, "name": "LAZRAG YAMINA", "address": "3 600 LOGTS BT C11 CADAT Tiaret", "code_wil": 14, "court": "Tiaret*", "tel": null, "status": "physical", "lat": 35.3593621, "lon": 1.3174019, "to_check": false }, "geometry": { "type": "Point", "coordinates": [ 1.3174019, 35.3593621 ] } },
{ "type": "Feature", "properties": { "num": 200, "name": "BOUDALI KHALED", "address": "04 Rue Beljilali Habib Tiaret", "code_wil": 14, "court": "Tiaret", "tel": "046 41 69 06", "status": "physical", "lat": 43.8296508, "lon": 5.796088, "to_check": true }, "geometry": { "type": "Point", "coordinates": [ 5.796088, 43.8296508 ] } },
{ "type": "Feature", "properties": { "num": 202, "name": "REBHI AHMED", "address": "Rue Ael Amir Abdelkader Mehdia Tiaret", "code_wil": 14, "court": "Tiaret", "tel": "046 46 32 02", "status": "physical", "lat": 35.3708689, "lon": 1.3217852, "to_check": false }, "geometry": { "type": "Point", "coordinates": [ 1.3217852, 35.3708689 ] } },
{ "type": "Feature", "properties": { "num": 199, "name": "REGRAG MILOUD", "address": "26 Rue de la victoire Tiaret", "code_wil": 14, "court": "Tiaret", "tel": "046 41 71 88", "status": "physical", "lat": 35.3738515, "lon": 1.3158102, "to_check": false }, "geometry": { "type": "Point", "coordinates": [ 1.3158102, 35.3738515 ] } },
{ "type": "Feature", "properties": { "num": 204, "name": "SEDIKKI MOKHTAR", "address": "04 Rue de l’indépendance Tiaret", "code_wil": 14, "court": "Tiaret", "tel": "046 20 56 98", "status": "physical", "lat": 35.3746932, "lon": 1.3150425, "to_check": false }, "geometry": { "type": "Point", "coordinates": [ 1.3150425, 35.3746932 ] } },
{ "type": "Feature", "properties": { "num": 205, "name": "ZELMAT BRAHIM", "address": "12 Rue Ali Bekhtou Tiaret", "code_wil": 14, "court": "Tiaret", "tel": "0776 98 32 06", "status": "physical", "lat": 35.3716054, "lon": 1.3197205, "to_check": false }, "geometry": { "type": "Point", "coordinates": [ 1.3197205, 35.3716054 ] } },
{ "type": "Feature", "properties": { "num": 206, "name": "DEBABECH HACHANI", "address": "20 Rue de l’indépendance Tiaret", "code_wil": 14, "court": "Tiaret", "tel": "046 41 54 77", "status": "physical", "lat": 35.3728497, "lon": 1.3201182, "to_check": false }, "geometry": { "type": "Point", "coordinates": [ 1.3201182, 35.3728497 ] } },
{ "type": "Feature", "properties": { "num": 207, "name": "BAHRI BOUMEDIENNE", "address": "10 Rue de l’indépendance Tiaret", "code_wil": 14, "court": "Tiaret", "tel": "0798 13 75 79 \/ 046 20 52 36", "status": "physical", "lat": 35.3728497, "lon": 1.3201182, "to_check": false }, "geometry": { "type": "Point", "coordinates": [ 1.3201182, 35.3728497 ] } },
{ "type": "Feature", "properties": { "num": 203, "name": "SI MERABET MOULAY", "address": "08 Rue Kettoune Ali Tiaret", "code_wil": 14, "court": "Tiaret", "tel": "046 41 52 39", "status": "physical", "lat": 36.711348, "lon": 2.8380608, "to_check": true }, "geometry": { "type": "Point", "coordinates": [ 2.8380608, 36.711348 ] } },
{ "type": "Feature", "properties": { "num": 241, "name": "ASLA KHEIREDDINE", "address": "RUE DES MOUDJAHIDINE VILLA C 01 1ER ETAGE Azazga  Tizi Ouzou", "code_wil": 15, "court": null, "tel": null, "status": null, "lat": 36.7453947, "lon": 4.3714004, "to_check": false }, "geometry": { "type": "Point", "coordinates": [ 4.3714004, 36.7453947 ] } },
{ "type": "Feature", "properties": { "num": 238, "name": "OUALMI LOUIZA", "address": "RUE KASRI AHMED IMMEUBLE REZZOUK ILOT CENTRAL 39 Tizi Ouzou", "code_wil": 15, "court": null, "tel": null, "status": null, "lat": 36.7332502, "lon": 3.9657734, "to_check": false }, "geometry": { "type": "Point", "coordinates": [ 3.9657734, 36.7332502 ] } },
{ "type": "Feature", "properties": { "num": 239, "name": "TERBAH RACHID", "address": "CITE 15 LOGTS PREMIER ETAGE 6 Draa El Mizan  Tizi Ouzou", "code_wil": 15, "court": null, "tel": null, "status": null, "lat": 36.53572, "lon": 3.8364355, "to_check": false }, "geometry": { "type": "Point", "coordinates": [ 3.8364355, 36.53572 ] } },
{ "type": "Feature", "properties": { "num": 240, "name": "SERBOUH KAHINA", "address": "CENTRE VILLE Larba Nath Irathen  Tizi Ouzou", "code_wil": 15, "court": null, "tel": null, "status": null, "lat": 36.372297, "lon": 3.892094, "to_check": true }, "geometry": { "type": "Point", "coordinates": [ 3.892094, 36.372297 ] } },
{ "type": "Feature", "properties": { "num": 242, "name": "ZOULIM DJAMEL", "address": "18 CITE DES PALMIERS BT A Tizi Ouzou", "code_wil": 15, "court": null, "tel": null, "status": null, "lat": 36.713548, "lon": 4.0473075, "to_check": false }, "geometry": { "type": "Point", "coordinates": [ 4.0473075, 36.713548 ] } },
{ "type": "Feature", "properties": { "num": 237, "name": "ISSAD TASSADIT", "address": "25 RUE DU 20 AOUT 1956 IMMEUBLE ZERIOUL Azazga  Tizi Ouzou", "code_wil": 15, "court": null, "tel": null, "status": null, "lat": 36.706204, "lon": 4.035221, "to_check": false }, "geometry": { "type": "Point", "coordinates": [ 4.035221, 36.706204 ] } },
{ "type": "Feature", "properties": { "num": 244, "name": "DALI DJAMILA", "address": "96 RUE KHODJA KHALED Tizi Ouzou", "code_wil": 15, "court": null, "tel": null, "status": null, "lat": 36.7107817, "lon": 4.0581525, "to_check": false }, "geometry": { "type": "Point", "coordinates": [ 4.0581525, 36.7107817 ] } },
{ "type": "Feature", "properties": { "num": 245, "name": "IMAD HOCINE", "address": "RUE MAGHNEM MOHAMED AKLI 104 LOGTS Tizi Ouzou", "code_wil": 15, "court": null, "tel": null, "status": null, "lat": 36.713548, "lon": 4.0473075, "to_check": false }, "geometry": { "type": "Point", "coordinates": [ 4.0473075, 36.713548 ] } },
{ "type": "Feature", "properties": { "num": 246, "name": "GHELLAB RACHID", "address": "RUE ABANE RAMDANE CITE 60 LOGTS APPT 5 Tizi Ouzou", "code_wil": 15, "court": null, "tel": null, "status": null, "lat": 36.7057476, "lon": 4.0546069, "to_check": false }, "geometry": { "type": "Point", "coordinates": [ 4.0546069, 36.7057476 ] } },
{ "type": "Feature", "properties": { "num": 247, "name": "KHANOUS MALIKA", "address": "RUE MOHAMED AOUDIA BT 2 2EME ETAGE Tizi Ouzou", "code_wil": 15, "court": null, "tel": null, "status": null, "lat": 36.7133875, "lon": 4.049744, "to_check": false }, "geometry": { "type": "Point", "coordinates": [ 4.049744, 36.7133875 ] } },
{ "type": "Feature", "properties": { "num": 243, "name": "KAMEL ABDERRAHMANE", "address": "BD COLONEL AMIROUCHE Azazga  Tizi Ouzou", "code_wil": 15, "court": null, "tel": null, "status": null, "lat": 36.7574833, "lon": 4.3164977, "to_check": false }, "geometry": { "type": "Point", "coordinates": [ 4.3164977, 36.7574833 ] } },
{ "type": "Feature", "properties": { "num": 236, "name": "KAMEL ABDERRAHMAN", "address": "BOULEVARD AHMED ZAIDET Azazga  Tizi Ouzou", "code_wil": 15, "court": null, "tel": null, "status": null, "lat": 36.7107817, "lon": 4.0581525, "to_check": false }, "geometry": { "type": "Point", "coordinates": [ 4.0581525, 36.7107817 ] } },
{ "type": "Feature", "properties": { "num": 229, "name": "KEBBAS ZAHIA", "address": "CITE DES FONCTIONNAIRES BT 7 9 Tizi Ouzou", "code_wil": 15, "court": null, "tel": null, "status": null, "lat": 36.7107817, "lon": 4.0581525, "to_check": false }, "geometry": { "type": "Point", "coordinates": [ 4.0581525, 36.7107817 ] } },
{ "type": "Feature", "properties": { "num": 234, "name": "ZOULIM DJAMEL", "address": "CITE DES PALMIERS BT A 18 Tizi Ouzou", "code_wil": 15, "court": null, "tel": null, "status": null, "lat": 36.7160958, "lon": 3.2288265, "to_check": true }, "geometry": { "type": "Point", "coordinates": [ 3.2288265, 36.7160958 ] } },
{ "type": "Feature", "properties": { "num": 235, "name": "MOALI FOUZIA", "address": "ROUTE DES TOURS VILLA 1 IMMEUBLE BEN YAHI Tizi Ouzou", "code_wil": 15, "court": null, "tel": null, "status": null, "lat": 36.7163828, "lon": 4.0407774, "to_check": false }, "geometry": { "type": "Point", "coordinates": [ 4.0407774, 36.7163828 ] } },
{ "type": "Feature", "properties": { "num": 223, "name": "BELOUNIS NASREDDINE", "address": "12 RTE DE BOGHNI Draa El Mizan  Tizi Ouzou", "code_wil": 15, "court": null, "tel": null, "status": null, "lat": 36.5329303, "lon": 3.9611136, "to_check": false }, "geometry": { "type": "Point", "coordinates": [ 3.9611136, 36.5329303 ] } },
{ "type": "Feature", "properties": { "num": 225, "name": "HAMLIL AMAR", "address": "CITE EUCALYPTUS BT A 62 Tizi Ouzou", "code_wil": 15, "court": null, "tel": null, "status": null, "lat": 36.7107817, "lon": 4.0581525, "to_check": false }, "geometry": { "type": "Point", "coordinates": [ 4.0581525, 36.7107817 ] } },
{ "type": "Feature", "properties": { "num": 226, "name": "ZENBOUDJI AHMED MOUSADDEK", "address": "CITE HAMMOUTENE 24 Tizi Ouzou", "code_wil": 15, "court": null, "tel": null, "status": null, "lat": 36.718663, "lon": 4.0586198, "to_check": false }, "geometry": { "type": "Point", "coordinates": [ 4.0586198, 36.718663 ] } },
{ "type": "Feature", "properties": { "num": 227, "name": "BELACEL BOUBEKEUR", "address": "RUE AMIROUCHE AIT BEN AMARA Tizi Ouzou", "code_wil": 15, "court": null, "tel": null, "status": null, "lat": 36.7389973, "lon": 4.0108251, "to_check": false }, "geometry": { "type": "Point", "coordinates": [ 4.0108251, 36.7389973 ] } },
{ "type": "Feature", "properties": { "num": 224, "name": "TOUMI AKLI", "address": "38 AVENUE KHOUDJA KHALED Tizi Ouzou", "code_wil": 15, "court": null, "tel": null, "status": null, "lat": 36.730596, "lon": 4.1473137, "to_check": false }, "geometry": { "type": "Point", "coordinates": [ 4.1473137, 36.730596 ] } },
{ "type": "Feature", "properties": { "num": 222, "name": "MEZIANI YOUCEF", "address": "CITE DES 32 LOGTS BT B 1 Azazga  Tizi Ouzou", "code_wil": 15, "court": null, "tel": null, "status": null, "lat": 36.7453947, "lon": 4.3714004, "to_check": false }, "geometry": { "type": "Point", "coordinates": [ 4.3714004, 36.7453947 ] } },
{ "type": "Feature", "properties": { "num": 230, "name": "DJAAFOUR RACHID", "address": "CITE 18 LOGTS BT 1 2 Boghni  Tizi Ouzou", "code_wil": 15, "court": null, "tel": null, "status": null, "lat": 36.5329303, "lon": 3.9611136, "to_check": false }, "geometry": { "type": "Point", "coordinates": [ 3.9611136, 36.5329303 ] } },
{ "type": "Feature", "properties": { "num": 231, "name": "ZAAMOUM HOUCINE", "address": "RUE DES FRERES MAAMRI Boghni  Tizi Ouzou", "code_wil": 15, "court": null, "tel": null, "status": null, "lat": 36.7107817, "lon": 4.0581525, "to_check": false }, "geometry": { "type": "Point", "coordinates": [ 4.0581525, 36.7107817 ] } },
{ "type": "Feature", "properties": { "num": 232, "name": "GHIAR BOUSAAD", "address": "RUE DU 1ER NOVEMBRE BP 501 Ain El Hammam  Tizi Ouzou", "code_wil": 15, "court": null, "tel": null, "status": null, "lat": 36.5698193, "lon": 4.3120324, "to_check": false }, "geometry": { "type": "Point", "coordinates": [ 4.3120324, 36.5698193 ] } },
{ "type": "Feature", "properties": { "num": 233, "name": "OUANOUGHI SAID", "address": "RUE CHAFAI AHMED IMMEUBLE YAHYAOUIALI Tigzirt  Tizi Ouzou", "code_wil": 15, "court": null, "tel": null, "status": null, "lat": 36.7107817, "lon": 4.0581525, "to_check": false }, "geometry": { "type": "Point", "coordinates": [ 4.0581525, 36.7107817 ] } },
{ "type": "Feature", "properties": { "num": 228, "name": "BOUHERAOUA HOCINE", "address": "CITE DES 200 VILLA COOP. KAHINA N°1 Tizi Ouzou", "code_wil": 15, "court": null, "tel": null, "status": null, "lat": 36.7335539, "lon": 3.9618589, "to_check": false }, "geometry": { "type": "Point", "coordinates": [ 3.9618589, 36.7335539 ] } },
{ "type": "Feature", "properties": { "num": 378, "name": "ZAANABI NADIA", "address": "CITE 618 LOGTS BT 16 APPT. 4 ET 5 Mohammadia Alger", "code_wil": 16, "court": null, "tel": null, "status": null, "lat": 36.7248012, "lon": 3.151798, "to_check": false }, "geometry": { "type": "Point", "coordinates": [ 3.151798, 36.7248012 ] } },
{ "type": "Feature", "properties": { "num": 371, "name": "DERIAS ZIDOUMA ET OUBAD NADJAT", "address": "COOPERATIVA EL NASSER 60 Kouba Alger", "code_wil": 16, "court": null, "tel": null, "status": null, "lat": 36.7364509, "lon": 3.0925699, "to_check": false }, "geometry": { "type": "Point", "coordinates": [ 3.0925699, 36.7364509 ] } },
{ "type": "Feature", "properties": { "num": 372, "name": "AMRA MADJID", "address": "CITE HAYAT BT B11\/3 Gue De Constantine Alger", "code_wil": 16, "court": null, "tel": null, "status": null, "lat": 36.7030899, "lon": 3.0893939, "to_check": false }, "geometry": { "type": "Point", "coordinates": [ 3.0893939, 36.7030899 ] } },
{ "type": "Feature", "properties": { "num": 373, "name": "MOHAMED EL MOKHTAR AMRIOU", "address": "30 RUE SOUIDANI BOUDJEMAA Cheraga Rp Alger", "code_wil": 16, "court": null, "tel": null, "status": null, "lat": 36.753547, "lon": 3.0615416, "to_check": false }, "geometry": { "type": "Point", "coordinates": [ 3.0615416, 36.753547 ] } },
{ "type": "Feature", "properties": { "num": 374, "name": "NOURINE MUSTAPHA", "address": "CITE BOUZAGZA BT 3 ESCALLIER B 9 Reghaia Alger", "code_wil": 16, "court": null, "tel": null, "status": null, "lat": 36.7386643, "lon": 3.34255, "to_check": false }, "geometry": { "type": "Point", "coordinates": [ 3.34255, 36.7386643 ] } },
{ "type": "Feature", "properties": { "num": 375, "name": "CHEKELALA FATIHA", "address": "CITE 300 LOG BAT 33 Bab Ezzouar Alger", "code_wil": 16, "court": null, "tel": null, "status": null, "lat": 36.7208407, "lon": 3.1851232, "to_check": false }, "geometry": { "type": "Point", "coordinates": [ 3.1851232, 36.7208407 ] } },
{ "type": "Feature", "properties": { "num": 376, "name": "KIHAL SMAIL", "address": "LOT H 39 El Achour Alger", "code_wil": 16, "court": null, "tel": null, "status": null, "lat": 36.7381334, "lon": 2.9868256, "to_check": false }, "geometry": { "type": "Point", "coordinates": [ 2.9868256, 36.7381334 ] } },
{ "type": "Feature", "properties": { "num": 377, "name": "BENFATTOUM HOUCINE", "address": "16 LOT KAOUCHE B Cheraga Cgn Alger", "code_wil": 16, "court": null, "tel": null, "status": null, "lat": 45.7519958, "lon": 0.1534761, "to_check": true }, "geometry": { "type": "Point", "coordinates": [ 0.1534761, 45.7519958 ] } },
{ "type": "Feature", "properties": { "num": 379, "name": "MOSSAB BRAHIM", "address": "SAID HAMDINE BT 2 BLOC 2 Bir Mourad Rais Alger", "code_wil": 16, "court": null, "tel": null, "status": null, "lat": 36.7353482, "lon": 3.0383576, "to_check": false }, "geometry": { "type": "Point", "coordinates": [ 3.0383576, 36.7353482 ] } },
{ "type": "Feature", "properties": { "num": 386, "name": "BOULAHIA BRAHIM", "address": "CITE 56 LOG. BT. A1 RUE AHMED BOUGARA 2 Ain Benian Alger", "code_wil": 16, "court": null, "tel": null, "status": null, "lat": 36.8029653, "lon": 2.9197508, "to_check": false }, "geometry": { "type": "Point", "coordinates": [ 2.9197508, 36.8029653 ] } },
{ "type": "Feature", "properties": { "num": 381, "name": "BELKADI SMAIL", "address": "56 RUE FELLA MOHAMED ARAB El Mouradia Alger", "code_wil": 16, "court": null, "tel": null, "status": null, "lat": 36.736355, "lon": 3.1817678, "to_check": false }, "geometry": { "type": "Point", "coordinates": [ 3.1817678, 36.736355 ] } },
{ "type": "Feature", "properties": { "num": 382, "name": "BENLALIA FOUAD", "address": "CITE DOUZI 399 Bab Ezzouar Alger", "code_wil": 16, "court": null, "tel": null, "status": null, "lat": 36.7366339, "lon": 3.1831067, "to_check": false }, "geometry": { "type": "Point", "coordinates": [ 3.1831067, 36.7366339 ] } },
{ "type": "Feature", "properties": { "num": 383, "name": "CHERAIR MOHAMED", "address": "CITE SAID HAMDINE VILLA 187 Bir Mourad Rais Alger", "code_wil": 16, "court": null, "tel": null, "status": null, "lat": 36.732839, "lon": 3.0381036, "to_check": false }, "geometry": { "type": "Point", "coordinates": [ 3.0381036, 36.732839 ] } },
{ "type": "Feature", "properties": { "num": 384, "name": "KRIM LAILA", "address": "RUE EL FATAH JUILLET BT 70 1 ER ETAGE Birkhadem Alger", "code_wil": 16, "court": null, "tel": null, "status": null, "lat": 36.7160675, "lon": 3.0496695, "to_check": false }, "geometry": { "type": "Point", "coordinates": [ 3.0496695, 36.7160675 ] } },
{ "type": "Feature", "properties": { "num": 385, "name": "AMAD MOHAMED", "address": "17 CHEMIN DE SIDI YAHIA Hydra Alger", "code_wil": 16, "court": null, "tel": null, "status": null, "lat": 36.7388921, "lon": 3.0435442, "to_check": false }, "geometry": { "type": "Point", "coordinates": [ 3.0435442, 36.7388921 ] } },
{ "type": "Feature", "properties": { "num": 370, "name": "BUKHEROUBA KELTHOUM", "address": "26 RUE TRIPOULI Hussein Dey Rp Alger", "code_wil": 16, "court": null, "tel": null, "status": null, "lat": 36.7445311, "lon": 3.0938679, "to_check": false }, "geometry": { "type": "Point", "coordinates": [ 3.0938679, 36.7445311 ] } },
{ "type": "Feature", "properties": { "num": 387, "name": "DHARBANI LAKHDAR", "address": "CITE MAHDIDE SALAH LES VERGES Birkhadem Alger", "code_wil": 16, "court": null, "tel": null, "status": null, "lat": 36.6024727, "lon": 3.0861289, "to_check": false }, "geometry": { "type": "Point", "coordinates": [ 3.0861289, 36.6024727 ] } },
{ "type": "Feature", "properties": { "num": 388, "name": "BELOUNIS NACER EDDINE", "address": "5 RTE BOIS DES CARS Dely Ibrahim Alger", "code_wil": 16, "court": null, "tel": null, "status": null, "lat": 36.7554848, "lon": 2.9797084, "to_check": false }, "geometry": { "type": "Point", "coordinates": [ 2.9797084, 36.7554848 ] } },
{ "type": "Feature", "properties": { "num": 389, "name": "BENNIA KHADIDJA", "address": "45 LOT MERKIDAL LES SOURCES Birkhadem Alger", "code_wil": 16, "court": null, "tel": null, "status": null, "lat": 36.7739484, "lon": 3.0372785, "to_check": false }, "geometry": { "type": "Point", "coordinates": [ 3.0372785, 36.7739484 ] } },
{ "type": "Feature", "properties": { "num": 380, "name": "BOUHANGUEL MAHFOUD", "address": "9 RUE FERHAT ABDELKADER Staoueli Alger", "code_wil": 16, "court": null, "tel": null, "status": null, "lat": 36.7572655, "lon": 2.8885537, "to_check": false }, "geometry": { "type": "Point", "coordinates": [ 2.8885537, 36.7572655 ] } },
{ "type": "Feature", "properties": { "num": 369, "name": "BEDAIDA SAID", "address": "CITE GARIDI 1 BATIMENT 18 5 Kouba Alger", "code_wil": 16, "court": null, "tel": null, "status": null, "lat": 36.7279237, "lon": 3.0670478, "to_check": false }, "geometry": { "type": "Point", "coordinates": [ 3.0670478, 36.7279237 ] } },
{ "type": "Feature", "properties": { "num": 361, "name": "SELLAMNA AZIZA", "address": "2 RUE DES FRERES OUGHLIS El Mouradia Alger", "code_wil": 16, "court": null, "tel": null, "status": null, "lat": 36.7402862, "lon": 3.0501115, "to_check": false }, "geometry": { "type": "Point", "coordinates": [ 3.0501115, 36.7402862 ] } },
{ "type": "Feature", "properties": { "num": 366, "name": "TOUMI RAFIK", "address": "LOT DU PHARE 3 CAP CAXINE Ain Benian Alger", "code_wil": 16, "court": null, "tel": null, "status": null, "lat": 36.8128451, "lon": 2.954008, "to_check": false }, "geometry": { "type": "Point", "coordinates": [ 2.954008, 36.8128451 ] } },
{ "type": "Feature", "properties": { "num": 345, "name": "NEGGACHE RAMDANE", "address": "CITE 2004 LOGTS LOT 46 Baraki Alger", "code_wil": 16, "court": null, "tel": null, "status": null, "lat": 36.6622277, "lon": 3.1014614, "to_check": false }, "geometry": { "type": "Point", "coordinates": [ 3.1014614, 36.6622277 ] } },
{ "type": "Feature", "properties": { "num": 346, "name": "BAKAIL SOUHILA", "address": "11 RUE AISSA BEN FADHA Zeralda Alger", "code_wil": 16, "court": null, "tel": null, "status": null, "lat": 36.6684093, "lon": 2.9407918, "to_check": false }, "geometry": { "type": "Point", "coordinates": [ 2.9407918, 36.6684093 ] } },
{ "type": "Feature", "properties": { "num": 348, "name": "BEN MIMOUN EL HABIB", "address": "CITE LES SOURCES BT 2 N 5 Bir Mourad Rais Alger", "code_wil": 16, "court": null, "tel": null, "status": null, "lat": 36.7323786, "lon": 3.0497799, "to_check": false }, "geometry": { "type": "Point", "coordinates": [ 3.0497799, 36.7323786 ] } },
{ "type": "Feature", "properties": { "num": 349, "name": "BEN TALHA MOHAMED", "address": "CITE MITIDJA BATIMENT 12 \/43 Rouiba Rp Alger", "code_wil": 16, "court": null, "tel": null, "status": null, "lat": 36.7358928, "lon": 3.2779879, "to_check": false }, "geometry": { "type": "Point", "coordinates": [ 3.2779879, 36.7358928 ] } },
{ "type": "Feature", "properties": { "num": 350, "name": "BENTAYA RIMA", "address": "CITE 294 LOGTS BATIMENT A4 1 Ain Benian Alger", "code_wil": 16, "court": null, "tel": null, "status": null, "lat": 36.800402, "lon": 2.9181427, "to_check": false }, "geometry": { "type": "Point", "coordinates": [ 2.9181427, 36.800402 ] } },
{ "type": "Feature", "properties": { "num": 351, "name": "BOUKHAROUBA SAMEH", "address": "CITE GARIDI 1 BATIMENT 8 8 Kouba Alger", "code_wil": 16, "court": null, "tel": null, "status": null, "lat": 36.7279237, "lon": 3.0670478, "to_check": false }, "geometry": { "type": "Point", "coordinates": [ 3.0670478, 36.7279237 ] } },
{ "type": "Feature", "properties": { "num": 352, "name": "OPM DERARDJA ISSAM", "address": "18 RUE DES FRERES LARBI Douera Alger", "code_wil": 16, "court": null, "tel": null, "status": null, "lat": 36.6688355, "lon": 2.9442592, "to_check": false }, "geometry": { "type": "Point", "coordinates": [ 2.9442592, 36.6688355 ] } },
{ "type": "Feature", "properties": { "num": 353, "name": "TADJINE FATIHA", "address": "24 RUE 1er JUILLET Birkhadem Alger", "code_wil": 16, "court": null, "tel": null, "status": null, "lat": 36.7101303, "lon": 3.2199793, "to_check": false }, "geometry": { "type": "Point", "coordinates": [ 3.2199793, 36.7101303 ] } },
{ "type": "Feature", "properties": { "num": 354, "name": "FETTIS KAMAL", "address": "CITE 384 LOGTS BT C 22 SAID HAMDINE Bir Mourad Rais Alger", "code_wil": 16, "court": null, "tel": null, "status": null, "lat": 36.7339979, "lon": 3.033837, "to_check": false }, "geometry": { "type": "Point", "coordinates": [ 3.033837, 36.7339979 ] } },
{ "type": "Feature", "properties": { "num": 368, "name": "BECHA SALIM", "address": "1 RUE HAMMANI AREZKI Alger", "code_wil": 16, "court": null, "tel": null, "status": null, "lat": 36.736355, "lon": 3.1817678, "to_check": false }, "geometry": { "type": "Point", "coordinates": [ 3.1817678, 36.736355 ] } },
{ "type": "Feature", "properties": { "num": 355, "name": "GUENDOUZE HINDA", "address": "43 RUE DIDOUCHE MOURAD  Sidi M'hamed Alger", "code_wil": 16, "court": null, "tel": null, "status": null, "lat": 36.7637381, "lon": 3.048095, "to_check": false }, "geometry": { "type": "Point", "coordinates": [ 3.048095, 36.7637381 ] } },
{ "type": "Feature", "properties": { "num": 357, "name": "REGUIEG KARIMA", "address": "04 PLACE EL KODS Hydra Alger", "code_wil": 16, "court": null, "tel": null, "status": null, "lat": 36.7388921, "lon": 3.0435442, "to_check": false }, "geometry": { "type": "Point", "coordinates": [ 3.0435442, 36.7388921 ] } },
{ "type": "Feature", "properties": { "num": 358, "name": "SAHRAOUI KARIM", "address": "137 RUE 1ER NOVEMBRE Zeralda Alger", "code_wil": 16, "court": null, "tel": null, "status": null, "lat": 36.7118869, "lon": 2.8398444, "to_check": false }, "geometry": { "type": "Point", "coordinates": [ 2.8398444, 36.7118869 ] } },
{ "type": "Feature", "properties": { "num": 359, "name": "SALEM SALAH", "address": "CITE EL ANASSER CITE 4 BATIMENT 92 APPARTEMENT 2 Kouba Alger", "code_wil": 16, "court": null, "tel": null, "status": null, "lat": 36.7490611, "lon": 3.0764042, "to_check": false }, "geometry": { "type": "Point", "coordinates": [ 3.0764042, 36.7490611 ] } },
{ "type": "Feature", "properties": { "num": 360, "name": "SELLAMI SAMIA ALDJIA", "address": "192 CITE HBM 2eme GPE BELOUIZDAD  Sidi M'hamed Alger", "code_wil": 16, "court": null, "tel": null, "status": null, "lat": 36.753547, "lon": 3.0615416, "to_check": false }, "geometry": { "type": "Point", "coordinates": [ 3.0615416, 36.753547 ] } },
{ "type": "Feature", "properties": { "num": 390, "name": "BOUGUERRA KARIMA", "address": "3 LOT. TARDETTI Bir Mourad Rais Alger", "code_wil": 16, "court": null, "tel": null, "status": null, "lat": 36.7353482, "lon": 3.0383576, "to_check": false }, "geometry": { "type": "Point", "coordinates": [ 3.0383576, 36.7353482 ] } },
{ "type": "Feature", "properties": { "num": 362, "name": "ZENBOUDJI AHMED MOSSADEK", "address": "2 RUE KADDOUR RAHIM Hussein Dey Rp Alger", "code_wil": 16, "court": null, "tel": null, "status": null, "lat": 36.7420781, "lon": 3.0931291, "to_check": false }, "geometry": { "type": "Point", "coordinates": [ 3.0931291, 36.7420781 ] } },
{ "type": "Feature", "properties": { "num": 363, "name": "ZEROUG HOUCINE", "address": "8 RUE NEZALI CHERIF Cheraga Rp Alger", "code_wil": 16, "court": null, "tel": null, "status": null, "lat": 36.7660558, "lon": 2.9588258, "to_check": false }, "geometry": { "type": "Point", "coordinates": [ 2.9588258, 36.7660558 ] } },
{ "type": "Feature", "properties": { "num": 364, "name": "SOCIETE NOTARIALE CIVILE BED AIDA NADJAT", "address": "CITE GARIDI 1 BATIMENT 18\/5 Kouba Alger", "code_wil": 16, "court": null, "tel": null, "status": "company", "lat": 36.7277817, "lon": 3.066385, "to_check": false }, "geometry": { "type": "Point", "coordinates": [ 3.066385, 36.7277817 ] } },
{ "type": "Feature", "properties": { "num": 365, "name": "BOUKOURA FAIZA", "address": "22 AVENUE 1ER NOVEMBRE  Haute Casbah Alger", "code_wil": 16, "court": null, "tel": null, "status": null, "lat": 36.7878882, "lon": 3.0629198, "to_check": false }, "geometry": { "type": "Point", "coordinates": [ 3.0629198, 36.7878882 ] } },
{ "type": "Feature", "properties": { "num": 356, "name": "OUZENI HATTEM", "address": "CITE 250 LOGTS Cheraga Rp Alger", "code_wil": 16, "court": null, "tel": null, "status": null, "lat": 36.6024727, "lon": 3.0861289, "to_check": false }, "geometry": { "type": "Point", "coordinates": [ 3.0861289, 36.6024727 ] } },
{ "type": "Feature", "properties": { "num": 391, "name": "MERINI HANANE", "address": "1 COOP. LES VERGERS LOT 2 BirkhademAlger", "code_wil": 16, "court": null, "tel": null, "status": null, "lat": 36.7280542, "lon": 3.0492559, "to_check": false }, "geometry": { "type": "Point", "coordinates": [ 3.0492559, 36.7280542 ] } },
{ "type": "Feature", "properties": { "num": 397, "name": "ZENATI FAYÇAL", "address": "10 RUE ALLAOUA ABDELKADER (LES COMMUNAUX) Kouba Alger", "code_wil": 16, "court": null, "tel": null, "status": null, "lat": 36.729421, "lon": 3.0842811, "to_check": false }, "geometry": { "type": "Point", "coordinates": [ 3.0842811, 36.729421 ] } },
{ "type": "Feature", "properties": { "num": 393, "name": "ABDELAOUI ABDELKADER", "address": "7 CITE DIAR EL MAHSOL BT A El Madania Alger", "code_wil": 16, "court": null, "tel": null, "status": null, "lat": 36.7437419, "lon": 3.0738992, "to_check": false }, "geometry": { "type": "Point", "coordinates": [ 3.0738992, 36.7437419 ] } },
{ "type": "Feature", "properties": { "num": 418, "name": "MIMOUN NOUREDDINE", "address": "02 AVENUE MOHAMED IDRIS BEY  Khelifa Boukhalfa Alger", "code_wil": 16, "court": null, "tel": null, "status": null, "lat": 36.7366434, "lon": 3.0902041, "to_check": false }, "geometry": { "type": "Point", "coordinates": [ 3.0902041, 36.7366434 ] } },
{ "type": "Feature", "properties": { "num": 419, "name": "BAHATA IBRAHIM", "address": "CITE 24 FEVRIER GROUPE 5 07 Staoueli Alger", "code_wil": 16, "court": null, "tel": null, "status": null, "lat": 36.7572655, "lon": 2.8885537, "to_check": false }, "geometry": { "type": "Point", "coordinates": [ 2.8885537, 36.7572655 ] } },
{ "type": "Feature", "properties": { "num": 420, "name": "BOULEKRIAT BOUDJEMAA", "address": "CITE 47 LOGTS BT 05 02 Kheraicia Alger", "code_wil": 16, "court": null, "tel": null, "status": null, "lat": 36.6679107, "lon": 2.9982768, "to_check": false }, "geometry": { "type": "Point", "coordinates": [ 2.9982768, 36.6679107 ] } },
{ "type": "Feature", "properties": { "num": 421, "name": "SAAD FARID", "address": "11 RUE DES MARTYRS Cheraga Rp Alger", "code_wil": 16, "court": null, "tel": null, "status": null, "lat": 36.7668544, "lon": 2.9602011, "to_check": false }, "geometry": { "type": "Point", "coordinates": [ 2.9602011, 36.7668544 ] } },
{ "type": "Feature", "properties": { "num": 422, "name": "CHELIC YAMINA", "address": "ROUTE KAHTAL MOHAMED 02 Ain Benian Alger", "code_wil": 16, "court": null, "tel": null, "status": null, "lat": 36.800402, "lon": 2.9181427, "to_check": false }, "geometry": { "type": "Point", "coordinates": [ 2.9181427, 36.800402 ] } },
{ "type": "Feature", "properties": { "num": 423, "name": "MANSOURI ALI", "address": "24 RUE OMAR BEN EL KHATAB Bab El Oued Alger", "code_wil": 16, "court": null, "tel": null, "status": null, "lat": 36.7920574, "lon": 3.05338, "to_check": false }, "geometry": { "type": "Point", "coordinates": [ 3.05338, 36.7920574 ] } },