{
"type": "FeatureCollection",
"name": "angem_to_check",
"crs": { "type": "name", "properties": { "name": "urn:ogc:def:crs:OGC:1.3:CRS84" } },
"features": [
{ "type": "Feature", "properties": { "num": 1, "code": 1, "nom": "ADRAR", "type": "Agence", "adresses": "CITE 500 VILLAS CNEP N°40, ADRAR", "e-mail": "adrar@angem.dz", "fax": "049 96 76 19", "tel": "049 96 46 74", "wilayas de rattachement": "ADRAR", "lat": 27.880138386246902, "lon": -0.28188652107158102 }, "geometry": { "type": "Point", "coordinates": [ -0.281886521071581, 27.880138386246902 ] } },
{ "type": "Feature", "properties": { "num": 2, "code": 2, "nom": "CHLEF", "type": "Agence", "adresses": "RUE DJOUBA, HAY BEN SOUNA, CHLEF ", "e-mail": "chlef@angem.dz", "fax": "027 79 21 59", "tel": "027 79 21 58", "wilayas de rattachement": "CHLEF", "lat": 36.1609205, "lon": 1.3155951 }, "geometry": { "type": "Point", "coordinates": [ 1.3155951, 36.1609205 ] } },
{ "type": "Feature", "properties": { "num": 3, "code": 3, "nom": "LAGHOUAT", "type": "Agence", "adresses": "AVENUE 05 JUILLET MAAMOURAH-LAGHOUAT", "e-mail": "laghouat@angem.dz", "fax": "029 13 25 37", "tel": "029 13 25 38", "wilayas de rattachement": "LAGHOUAT", "lat": 33.8078341, "lon": 2.8628294 }, "geometry": { "type": "Point", "coordinates": [ 2.8628294, 33.8078341 ] } },
{ "type": "Feature", "properties": { "num": 4, "code": 4, "nom": "OEB", "type": "Agence", "adresses": "ANCIENNNE CITE ADMINISTRATIVE BP 2002 Oum El Bouaghi", "e-mail": "oumelbouaghi@angem.dz", "fax": "032 56 51 67", "tel": "032 56 52 43", "wilayas de rattachement": "OEB", "lat": 35.8688789, "lon": 7.1108266 }, "geometry": { "type": "Point", "coordinates": [ 7.1108266, 35.8688789 ] } },
{ "type": "Feature", "properties": { "num": 5, "code": 5, "nom": "BATNA", "type": "Agence", "adresses": "CITE NACER CITE ADMINISTRATIVE BLOC 02 BATNA", "e-mail": "batna@angem.dz", "fax": "033 25 39 79", "tel": "033 25 39 78", "wilayas de rattachement": "BATNA", "lat": 35.547137055019299, "lon": 6.1673689598317898 }, "geometry": { "type": "Point", "coordinates": [ 6.16736895983179, 35.547137055019299 ] } },
{ "type": "Feature", "properties": { "num": 6, "code": 6, "nom": "BEJAIA", "type": "Antenne", "adresses": "BVD KRIM BELKACEM,CENTRE D'AFFAIRES BEJAIA", "e-mail": "arbejaia@angem.dz", "fax": "034 11 31 26", "tel": "034 11 31 25", "wilayas de rattachement": "Bejaia, Tizi Ouzou, BBA, Setif, Bouira", "lat": 36.7447441, "lon": 5.0478443 }, "geometry": { "type": "Point", "coordinates": [ 5.0478443, 36.7447441 ] } },
{ "type": "Feature", "properties": { "num": 7, "code": 6, "nom": "BEJAIA", "type": "Agence", "adresses": "RUE DE LA LIBERTE ,BLOC ADMINISTRATIF EX SIEGE DES AFFAIRES RELIGIEUSES BEJAIA", "e-mail": "bejaia@angem.dz", "fax": "034 22 94 80", "tel": "034 22 94 84", "wilayas de rattachement": "BEJAIA", "lat": 36.7515258, "lon": 5.0556837 }, "geometry": { "type": "Point", "coordinates": [ 5.0556837, 36.7515258 ] } },
{ "type": "Feature", "properties": { "num": 8, "code": 7, "nom": "BISKRA", "type": "Antenne", "adresses": "BLOC N°06 CITE 200\/500(PRES DE LA MOSQUEE EL FATEH) El Alia- biskra", "e-mail": "arbiskra@angem.dz", "fax": "033 51 53 17", "tel": "033 51 53 17", "wilayas de rattachement": "Biskra, El Oued, Khenchla, Tebessa", "lat": 34.845805010480298, "lon": 5.7114244238741696 }, "geometry": { "type": "Point", "coordinates": [ 5.71142442387417, 34.845805010480298 ] } },
{ "type": "Feature", "properties": { "num": 9, "code": 7, "nom": "BISKRA", "type": "Agence", "adresses": "BLOC N° 06 CITE 200\/500 (PRES DE LA MOSQUEE EL FATEH)EL ALLIA-BISKRA", "e-mail": "biskra@angem.dz", "fax": "033 51 53 55", "tel": "033 51 53 56", "wilayas de rattachement": "BISKRA", "lat": 34.845804675287198, "lon": 5.7114240886810199 }, "geometry": { "type": "Point", "coordinates": [ 5.71142408868102, 34.845804675287198 ] } },
{ "type": "Feature", "properties": { "num": 10, "code": 8, "nom": "BECHAR", "type": "Antenne", "adresses": "Ex hôpital 600 lit Bechar", "e-mail": "arbechar@angem.dz", "fax": "049 23 83 12", "tel": "049 23 83 13", "wilayas de rattachement": "Bechar, Tindouf, Adrar,Naama, El Bayadh", "lat": 31.6238098, "lon": -2.2162443 }, "geometry": { "type": "Point", "coordinates": [ -2.2162443, 31.6238098 ] } },
{ "type": "Feature", "properties": { "num": 11, "code": 8, "nom": "BECHAR", "type": "Agence", "adresses": "CITE AISSET IDIR BECHAR", "e-mail": "bechar@angem.dz", "fax": "049 22 06 69", "tel": "049 22 06 69", "wilayas de rattachement": "BECHAR", "lat": 31.6238098, "lon": -2.2162443 }, "geometry": { "type": "Point", "coordinates": [ -2.2162443, 31.6238098 ] } },
{ "type": "Feature", "properties": { "num": 12, "code": 9, "nom": "BLIDA", "type": "Agence", "adresses": "CITE BOUNAAMA DJILALI BT 90 BLIDA", "e-mail": "blida@angem.dz", "fax": "025 22 95 26", "tel": "025 22 95 25", "wilayas de rattachement": "BLIDA", "lat": 36.4837822, "lon": 2.8159605 }, "geometry": { "type": "Point", "coordinates": [ 2.8159605, 36.4837822 ] } },
{ "type": "Feature", "properties": { "num": 13, "code": 10, "nom": "BOUIRA", "type": "Agence", "adresses": "CITE 56 LGTS BT F ENTREE 02 A COTE DU STADE MUNICIPAL BOUROUBA-BOUIRA", "e-mail": "bouira@angem.dz", "fax": "026 72 02 72", "tel": "026 72 02 72", "wilayas de rattachement": "BOUIRA", "lat": 36.375690070011501, "lon": 3.8889526967314598 }, "geometry": { "type": "Point", "coordinates": [ 3.88895269673146, 36.375690070011501 ] } },
{ "type": "Feature", "properties": { "num": 14, "code": 11, "nom": "TAMANRASSET", "type": "Agence", "adresses": "CITE 104 LOGEMENTS SERSOUF TAMANRASSET", "e-mail": "tamanrasset@angem.dz", "fax": "029 31 41 70", "tel": "029 31 55 55", "wilayas de rattachement": "TAMANRASSET", "lat": 22.7902972, "lon": 5.5193268 }, "geometry": { "type": "Point", "coordinates": [ 5.5193268, 22.7902972 ] } },
{ "type": "Feature", "properties": { "num": 15, "code": 12, "nom": "TEBESSA", "type": "Agence", "adresses": "CITE AADL BLOC 1 ER ETAGE-TEBESSA", "e-mail": "tebessa@angem.dz", "fax": "037 50 62 54", "tel": "037 50 63 17", "wilayas de rattachement": "TEBESSA", "lat": 35.4010797, "lon": 8.1172958 }, "geometry": { "type": "Point", "coordinates": [ 8.1172958, 35.4010797 ] } },
{ "type": "Feature", "properties": { "num": 16, "code": 13, "nom": "TLEMCEN", "type": "Agence", "adresses": "CITE ENSEMBLE IMMOBILIER IMAMA ILOT 3 TELMCEN", "e-mail": "tlemcen@angem.dz", "fax": "043 38 20 33", "tel": "043 38 22 05", "wilayas de rattachement": "TLEMCEN", "lat": 34.8838296, "lon": -1.3486641 }, "geometry": { "type": "Point", "coordinates": [ -1.3486641, 34.8838296 ] } },
{ "type": "Feature", "properties": { "num": 17, "code": 14, "nom": "TIARET", "type": "Antenne", "adresses": "Cité Sonatiba lot 02, superposé N° 102 Tiaret", "e-mail": "artiaret@angem.dz", "fax": "046 22 55 97", "tel": "046 22 55 97", "wilayas de rattachement": "Tiaret, Relizane, Saida, Ain Defla, Chlef, Tissemsilt", "lat": 35.3604826, "lon": 1.3402953 }, "geometry": { "type": "Point", "coordinates": [ 1.3402953, 35.3604826 ] } },
{ "type": "Feature", "properties": { "num": 18, "code": 14, "nom": "TIARET", "type": "Agence", "adresses": "CITE SONATIBA LOT 02, SUPERPOSE N° 102 TIARET ", "e-mail": "tiaret@angem.dz", "fax": "046 20 87 14", "tel": "046 20 87 13", "wilayas de rattachement": "TIARET", "lat": 35.3604826, "lon": 1.3402953 }, "geometry": { "type": "Point", "coordinates": [ 1.3402953, 35.3604826 ] } },
{ "type": "Feature", "properties": { "num": 19, "code": 15, "nom": "TIZI OUZOU", "type": "Agence", "adresses": "20 RUE KASRI AMAR TIZI-OUZOU", "e-mail": "tiziouzou@angem.dz", "fax": "026 19 42 36", "tel": "026 19 42 35", "wilayas de rattachement": "TIZI OUZOU", "lat": 36.7176251, "lon": 4.0543623 }, "geometry": { "type": "Point", "coordinates": [ 4.0543623, 36.7176251 ] } },
{ "type": "Feature", "properties": { "num": 20, "code": 16, "nom": "ALGER OUEST", "type": "Agence", "adresses": "CITE 527 LOGTS AADL EL ACHOUR DRARIA ALGER", "e-mail": "algerouest@angem.dz", "fax": "021 33 37 02", "tel": "021 33 37 02", "wilayas de rattachement": "ALGER OUEST", "lat": 36.727023, "lon": 2.998084 }, "geometry": { "type": "Point", "coordinates": [ 2.998084, 36.727023 ] } },
{ "type": "Feature", "properties": { "num": 21, "code": 16, "nom": "ALGER EST", "type": "Agence", "adresses": "40,42 RUE LAARBI BNE M'HIDI ALGER CENTRE ", "e-mail": "algerest@angem.dz", "fax": "021 71 22 48", "tel": "021 71 22 49", "wilayas de rattachement": "ALGER EST", "lat": 36.7712246, "lon": 3.0612244 }, "geometry": { "type": "Point", "coordinates": [ 3.0612244, 36.7712246 ] } },
{ "type": "Feature", "properties": { "num": 22, "code": 17, "nom": "DJELFA", "type": "Agence", "adresses": "CITE GUENANI BT A N° 2 (EX SIEGE DE BNA) DJELFA", "e-mail": "djelfa@angem.dz", "fax": "027 90 12 53", "tel": "027 92 34 16", "wilayas de rattachement": "DJELFA", "lat": 34.6703956, "lon": 3.2503761 }, "geometry": { "type": "Point", "coordinates": [ 3.2503761, 34.6703956 ] } },
{ "type": "Feature", "properties": { "num": 23, "code": 17, "nom": "DJELFA", "type": "Antenne", "adresses": "Cité DAR EL BAROUD, Djelfa. (EX Siège de la CASNOS) DJELFA", "e-mail": "ardjelfa@angem.dz", "fax": "027 91 43 59", "tel": "027 91 43 51", "wilayas de rattachement": "Djelfa, Laghouat, Medea, M'Sila", "lat": 34.6703956, "lon": 3.2503761 }, "geometry": { "type": "Point", "coordinates": [ 3.2503761, 34.6703956 ] } },
{ "type": "Feature", "properties": { "num": 24, "code": 18, "nom": "JIJEL", "type": "Agence", "adresses": "CITE ADMINISTRATIVE DE LA WILAYA DE JIJEL 2 EME ETAGE JIJEL", "e-mail": "jijel@angem.dz", "fax": "034 47 55 30", "tel": "034 47 56 88", "wilayas de rattachement": "JIJEL", "lat": 36.8210144, "lon": 5.7634126 }, "geometry": { "type": "Point", "coordinates": [ 5.7634126, 36.8210144 ] } },
{ "type": "Feature", "properties": { "num": 25, "code": 19, "nom": "SETIF", "type": "Agence", "adresses": "CITE ADMINISTRATIVE AIN TEBINET EX SIEGE DE LA RADIO SETIF", "e-mail": "setif@angem.dz", "fax": "036 62 11 98", "tel": "036 62 11 49", "wilayas de rattachement": "SETIF", "lat": 36.1865569, "lon": 5.4315964 }, "geometry": { "type": "Point", "coordinates": [ 5.4315964, 36.1865569 ] } },
{ "type": "Feature", "properties": { "num": 26, "code": 20, "nom": "SAIDA", "type": "Agence", "adresses": "BOULVARD FRANZ FANON EX MOHAFADAT DE SAIDA", "e-mail": "saida@angem.dz", "fax": "048 41 02 53", "tel": "048 41 00 94", "wilayas de rattachement": "SAIDA", "lat": 34.840281697901403, "lon": 0.15757407374902799 }, "geometry": { "type": "Point", "coordinates": [ 0.157574073749028, 34.840281697901403 ] } },
{ "type": "Feature", "properties": { "num": 27, "code": 21, "nom": "SKIKDA", "type": "Agence", "adresses": "BLOC ADMINISTRATIVE DE WILAYA CITE 300 LOGS MERDJ DIB SKIKDA", "e-mail": "skidka@angem.dz", "fax": "038 70 18 85", "tel": "038 70 30 56", "wilayas de rattachement": "SKIKDA", "lat": 36.8674847, "lon": 6.9211614 }, "geometry": { "type": "Point", "coordinates": [ 6.9211614, 36.8674847 ] } },
{ "type": "Feature", "properties": { "num": 28, "code": 22, "nom": "S.B.A", "type": "Agence", "adresses": "08 RUE IBRAHIM TAYEB CHERFA Sidi Bel ABBBEs ", "e-mail": "sba@angem.dz", "fax": "048 77 67 49", "tel": "048 77 65 18", "wilayas de rattachement": "S.B.A", "lat": 35.1914492, "lon": -0.6458117 }, "geometry": { "type": "Point", "coordinates": [ -0.6458117, 35.1914492 ] } },
{ "type": "Feature", "properties": { "num": 29, "code": 22, "nom": "SIDI BELLABES", "type": "Antenne", "adresses": "Avenue Abbane Ramadane prolongée, cité 106 logts -Sidi Yacine SIDI BEL ABBES", "e-mail": "arsba@angem.dz", "fax": "048 76 14 06", "tel": "048 76 14 05", "wilayas de rattachement": "SBA, Mostaganem,Oran,Mascara, Ain Temouchent, Tlemcen", "lat": 35.2105876, "lon": -0.629983 }, "geometry": { "type": "Point", "coordinates": [ -0.629983, 35.2105876 ] } },
{ "type": "Feature", "properties": { "num": 30, "code": 23, "nom": "ANNABA", "type": "Antenne", "adresses": "Cité AADL 221 logs Bloc w24 S01 ET S02 sidi achour ANNABA", "e-mail": "arannaba@angem.dz", "fax": "038 47 93 12", "tel": "038 47 93 12", "wilayas de rattachement": "Annaba, El taref, Skikda, Souk Ahras, Guelma", "lat": 36.878511, "lon": 7.7146099 }, "geometry": { "type": "Point", "coordinates": [ 7.7146099, 36.878511 ] } },
{ "type": "Feature", "properties": { "num": 31, "code": 23, "nom": "ANNABA", "type": "Agence", "adresses": "ANGLE SOUIDANI BOUDJEMAA BOUDJERAD HOCINE (EX CMS SIDER) ANNABA", "e-mail": "annaba@angem.dz", "fax": "038 47 92 47", "tel": "038 47 92 48", "wilayas de rattachement": "ANNABA", "lat": 36.9007591, "lon": 7.7528551 }, "geometry": { "type": "Point", "coordinates": [ 7.7528551, 36.9007591 ] } },
{ "type": "Feature", "properties": { "num": 32, "code": 24, "nom": "GUELMA", "type": "Agence", "adresses": "CITE ADMINISTRATIVE 80 BUREAUX ROUTE DE SEDRATA GUELMA", "e-mail": "guelma@angem.dz", "fax": "037 14 05 72", "tel": "037 14 71 64", "wilayas de rattachement": "GUELMA", "lat": 36.4549533, "lon": 7.4409199 }, "geometry": { "type": "Point", "coordinates": [ 7.4409199, 36.4549533 ] } },
{ "type": "Feature", "properties": { "num": 33, "code": 25, "nom": "CONSTANTINE", "type": "Antenne", "adresses": "204 logements SOREM tour C2 Nouvelle Ville Ali Mendjeli CONSTANTINE", "e-mail": "arconstantine@angem.dz", "fax": "031 74 74 60", "tel": "031 74 74 64", "wilayas de rattachement": "Constantine, Jijel, Mila, O E B, Batna", "lat": 36.2570374, "lon": 6.5831384 }, "geometry": { "type": "Point", "coordinates": [ 6.5831384, 36.2570374 ] } },
{ "type": "Feature", "properties": { "num": 34, "code": 25, "nom": "CONSTANTINE", "type": "Agence", "adresses": "03 RUE BOUAALI SAID CONSTANTINE", "e-mail": "constantine@angem.dz", "fax": "031 87 10 09", "tel": "031 87 14 10", "wilayas de rattachement": "CONSTANTINE", "lat": 36.3539974, "lon": 6.6049575 }, "geometry": { "type": "Point", "coordinates": [ 6.6049575, 36.3539974 ] } },
{ "type": "Feature", "properties": { "num": 35, "code": 26, "nom": "MEDEA", "type": "Agence", "adresses": "RUE FERRAH AHMED MEDEA", "e-mail": "medea@angem.dz", "fax": "025 59 98 96", "tel": "025 59 25 40", "wilayas de rattachement": "MEDEA", "lat": 36.2630335, "lon": 2.7565749 }, "geometry": { "type": "Point", "coordinates": [ 2.7565749, 36.2630335 ] } },
{ "type": "Feature", "properties": { "num": 36, "code": 27, "nom": "MOSTAGANEM", "type": "Agence", "adresses": "CITE ADMINISTRATIVE DE LA WILAYA MOSTEGANEM", "e-mail": "mostaganem@angem.dz", "fax": "045 30 91 73", "tel": "045 30 98 55", "wilayas de rattachement": "MOSTAGANEM", "lat": 35.9301637, "lon": 0.1045401 }, "geometry": { "type": "Point", "coordinates": [ 0.1045401, 35.9301637 ] } },
{ "type": "Feature", "properties": { "num": 37, "code": 28, "nom": "M'SILA", "type": "Agence", "adresses": "CITE ADMINISTRATIVE SIEGE DE LA DIRECTION DE L'EDUCATION - M'SILA", "e-mail": "msila@angem.dz", "fax": "035 55 66 15", "tel": "035 55 30 50", "wilayas de rattachement": "M'SILA", "lat": 35.714084, "lon": 4.52536 }, "geometry": { "type": "Point", "coordinates": [ 4.52536, 35.714084 ] } },
{ "type": "Feature", "properties": { "num": 38, "code": 29, "nom": "MASCARA", "type": "Agence", "adresses": "RUE CHEMMOUM MOKHTAR MASCARA", "e-mail": "mascara@angem.dz", "fax": "045 71 89 98", "tel": "045 71 89 36", "wilayas de rattachement": "MASCARA", "lat": 35.3962598571771, "lon": 0.14346914637164301 }, "geometry": { "type": "Point", "coordinates": [ 0.143469146371643, 35.3962598571771 ] } },
{ "type": "Feature", "properties": { "num": 39, "code": 30, "nom": "OUARGLA", "type": "Agence", "adresses": "CENTRE COMMERCIAL SOUK EL HADJER OUARGLA", "e-mail": "ouargla@angem.dz", "fax": "029 76 78 65", "tel": "029 76 00 02", "wilayas de rattachement": "OUARGLA", "lat": 31.9527411, "lon": 5.3335348 }, "geometry": { "type": "Point", "coordinates": [ 5.3335348, 31.9527411 ] } },
{ "type": "Feature", "properties": { "num": 40, "code": 30, "nom": "OUARGLA", "type": "Antenne", "adresses": "Ex CENTRE COMMERCIALE OUARGLA", "e-mail": "arouargla@angem.dz", "fax": "029.76 44 97", "tel": "029.76 93 10", "wilayas de rattachement": "Ouargla, Ghardaia, Illizi, Tamanrasset", "lat": 31.9416083, "lon": 5.3068146 }, "geometry": { "type": "Point", "coordinates": [ 5.3068146, 31.9416083 ] } },
{ "type": "Feature", "properties": { "num": 41, "code": 31, "nom": "ORAN", "type": "Agence", "adresses": "EX BATI-ORAN EN FACE LYCEE HAMMOU BOUTELILIS GAMBETTA ORAN", "e-mail": "oran@angem.dz", "fax": "041 59 05 01", "tel": "041 59 05 00", "wilayas de rattachement": "ORAN", "lat": 35.7104335, "lon": -0.6192322 }, "geometry": { "type": "Point", "coordinates": [ -0.6192322, 35.7104335 ] } },
{ "type": "Feature", "properties": { "num": 42, "code": 32, "nom": "EL BAYADH", "type": "Agence", "adresses": "RUE HADJ IBRAHIM BELHOUARI EL BAYADH", "e-mail": "elbayadh@angem.dz", "fax": "049 61 35 70", "tel": "049 61 38 47", "wilayas de rattachement": "EL BAYADH", "lat": 33.6854149, "lon": 1.0303543 }, "geometry": { "type": "Point", "coordinates": [ 1.0303543, 33.6854149 ] } },
{ "type": "Feature", "properties": { "num": 43, "code": 33, "nom": "ILLIZI", "type": "Agence", "adresses": "PLACE EL MAGHREB EL ARABI ILLIZI", "e-mail": "illizi@angem.dz", "fax": "029 41 16 10", "tel": "029 41 16 10", "wilayas de rattachement": "ILLIZI", "lat": 26.4978821773703, "lon": 8.4769391216240404 }, "geometry": { "type": "Point", "coordinates": [ 8.47693912162404, 26.4978821773703 ] } },
{ "type": "Feature", "properties": { "num": 44, "code": 34, "nom": "B B A", "type": "Agence", "adresses": "NOUVELLE CITE ADMINISTRATIVE DOUAR SOUK,SIEGE MAISON DE LA SOLIDARITE DE ASSOCIATIONS BORDJ BOU ARRERIDJ", "e-mail": "bba@angem.dz", "fax": "035 69 22 91", "tel": "035 69 20 02", "wilayas de rattachement": "B B A", "lat": 36.0739925, "lon": 4.7630271 }, "geometry": { "type": "Point", "coordinates": [ 4.7630271, 36.0739925 ] } },
{ "type": "Feature", "properties": { "num": 45, "code": 35, "nom": "BOUMERDES", "type": "Agence", "adresses": "SIEGE DE LA WILAYA DE BOUMERDES", "e-mail": "boumerdes@angem.dz", "fax": "024 94 91 06", "tel": "024 94 91 06", "wilayas de rattachement": "BOUMERDES", "lat": 36.7539332, "lon": 3.4725258 }, "geometry": { "type": "Point", "coordinates": [ 3.4725258, 36.7539332 ] } },
{ "type": "Feature", "properties": { "num": 46, "code": 36, "nom": "EL TARF", "type": "Agence", "adresses": "BLOC N°168 À COTE DE L'AGENCE FONCIERE EL TAREF", "e-mail": "tarf@angem.dz", "fax": "038 30 20 22", "tel": "038 30 21 07", "wilayas de rattachement": "EL TARF", "lat": 36.7576678, "lon": 8.3076343 }, "geometry": { "type": "Point", "coordinates": [ 8.3076343, 36.7576678 ] } },
{ "type": "Feature", "properties": { "num": 47, "code": 37, "nom": "TINDOUF", "type": "Agence", "adresses": "43 LOGTS LOTFI TINDOUF", "e-mail": "tindouf@angem.dz", "fax": "049 38 73 64", "tel": "049 38 73 64", "wilayas de rattachement": "TINDOUF", "lat": 27.6719159, "lon": -8.1398003 }, "geometry": { "type": "Point", "coordinates": [ -8.1398003, 27.6719159 ] } },
{ "type": "Feature", "properties": { "num": 48, "code": 38, "nom": "TISSEMSILT", "type": "Agence", "adresses": "CITE 100 LOGTS ROUTE DE HAMADIA TISSEMSILT", "e-mail": "tissemsilt@angem.dz", "fax": "046 56 92 98", "tel": "046 56 93 06", "wilayas de rattachement": "TISSEMSILT", "lat": 35.6053781, "lon": 1.813098 }, "geometry": { "type": "Point", "coordinates": [ 1.813098, 35.6053781 ] } },
{ "type": "Feature", "properties": { "num": 49, "code": 39, "nom": "EL-OUED", "type": "Agence", "adresses": "CITE ADMINISTRATIVE EL CHOTT EL OUED", "e-mail": "eloued@angem.dz", "fax": "032 10 95 98", "tel": "032 10 95 99", "wilayas de rattachement": "EL-OUED", "lat": 33.367811, "lon": 6.8516511 }, "geometry": { "type": "Point", "coordinates": [ 6.8516511, 33.367811 ] } },
{ "type": "Feature", "properties": { "num": 50, "code": 40, "nom": "KHENCHELA", "type": "Agence", "adresses": "ROUTE DE MESKIANA KHENCHELA", "e-mail": "khenchela@angem.dz", "fax": "032 31 38 85", "tel": "032 31 82 10", "wilayas de rattachement": "KHENCHELA", "lat": 35.4300553, "lon": 7.151359 }, "geometry": { "type": "Point", "coordinates": [ 7.151359, 35.4300553 ] } },
{ "type": "Feature", "properties": { "num": 51, "code": 41, "nom": "SOUK AHRAS", "type": "Agence", "adresses": "CITE ADMINISTRATIVE 80 BUREAUX EL BORDJ EL KABIR SOUK AHRAS", "e-mail": "soukahras@angem.dz", "fax": "037 72 43 86", "tel": "037 72 43 87", "wilayas de rattachement": "SOUK AHRAS", "lat": 36.279700262944097, "lon": 7.9364737009183601 }, "geometry": { "type": "Point", "coordinates": [ 7.93647370091836, 36.279700262944097 ] } },
{ "type": "Feature", "properties": { "num": 52, "code": 42, "nom": "TIPAZA", "type": "Agence", "adresses": "ROUTE DE LA GENDARMERIE NATIONALE-TIPAZA", "e-mail": "tipaza@angem.dz", "fax": "024 37 70 36", "tel": "024 37 70 38", "wilayas de rattachement": "TIPAZA", "lat": 36.5906719, "lon": 2.4433723 }, "geometry": { "type": "Point", "coordinates": [ 2.4433723, 36.5906719 ] } },
{ "type": "Feature", "properties": { "num": 53, "code": 42, "nom": "TIPAZA", "type": "Antenne", "adresses": "ROUTE DE LA GENDARMERIE NATIONALE TIPAZA", "e-mail": "artipaza@angem.dz", "fax": "024 37 70 34", "tel": "023 37 70 35", "wilayas de rattachement": "Tipaza, Alger-Est, Alger-Ouest, Blida, Boumerdes", "lat": 36.5906719, "lon": 2.4433723 }, "geometry": { "type": "Point", "coordinates": [ 2.4433723, 36.5906719 ] } },
{ "type": "Feature", "properties": { "num": 54, "code": 43, "nom": "MILA", "type": "Agence", "adresses": "CITE BEN GUERBA FACE APW MILA", "e-mail": "mila@angem.dz", "fax": "031 47 48 16", "tel": "031 47 47 44", "wilayas de rattachement": "MILA", "lat": 36.448219285017103, "lon": 6.2654433792401099 }, "geometry": { "type": "Point", "coordinates": [ 6.26544337924011, 36.448219285017103 ] } },
{ "type": "Feature", "properties": { "num": 55, "code": 44, "nom": "AIN DEFLA", "type": "Agence", "adresses": "CITE ADMINISTRATIVE COMPLEXE 100 BUREAUX 14000 AIN DEFLA", "e-mail": "aindefla@angem.dz", "fax": "046 56 92 98", "tel": "027 50 45 55", "wilayas de rattachement": "AIN DEFLA", "lat": 36.2509429, "lon": 1.9393815 }, "geometry": { "type": "Point", "coordinates": [ 1.9393815, 36.2509429 ] } },
{ "type": "Feature", "properties": { "num": 56, "code": 45, "nom": "NAAMA", "type": "Agence", "adresses": "CITE ADMINISTRATIVE 50 BUREAUX BT 146 NAAMA", "e-mail": "naama@angem.dz", "fax": "049 59 50 09", "tel": "049 59 56 63", "wilayas de rattachement": "NAAMA", "lat": 33.267319503900403, "lon": -0.30929097780702802 }, "geometry": { "type": "Point", "coordinates": [ -0.309290977807028, 33.267319503900403 ] } },
{ "type": "Feature", "properties": { "num": 57, "code": 46, "nom": "AIN TEMOUCHENT", "type": "Agence", "adresses": "AVENUE AMRO MOKDAD CITE MEDINA", "e-mail": "aintemouchent@angem.dz", "fax": "043 79 53 34", "tel": "043 79 21 38", "wilayas de rattachement": "AIN TEMOUCHENT", "lat": 35.303812248089798, "lon": -1.13997868702802 }, "geometry": { "type": "Point", "coordinates": [ -1.13997868702802, 35.303812248089798 ] } },
{ "type": "Feature", "properties": { "num": 58, "code": 47, "nom": "GHARDAIA", "type": "Agence", "adresses": "CENTRE COMMERCIAL SIDI ABAZ GHARDAIA", "e-mail": "ghardaia@angem.dz", "fax": "029 83 73 22", "tel": "029 25 63 03", "wilayas de rattachement": "GHARDAIA", "lat": 32.4851756, "lon": 3.6951311 }, "geometry": { "type": "Point", "coordinates": [ 3.6951311, 32.4851756 ] } },
{ "type": "Feature", "properties": { "num": 59, "code": 48, "nom": "RELIZANE", "type": "Agence", "adresses": "CITE 105 LOGEMENTS ROPEL RELIZANE", "e-mail": "relizane@angem.dz", "fax": "047 76 84 74", "tel": "046 76 84 75", "wilayas de rattachement": "RELIZANE", "lat": 35.7450263, "lon": 0.5578837 }, "geometry": { "type": "Point", "coordinates": [ 0.5578837, 35.7450263 ] } }
]
}
